stop_id,stop_name,stop_lat,stop_lon,trip_id,arrival_time,departure_time,stop_sequence,direction_id,route_id,route_url,serviceid
1383,"""GATEWAY CENTER AT 64 BUS BERTH""",41.491485,-71.317772,2351151,13:15:00,13:15:00,1,1,64,http://www.ripta.com/64,Weekday
1420,"""THIRD FS BRIDGE""",41.492298,-71.318642,2351151,13:16:00,13:16:00,2,1,64,http://www.ripta.com/64,Weekday
1465,"""THIRD AT WALNUT""",41.49467,-71.318955,2351151,13:16:00,13:16:00,3,1,64,http://www.ripta.com/64,Weekday
1530,"""THIRD NS LASALLE""",41.497507,-71.319305,2351151,13:17:00,13:17:00,4,1,64,http://www.ripta.com/64,Weekday
1605,"""THIRD OPP CYPRESS""",41.500429,-71.319726,2351151,13:18:00,13:18:00,5,1,64,http://www.ripta.com/64,Weekday
1645,"""THIRD AT BAYSIDE VILLAGE""",41.501716,-71.319844,2351151,13:19:00,13:19:00,6,1,64,http://www.ripta.com/64,Weekday
1715,"""THIRD OPP NAVAL HEALTH CLINIC""",41.504382,-71.320194,2351151,13:20:00,13:20:00,7,1,64,http://www.ripta.com/64,Weekday
1755,"""ADM KALBFUS AT AT ADMIRAL'S GATE""",41.506695,-71.319325,2351151,13:21:00,13:21:00,8,1,64,http://www.ripta.com/64,Weekday
1835,"""CONNELL HWAY OPP NISSAN VOLVO""",41.508102,-71.317583,2351151,13:22:00,13:22:00,9,1,64,http://www.ripta.com/64,Weekday
1895,"""NEWPORT TOWNE CENTER (STOP&SHOP)""",41.508474,-71.31643,2351151,13:22:00,13:22:00,10,1,64,http://www.ripta.com/64,Weekday
1890,"""NEWPORT TOWNE CENTER (WALMART)""",41.510625,-71.316887,2351151,13:23:00,13:23:00,11,1,64,http://www.ripta.com/64,Weekday
1870,"""NEWPORT TOWNE CENTER (LAUNDROMAT)""",41.511926,-71.317415,2351151,13:23:00,13:23:00,12,1,64,http://www.ripta.com/64,Weekday
2020,"""CONNELL HWAY NS MAPLE""",41.515053,-71.316041,2351151,13:23:00,13:23:00,13,1,64,http://www.ripta.com/64,Weekday
2090,"""CODDINGTON NS JOHN CHAFEE BLVD""",41.518131,-71.313698,2351151,13:24:00,13:24:00,14,1,64,http://www.ripta.com/64,Weekday
58145,"""CCRI (NEWPORT CAMPUS)""",41.51735,-71.31302,2351151,13:24:00,13:24:00,15,1,64,http://www.ripta.com/64,Weekday
2025,"""CONNELL OPP HILLMART""",41.515038,-71.316217,2351151,13:25:00,13:25:00,16,1,64,http://www.ripta.com/64,Weekday
1865,"""CONNELL  HWAY AT NEWPORT ADULTS VIDEO""",41.511545,-71.318059,2351151,13:25:00,13:25:00,17,1,64,http://www.ripta.com/64,Weekday
1775,"""CONNELL HWAY AT NEWPORT TIRE""",41.507682,-71.317696,2351151,13:26:00,13:26:00,18,1,64,http://www.ripta.com/64,Weekday
1575,"""CONANICUS FS KNOWLES""",41.496757,-71.367143,2351151,13:35:00,13:35:00,19,1,64,http://www.ripta.com/64,Weekday
1525,"""NARRAGANSETT FS E SHORE RD""",41.496382,-71.367405,2351151,13:35:00,13:35:00,20,1,64,http://www.ripta.com/64,Weekday
1515,"""NARRAGANSETT AT 20 NARRAGANSETT""",41.49637,-71.368745,2351151,13:35:00,13:35:00,21,1,64,http://www.ripta.com/64,Weekday
1520,"""NARRAGANSETT FS GRINNELL""",41.496315,-71.371732,2351151,13:35:00,13:35:00,22,1,64,http://www.ripta.com/64,Weekday
57520,"""NARRAGANSETT AT 92 NARRAGANSETT""",41.496233,-71.374074,2351151,13:36:00,13:36:00,23,1,64,http://www.ripta.com/64,Weekday
1565,"""NORTH NS VALLEY""",41.498233,-71.374589,2351151,13:36:00,13:36:00,24,1,64,http://www.ripta.com/64,Weekday
57525,"""NORTH OPP 79 NORTH""",41.50072,-71.374606,2351151,13:36:00,13:36:00,25,1,64,http://www.ripta.com/64,Weekday
70600,"""RT 1A & RT 138 PARK&RIDE""",41.526983,-71.425462,2351151,13:45:00,13:45:00,26,1,64,http://www.ripta.com/64,Weekday
2325,"""BOSTON NECK NS BARBERS HEIGHTS""",41.524298,-71.424082,2351151,13:45:00,13:45:00,27,1,64,http://www.ripta.com/64,Weekday
60085,"""BOSTON NECK FS SNUFF MILL""",41.522243,-71.42384,2351151,13:46:00,13:46:00,28,1,64,http://www.ripta.com/64,Weekday
2245,"""BOSTON NECK FS HOMESTEAD""",41.521254,-71.424046,2351151,13:46:00,13:46:00,29,1,64,http://www.ripta.com/64,Weekday
60090,"""BOSTON NECK OPP 2080 BOSTON NECK""",41.519246,-71.424093,2351151,13:46:00,13:46:00,30,1,64,http://www.ripta.com/64,Weekday
2065,"""BOSTON NECK OPP CHARLOTTE""",41.516748,-71.423412,2351151,13:47:00,13:47:00,31,1,64,http://www.ripta.com/64,Weekday
1880,"""BOSTON NECK FS FERRY""",41.507661,-71.425119,2351151,13:48:00,13:48:00,32,1,64,http://www.ripta.com/64,Weekday
1730,"""BOSTON NECK NS MINER""",41.505015,-71.42862,2351151,13:48:00,13:48:00,33,1,64,http://www.ripta.com/64,Weekday
1660,"""BOSTON NECK NS INDIAN TRAIL""",41.502256,-71.43213,2351151,13:49:00,13:49:00,34,1,64,http://www.ripta.com/64,Weekday
1615,"""BOSTON NECK NS RIVERDELL""",41.500993,-71.433797,2351151,13:49:00,13:49:00,35,1,64,http://www.ripta.com/64,Weekday
1545,"""BOSTON NECK NS PETTAQUAMSCUTT LAKE""",41.497967,-71.436521,2351151,13:50:00,13:50:00,36,1,64,http://www.ripta.com/64,Weekday
1450,"""BOSTON LAKE NS EDGEWATER RD""",41.494846,-71.437896,2351151,13:50:00,13:50:00,37,1,64,http://www.ripta.com/64,Weekday
1400,"""BOSTON NECK NS BRIDGETOWN""",41.492409,-71.43815,2351151,13:50:00,13:50:00,38,1,64,http://www.ripta.com/64,Weekday
58845,"""PIER RD FS SOUTH FERRY""",41.49198,-71.424045,2351151,13:52:00,13:52:00,39,1,64,http://www.ripta.com/64,Weekday
57555,"""BRIDGETOWN AT 130 BRIDGETOWN""",41.49033,-71.445921,2351151,13:56:00,13:56:00,40,1,64,http://www.ripta.com/64,Weekday
57560,"""BRIDGETOWN NS WALMSLEY""",41.488291,-71.449408,2351151,13:57:00,13:57:00,41,1,64,http://www.ripta.com/64,Weekday
57565,"""RT 138 AT 61 MOORESVILLE RD""",41.494603,-71.458699,2351151,13:59:00,13:59:00,42,1,64,http://www.ripta.com/64,Weekday
1075,"""KINGSTOWN FS NORTH RD""",41.480003,-71.522949,2351151,14:07:00,14:07:00,43,1,64,http://www.ripta.com/64,Weekday
1085,"""KINGSTOWN AT 2579 KINGSTOWN RD""",41.480197,-71.524366,2351151,14:07:00,14:07:00,44,1,64,http://www.ripta.com/64,Weekday
1180,"""UPPER COLLEGE NS CAMPUS""",41.482731,-71.525703,2351151,14:07:00,14:07:00,45,1,64,http://www.ripta.com/64,Weekday
1190,"""CAMPUS AT COLLEGE OF PHARMACY""",41.483487,-71.528164,2351151,14:08:00,14:08:00,46,1,64,http://www.ripta.com/64,Weekday
1225,"""URI STUDENT UNION""",41.484315,-71.529311,2351151,14:08:00,14:08:00,47,1,64,http://www.ripta.com/64,Weekday
1155,"""LOWER COLLEGE OPP ST AUGUSTINES CHURCH""",41.481905,-71.529871,2351151,14:09:00,14:09:00,48,1,64,http://www.ripta.com/64,Weekday
72190,"""KINGSTOWN OPP GRADUATE VILLAGE APTS""",41.482201,-71.535733,2351151,14:10:00,14:10:00,49,1,64,http://www.ripta.com/64,Weekday
1175,"""KINGSTOWN FS W INDEPENDENCE""",41.482871,-71.540778,2351151,14:11:00,14:11:00,50,1,64,http://www.ripta.com/64,Weekday
50720,"""KINGSTOWN NS PLAINS""",41.482103,-71.549827,2351151,14:13:00,14:13:00,51,1,64,http://www.ripta.com/64,Weekday
1205,"""KINGSTOWN NS WAITES CORNER""",41.482979,-71.551555,2351151,14:13:00,14:13:00,52,1,64,http://www.ripta.com/64,Weekday
59750,"""KINGSTOWN AT MOBIL GAS STATION""",41.483402,-71.553139,2351151,14:13:00,14:13:00,53,1,64,http://www.ripta.com/64,Weekday
50725,"""KINGSTOWN OPP WATSON""",41.483848,-71.555632,2351151,14:14:00,14:14:00,54,1,64,http://www.ripta.com/64,Weekday
1230,"""KINGSTON RAILROAD STATION""",41.484102,-71.560243,2351151,14:15:00,14:15:00,55,1,64,http://www.ripta.com/64,Weekday
1230,"""KINGSTON RAILROAD STATION""",41.484102,-71.560243,2351152,06:20:00,06:20:00,1,0,64,http://www.ripta.com/64,Weekday
50675,"""KINGSTOWN FS WATSON""",41.483611,-71.555325,2351152,06:21:00,06:21:00,2,0,64,http://www.ripta.com/64,Weekday
50680,"""KINGSTOWN NS TLC COFFEE ROASTERS""",41.483126,-71.552351,2351152,06:21:00,06:21:00,3,0,64,http://www.ripta.com/64,Weekday
50685,"""KINGSTOWN OPP W INDEPENDENCE WAY""",41.482704,-71.540456,2351152,06:23:00,06:23:00,4,0,64,http://www.ripta.com/64,Weekday
50690,"""KINGSTOWN OPP RYAN CENTER""",41.482359,-71.538198,2351152,06:24:00,06:24:00,5,0,64,http://www.ripta.com/64,Weekday
1140,"""LOWER COLLEGE NS BAYBERRY""",41.482182,-71.529691,2351152,06:25:00,06:25:00,6,0,64,http://www.ripta.com/64,Weekday
1225,"""URI STUDENT UNION""",41.484315,-71.529311,2351152,06:26:00,06:26:00,7,0,64,http://www.ripta.com/64,Weekday
1185,"""UPPER COLLEGE FS CAMPUS""",41.482725,-71.525816,2351152,06:26:00,06:26:00,8,0,64,http://www.ripta.com/64,Weekday
1120,"""UPPER COLLEGE NS RT 138""",41.48119,-71.525551,2351152,06:27:00,06:27:00,9,0,64,http://www.ripta.com/64,Weekday
1125,"""KINGSTOWN AT GRAD VILLAGE APTS""",41.482005,-71.535882,2351152,06:29:00,06:29:00,10,0,64,http://www.ripta.com/64,Weekday
57530,"""RT 138 NS RT 1""",41.494629,-71.456956,2351152,06:35:00,06:35:00,11,0,64,http://www.ripta.com/64,Weekday
57535,"""BRIDGETOWN FS RT 1""",41.494559,-71.456021,2351152,06:35:00,06:35:00,12,0,64,http://www.ripta.com/64,Weekday
57540,"""BRIDGETOWN FS RIVERSIDE""",41.48869,-71.44662,2351152,06:36:00,06:36:00,13,0,64,http://www.ripta.com/64,Weekday
58845,"""PIER RD FS SOUTH FERRY""",41.49198,-71.424045,2351152,06:38:00,06:38:00,14,0,64,http://www.ripta.com/64,Weekday
1395,"""BOSTON NECK FS S FERRY""",41.492364,-71.437984,2351152,06:39:00,06:39:00,15,0,64,http://www.ripta.com/64,Weekday
1455,"""BOSTON NECK OPP EDGEWATER""",41.494793,-71.437764,2351152,06:40:00,06:40:00,16,0,64,http://www.ripta.com/64,Weekday
1535,"""BOSTON NECK FS BANFIELD""",41.497986,-71.4363,2351152,06:40:00,06:40:00,17,0,64,http://www.ripta.com/64,Weekday
1610,"""BOSTON NECK OPP RIVERDELL""",41.500947,-71.433596,2351152,06:40:00,06:40:00,18,0,64,http://www.ripta.com/64,Weekday
1725,"""BOSTON NECK FS MINER""",41.504953,-71.428414,2351152,06:41:00,06:41:00,19,0,64,http://www.ripta.com/64,Weekday
1875,"""BOSTON NECK NS FERRY""",41.507607,-71.42496,2351152,06:41:00,06:41:00,20,0,64,http://www.ripta.com/64,Weekday
2070,"""BOSTON NECK FS CHARLOTTE""",41.516702,-71.42324,2351152,06:42:00,06:42:00,21,0,64,http://www.ripta.com/64,Weekday
58605,"""BOSTON NECK NS HIGHLAND""",41.52004,-71.423987,2351152,06:42:00,06:42:00,22,0,64,http://www.ripta.com/64,Weekday
2250,"""BOSTON NECK OPP SNUFF MILL""",41.52242,-71.423628,2351152,06:42:00,06:42:00,23,0,64,http://www.ripta.com/64,Weekday
2320,"""BOSTON NECK OPP 1865 BOSTON NECK""",41.524558,-71.423991,2351152,06:43:00,06:43:00,24,0,64,http://www.ripta.com/64,Weekday
70600,"""RT 1A & RT 138 PARK&RIDE""",41.526983,-71.425462,2351152,06:43:00,06:43:00,25,0,64,http://www.ripta.com/64,Weekday
59270,"""ADM KALBFUS OPP HALSEY (WASTE MANAGEMENT)""",41.507589,-71.314548,2351152,06:57:00,06:57:00,26,0,64,http://www.ripta.com/64,Weekday
1835,"""CONNELL HWAY OPP NISSAN VOLVO""",41.508102,-71.317583,2351152,06:57:00,06:57:00,27,0,64,http://www.ripta.com/64,Weekday
1895,"""NEWPORT TOWNE CENTER (STOP&SHOP)""",41.508474,-71.31643,2351152,06:57:00,06:57:00,28,0,64,http://www.ripta.com/64,Weekday
1890,"""NEWPORT TOWNE CENTER (WALMART)""",41.510625,-71.316887,2351152,06:58:00,06:58:00,29,0,64,http://www.ripta.com/64,Weekday
1870,"""NEWPORT TOWNE CENTER (LAUNDROMAT)""",41.511926,-71.317415,2351152,06:58:00,06:58:00,30,0,64,http://www.ripta.com/64,Weekday
2020,"""CONNELL HWAY NS MAPLE""",41.515053,-71.316041,2351152,06:58:00,06:58:00,31,0,64,http://www.ripta.com/64,Weekday
2090,"""CODDINGTON NS JOHN CHAFEE BLVD""",41.518131,-71.313698,2351152,06:59:00,06:59:00,32,0,64,http://www.ripta.com/64,Weekday
58145,"""CCRI (NEWPORT CAMPUS)""",41.51735,-71.31302,2351152,06:59:00,06:59:00,33,0,64,http://www.ripta.com/64,Weekday
2175,"""CODDINGTON AT RIPTA GARAGE""",41.519275,-71.309746,2351152,07:01:00,07:01:00,34,0,64,http://www.ripta.com/64,Weekday
2155,"""CODDINGTON NS SHERMAN""",41.518855,-71.306072,2351152,07:02:00,07:02:00,35,0,64,http://www.ripta.com/64,Weekday
57840,"""CODDINGTON OPP LANDINGS""",41.518513,-71.30297,2351152,07:02:00,07:02:00,36,0,64,http://www.ripta.com/64,Weekday
2105,"""CODDINGTON NS W MAIN""",41.518233,-71.300648,2351152,07:02:00,07:02:00,37,0,64,http://www.ripta.com/64,Weekday
2195,"""W MAIN NS MAPLEWOOD""",41.519281,-71.299718,2351152,07:03:00,07:03:00,38,0,64,http://www.ripta.com/64,Weekday
2235,"""W MAIN NS OAKWOOD""",41.521651,-71.298915,2351152,07:03:00,07:03:00,39,0,64,http://www.ripta.com/64,Weekday
2300,"""W MAIN NS VALLEY""",41.523402,-71.298232,2351152,07:04:00,07:04:00,40,0,64,http://www.ripta.com/64,Weekday
2315,"""W MAIN FS WOOLSEY""",41.524878,-71.29768,2351152,07:04:00,07:04:00,41,0,64,http://www.ripta.com/64,Weekday
2365,"""W MAIN AT ALL SAINTS ACADEMY""",41.527304,-71.296415,2351152,07:05:00,07:05:00,42,0,64,http://www.ripta.com/64,Weekday
2380,"""NUWC GATE 17""",41.529203,-71.307644,2351152,07:07:00,07:07:00,43,0,64,http://www.ripta.com/64,Weekday
2335,"""W MAIN NS CHASES""",41.525923,-71.297526,2351152,07:09:00,07:09:00,44,0,64,http://www.ripta.com/64,Weekday
2295,"""W MAIN AT MIDDLETOWN PUBLIC LIBRARY""",41.521907,-71.299019,2351152,07:10:00,07:10:00,45,0,64,http://www.ripta.com/64,Weekday
56775,"""W MAIN OPP MAPLEWOOD""",41.51945,-71.299852,2351152,07:11:00,07:11:00,46,0,64,http://www.ripta.com/64,Weekday
57865,"""CODDINGTON NS THE LANDINGS""",41.518492,-71.30153,2351152,07:11:00,07:11:00,47,0,64,http://www.ripta.com/64,Weekday
2145,"""CODDINGTON NS NIAGRA""",41.518598,-71.30307,2351152,07:11:00,07:11:00,48,0,64,http://www.ripta.com/64,Weekday
2150,"""CODDINGTON NS JONES""",41.518765,-71.304618,2351152,07:12:00,07:12:00,49,0,64,http://www.ripta.com/64,Weekday
2170,"""CODDINGTON OPP SHERMAN""",41.519007,-71.305795,2351152,07:12:00,07:12:00,50,0,64,http://www.ripta.com/64,Weekday
2200,"""CODDINGTON OPP RIPTA GARAGE""",41.519474,-71.309638,2351152,07:12:00,07:12:00,51,0,64,http://www.ripta.com/64,Weekday
2140,"""CODDINGTON OPP HARBOR BASE INN""",41.519375,-71.311716,2351152,07:13:00,07:13:00,52,0,64,http://www.ripta.com/64,Weekday
57870,"""CODDINGTON OPP CCRI ENTRANCE""",41.51835,-71.313613,2351152,07:13:00,07:13:00,53,0,64,http://www.ripta.com/64,Weekday
2025,"""CONNELL OPP HILLMART""",41.515038,-71.316217,2351152,07:14:00,07:14:00,54,0,64,http://www.ripta.com/64,Weekday
1865,"""CONNELL  HWAY AT NEWPORT ADULTS VIDEO""",41.511545,-71.318059,2351152,07:14:00,07:14:00,55,0,64,http://www.ripta.com/64,Weekday
1775,"""CONNELL HWAY AT NEWPORT TIRE""",41.507682,-71.317696,2351152,07:15:00,07:15:00,56,0,64,http://www.ripta.com/64,Weekday
57760,"""ADM KALBFUS AT ROLLING GREEN APTS""",41.506826,-71.319378,2351152,07:15:00,07:15:00,57,0,64,http://www.ripta.com/64,Weekday
1695,"""THIRD OPP DYERS GATE""",41.503582,-71.320243,2351152,07:16:00,07:16:00,58,0,64,http://www.ripta.com/64,Weekday
1650,"""THIRD OPP BAYSIDE VILLAGE""",41.501766,-71.320017,2351152,07:17:00,07:17:00,59,0,64,http://www.ripta.com/64,Weekday
1600,"""THIRD FS CYPRESS""",41.499988,-71.319747,2351152,07:17:00,07:17:00,60,0,64,http://www.ripta.com/64,Weekday
56705,"""SECOND OPP 103 SECOND""",41.498628,-71.320415,2351152,07:17:00,07:17:00,61,0,64,http://www.ripta.com/64,Weekday
56710,"""SECOND NS PINE""",41.496743,-71.320205,2351152,07:18:00,07:18:00,62,0,64,http://www.ripta.com/64,Weekday
56720,"""SECOND NS POPLAR""",41.493479,-71.319751,2351152,07:18:00,07:18:00,63,0,64,http://www.ripta.com/64,Weekday
56725,"""SECOND NS MARSH""",41.491483,-71.31948,2351152,07:19:00,07:19:00,64,0,64,http://www.ripta.com/64,Weekday
1383,"""GATEWAY CENTER AT 64 BUS BERTH""",41.491485,-71.317772,2351152,07:19:00,07:19:00,65,0,64,http://www.ripta.com/64,Weekday
1383,"""GATEWAY CENTER AT 64 BUS BERTH""",41.491485,-71.317772,2351153,16:55:00,16:55:00,1,1,64,http://www.ripta.com/64,Weekday
1420,"""THIRD FS BRIDGE""",41.492298,-71.318642,2351153,16:56:00,16:56:00,2,1,64,http://www.ripta.com/64,Weekday
1465,"""THIRD AT WALNUT""",41.49467,-71.318955,2351153,16:56:00,16:56:00,3,1,64,http://www.ripta.com/64,Weekday
1530,"""THIRD NS LASALLE""",41.497507,-71.319305,2351153,16:57:00,16:57:00,4,1,64,http://www.ripta.com/64,Weekday
1605,"""THIRD OPP CYPRESS""",41.500429,-71.319726,2351153,16:58:00,16:58:00,5,1,64,http://www.ripta.com/64,Weekday
1645,"""THIRD AT BAYSIDE VILLAGE""",41.501716,-71.319844,2351153,16:59:00,16:59:00,6,1,64,http://www.ripta.com/64,Weekday
1715,"""THIRD OPP NAVAL HEALTH CLINIC""",41.504382,-71.320194,2351153,17:00:00,17:00:00,7,1,64,http://www.ripta.com/64,Weekday
1755,"""ADM KALBFUS AT AT ADMIRAL'S GATE""",41.506695,-71.319325,2351153,17:01:00,17:01:00,8,1,64,http://www.ripta.com/64,Weekday
1835,"""CONNELL HWAY OPP NISSAN VOLVO""",41.508102,-71.317583,2351153,17:02:00,17:02:00,9,1,64,http://www.ripta.com/64,Weekday
1895,"""NEWPORT TOWNE CENTER (STOP&SHOP)""",41.508474,-71.31643,2351153,17:03:00,17:03:00,10,1,64,http://www.ripta.com/64,Weekday
1890,"""NEWPORT TOWNE CENTER (WALMART)""",41.510625,-71.316887,2351153,17:03:00,17:03:00,11,1,64,http://www.ripta.com/64,Weekday
1870,"""NEWPORT TOWNE CENTER (LAUNDROMAT)""",41.511926,-71.317415,2351153,17:04:00,17:04:00,12,1,64,http://www.ripta.com/64,Weekday
2020,"""CONNELL HWAY NS MAPLE""",41.515053,-71.316041,2351153,17:04:00,17:04:00,13,1,64,http://www.ripta.com/64,Weekday
2090,"""CODDINGTON NS JOHN CHAFEE BLVD""",41.518131,-71.313698,2351153,17:05:00,17:05:00,14,1,64,http://www.ripta.com/64,Weekday
2175,"""CODDINGTON AT RIPTA GARAGE""",41.519275,-71.309746,2351153,17:06:00,17:06:00,15,1,64,http://www.ripta.com/64,Weekday
2155,"""CODDINGTON NS SHERMAN""",41.518855,-71.306072,2351153,17:07:00,17:07:00,16,1,64,http://www.ripta.com/64,Weekday
57840,"""CODDINGTON OPP LANDINGS""",41.518513,-71.30297,2351153,17:07:00,17:07:00,17,1,64,http://www.ripta.com/64,Weekday
2105,"""CODDINGTON NS W MAIN""",41.518233,-71.300648,2351153,17:07:00,17:07:00,18,1,64,http://www.ripta.com/64,Weekday
2195,"""W MAIN NS MAPLEWOOD""",41.519281,-71.299718,2351153,17:08:00,17:08:00,19,1,64,http://www.ripta.com/64,Weekday
2235,"""W MAIN NS OAKWOOD""",41.521651,-71.298915,2351153,17:08:00,17:08:00,20,1,64,http://www.ripta.com/64,Weekday
2300,"""W MAIN NS VALLEY""",41.523402,-71.298232,2351153,17:09:00,17:09:00,21,1,64,http://www.ripta.com/64,Weekday
2315,"""W MAIN FS WOOLSEY""",41.524878,-71.29768,2351153,17:09:00,17:09:00,22,1,64,http://www.ripta.com/64,Weekday
2365,"""W MAIN AT ALL SAINTS ACADEMY""",41.527304,-71.296415,2351153,17:10:00,17:10:00,23,1,64,http://www.ripta.com/64,Weekday
2380,"""NUWC GATE 17""",41.529203,-71.307644,2351153,17:12:00,17:12:00,24,1,64,http://www.ripta.com/64,Weekday
2335,"""W MAIN NS CHASES""",41.525923,-71.297526,2351153,17:16:00,17:16:00,25,1,64,http://www.ripta.com/64,Weekday
2310,"""W MAIN OPP VALLEY""",41.52402,-71.298223,2351153,17:16:00,17:16:00,26,1,64,http://www.ripta.com/64,Weekday
2295,"""W MAIN AT MIDDLETOWN PUBLIC LIBRARY""",41.521907,-71.299019,2351153,17:17:00,17:17:00,27,1,64,http://www.ripta.com/64,Weekday
56775,"""W MAIN OPP MAPLEWOOD""",41.51945,-71.299852,2351153,17:18:00,17:18:00,28,1,64,http://www.ripta.com/64,Weekday
57865,"""CODDINGTON NS THE LANDINGS""",41.518492,-71.30153,2351153,17:19:00,17:19:00,29,1,64,http://www.ripta.com/64,Weekday
2145,"""CODDINGTON NS NIAGRA""",41.518598,-71.30307,2351153,17:19:00,17:19:00,30,1,64,http://www.ripta.com/64,Weekday
2150,"""CODDINGTON NS JONES""",41.518765,-71.304618,2351153,17:19:00,17:19:00,31,1,64,http://www.ripta.com/64,Weekday
2170,"""CODDINGTON OPP SHERMAN""",41.519007,-71.305795,2351153,17:20:00,17:20:00,32,1,64,http://www.ripta.com/64,Weekday
2180,"""CODDINGTON OPP BAYVIEW TRAILER PARK""",41.519162,-71.307064,2351153,17:20:00,17:20:00,33,1,64,http://www.ripta.com/64,Weekday
2200,"""CODDINGTON OPP RIPTA GARAGE""",41.519474,-71.309638,2351153,17:21:00,17:21:00,34,1,64,http://www.ripta.com/64,Weekday
2140,"""CODDINGTON OPP HARBOR BASE INN""",41.519375,-71.311716,2351153,17:21:00,17:21:00,35,1,64,http://www.ripta.com/64,Weekday
57870,"""CODDINGTON OPP CCRI ENTRANCE""",41.51835,-71.313613,2351153,17:22:00,17:22:00,36,1,64,http://www.ripta.com/64,Weekday
58145,"""CCRI (NEWPORT CAMPUS)""",41.51735,-71.31302,2351153,17:22:00,17:22:00,37,1,64,http://www.ripta.com/64,Weekday
2025,"""CONNELL OPP HILLMART""",41.515038,-71.316217,2351153,17:23:00,17:23:00,38,1,64,http://www.ripta.com/64,Weekday
1865,"""CONNELL  HWAY AT NEWPORT ADULTS VIDEO""",41.511545,-71.318059,2351153,17:23:00,17:23:00,39,1,64,http://www.ripta.com/64,Weekday
1775,"""CONNELL HWAY AT NEWPORT TIRE""",41.507682,-71.317696,2351153,17:24:00,17:24:00,40,1,64,http://www.ripta.com/64,Weekday
1575,"""CONANICUS FS KNOWLES""",41.496757,-71.367143,2351153,17:33:00,17:33:00,41,1,64,http://www.ripta.com/64,Weekday
1525,"""NARRAGANSETT FS E SHORE RD""",41.496382,-71.367405,2351153,17:33:00,17:33:00,42,1,64,http://www.ripta.com/64,Weekday
1515,"""NARRAGANSETT AT 20 NARRAGANSETT""",41.49637,-71.368745,2351153,17:33:00,17:33:00,43,1,64,http://www.ripta.com/64,Weekday
1520,"""NARRAGANSETT FS GRINNELL""",41.496315,-71.371732,2351153,17:33:00,17:33:00,44,1,64,http://www.ripta.com/64,Weekday
57520,"""NARRAGANSETT AT 92 NARRAGANSETT""",41.496233,-71.374074,2351153,17:34:00,17:34:00,45,1,64,http://www.ripta.com/64,Weekday
57575,"""JAMESTOWN HOUSING""",41.499648,-71.376341,2351153,17:34:00,17:34:00,46,1,64,http://www.ripta.com/64,Weekday
70600,"""RT 1A & RT 138 PARK&RIDE""",41.526983,-71.425462,2351153,17:43:00,17:43:00,47,1,64,http://www.ripta.com/64,Weekday
2325,"""BOSTON NECK NS BARBERS HEIGHTS""",41.524298,-71.424082,2351153,17:43:00,17:43:00,48,1,64,http://www.ripta.com/64,Weekday
60085,"""BOSTON NECK FS SNUFF MILL""",41.522243,-71.42384,2351153,17:44:00,17:44:00,49,1,64,http://www.ripta.com/64,Weekday
2245,"""BOSTON NECK FS HOMESTEAD""",41.521254,-71.424046,2351153,17:44:00,17:44:00,50,1,64,http://www.ripta.com/64,Weekday
60090,"""BOSTON NECK OPP 2080 BOSTON NECK""",41.519246,-71.424093,2351153,17:44:00,17:44:00,51,1,64,http://www.ripta.com/64,Weekday
2065,"""BOSTON NECK OPP CHARLOTTE""",41.516748,-71.423412,2351153,17:45:00,17:45:00,52,1,64,http://www.ripta.com/64,Weekday
1880,"""BOSTON NECK FS FERRY""",41.507661,-71.425119,2351153,17:46:00,17:46:00,53,1,64,http://www.ripta.com/64,Weekday
1730,"""BOSTON NECK NS MINER""",41.505015,-71.42862,2351153,17:46:00,17:46:00,54,1,64,http://www.ripta.com/64,Weekday
1660,"""BOSTON NECK NS INDIAN TRAIL""",41.502256,-71.43213,2351153,17:47:00,17:47:00,55,1,64,http://www.ripta.com/64,Weekday
1615,"""BOSTON NECK NS RIVERDELL""",41.500993,-71.433797,2351153,17:47:00,17:47:00,56,1,64,http://www.ripta.com/64,Weekday
1545,"""BOSTON NECK NS PETTAQUAMSCUTT LAKE""",41.497967,-71.436521,2351153,17:48:00,17:48:00,57,1,64,http://www.ripta.com/64,Weekday
1450,"""BOSTON LAKE NS EDGEWATER RD""",41.494846,-71.437896,2351153,17:48:00,17:48:00,58,1,64,http://www.ripta.com/64,Weekday
1400,"""BOSTON NECK NS BRIDGETOWN""",41.492409,-71.43815,2351153,17:48:00,17:48:00,59,1,64,http://www.ripta.com/64,Weekday
58845,"""PIER RD FS SOUTH FERRY""",41.49198,-71.424045,2351153,17:50:00,17:50:00,60,1,64,http://www.ripta.com/64,Weekday
57555,"""BRIDGETOWN AT 130 BRIDGETOWN""",41.49033,-71.445921,2351153,17:54:00,17:54:00,61,1,64,http://www.ripta.com/64,Weekday
57560,"""BRIDGETOWN NS WALMSLEY""",41.488291,-71.449408,2351153,17:55:00,17:55:00,62,1,64,http://www.ripta.com/64,Weekday
57565,"""RT 138 AT 61 MOORESVILLE RD""",41.494603,-71.458699,2351153,17:57:00,17:57:00,63,1,64,http://www.ripta.com/64,Weekday
1075,"""KINGSTOWN FS NORTH RD""",41.480003,-71.522949,2351153,18:05:00,18:05:00,64,1,64,http://www.ripta.com/64,Weekday
1085,"""KINGSTOWN AT 2579 KINGSTOWN RD""",41.480197,-71.524366,2351153,18:05:00,18:05:00,65,1,64,http://www.ripta.com/64,Weekday
1180,"""UPPER COLLEGE NS CAMPUS""",41.482731,-71.525703,2351153,18:05:00,18:05:00,66,1,64,http://www.ripta.com/64,Weekday
1190,"""CAMPUS AT COLLEGE OF PHARMACY""",41.483487,-71.528164,2351153,18:06:00,18:06:00,67,1,64,http://www.ripta.com/64,Weekday
1225,"""URI STUDENT UNION""",41.484315,-71.529311,2351153,18:06:00,18:06:00,68,1,64,http://www.ripta.com/64,Weekday
1155,"""LOWER COLLEGE OPP ST AUGUSTINES CHURCH""",41.481905,-71.529871,2351153,18:07:00,18:07:00,69,1,64,http://www.ripta.com/64,Weekday
72190,"""KINGSTOWN OPP GRADUATE VILLAGE APTS""",41.482201,-71.535733,2351153,18:08:00,18:08:00,70,1,64,http://www.ripta.com/64,Weekday
1175,"""KINGSTOWN FS W INDEPENDENCE""",41.482871,-71.540778,2351153,18:09:00,18:09:00,71,1,64,http://www.ripta.com/64,Weekday
50720,"""KINGSTOWN NS PLAINS""",41.482103,-71.549827,2351153,18:11:00,18:11:00,72,1,64,http://www.ripta.com/64,Weekday
1205,"""KINGSTOWN NS WAITES CORNER""",41.482979,-71.551555,2351153,18:11:00,18:11:00,73,1,64,http://www.ripta.com/64,Weekday
59750,"""KINGSTOWN AT MOBIL GAS STATION""",41.483402,-71.553139,2351153,18:11:00,18:11:00,74,1,64,http://www.ripta.com/64,Weekday
50725,"""KINGSTOWN OPP WATSON""",41.483848,-71.555632,2351153,18:12:00,18:12:00,75,1,64,http://www.ripta.com/64,Weekday
1230,"""KINGSTON RAILROAD STATION""",41.484102,-71.560243,2351153,18:13:00,18:13:00,76,1,64,http://www.ripta.com/64,Weekday
1230,"""KINGSTON RAILROAD STATION""",41.484102,-71.560243,2351154,15:40:00,15:40:00,1,0,64,http://www.ripta.com/64,Weekday
50675,"""KINGSTOWN FS WATSON""",41.483611,-71.555325,2351154,15:41:00,15:41:00,2,0,64,http://www.ripta.com/64,Weekday
50680,"""KINGSTOWN NS TLC COFFEE ROASTERS""",41.483126,-71.552351,2351154,15:42:00,15:42:00,3,0,64,http://www.ripta.com/64,Weekday
50685,"""KINGSTOWN OPP W INDEPENDENCE WAY""",41.482704,-71.540456,2351154,15:44:00,15:44:00,4,0,64,http://www.ripta.com/64,Weekday
50690,"""KINGSTOWN OPP RYAN CENTER""",41.482359,-71.538198,2351154,15:44:00,15:44:00,5,0,64,http://www.ripta.com/64,Weekday
1140,"""LOWER COLLEGE NS BAYBERRY""",41.482182,-71.529691,2351154,15:46:00,15:46:00,6,0,64,http://www.ripta.com/64,Weekday
1225,"""URI STUDENT UNION""",41.484315,-71.529311,2351154,15:47:00,15:47:00,7,0,64,http://www.ripta.com/64,Weekday
1185,"""UPPER COLLEGE FS CAMPUS""",41.482725,-71.525816,2351154,15:47:00,15:47:00,8,0,64,http://www.ripta.com/64,Weekday
1120,"""UPPER COLLEGE NS RT 138""",41.48119,-71.525551,2351154,15:48:00,15:48:00,9,0,64,http://www.ripta.com/64,Weekday
1125,"""KINGSTOWN AT GRAD VILLAGE APTS""",41.482005,-71.535882,2351154,15:50:00,15:50:00,10,0,64,http://www.ripta.com/64,Weekday
57530,"""RT 138 NS RT 1""",41.494629,-71.456956,2351154,15:56:00,15:56:00,11,0,64,http://www.ripta.com/64,Weekday
57535,"""BRIDGETOWN FS RT 1""",41.494559,-71.456021,2351154,15:56:00,15:56:00,12,0,64,http://www.ripta.com/64,Weekday
57540,"""BRIDGETOWN FS RIVERSIDE""",41.48869,-71.44662,2351154,15:58:00,15:58:00,13,0,64,http://www.ripta.com/64,Weekday
58845,"""PIER RD FS SOUTH FERRY""",41.49198,-71.424045,2351154,16:01:00,16:01:00,14,0,64,http://www.ripta.com/64,Weekday
1395,"""BOSTON NECK FS S FERRY""",41.492364,-71.437984,2351154,16:04:00,16:04:00,15,0,64,http://www.ripta.com/64,Weekday
1455,"""BOSTON NECK OPP EDGEWATER""",41.494793,-71.437764,2351154,16:04:00,16:04:00,16,0,64,http://www.ripta.com/64,Weekday
1535,"""BOSTON NECK FS BANFIELD""",41.497986,-71.4363,2351154,16:05:00,16:05:00,17,0,64,http://www.ripta.com/64,Weekday
1610,"""BOSTON NECK OPP RIVERDELL""",41.500947,-71.433596,2351154,16:05:00,16:05:00,18,0,64,http://www.ripta.com/64,Weekday
1725,"""BOSTON NECK FS MINER""",41.504953,-71.428414,2351154,16:06:00,16:06:00,19,0,64,http://www.ripta.com/64,Weekday
1875,"""BOSTON NECK NS FERRY""",41.507607,-71.42496,2351154,16:07:00,16:07:00,20,0,64,http://www.ripta.com/64,Weekday
2070,"""BOSTON NECK FS CHARLOTTE""",41.516702,-71.42324,2351154,16:08:00,16:08:00,21,0,64,http://www.ripta.com/64,Weekday
58605,"""BOSTON NECK NS HIGHLAND""",41.52004,-71.423987,2351154,16:09:00,16:09:00,22,0,64,http://www.ripta.com/64,Weekday
2250,"""BOSTON NECK OPP SNUFF MILL""",41.52242,-71.423628,2351154,16:09:00,16:09:00,23,0,64,http://www.ripta.com/64,Weekday
2320,"""BOSTON NECK OPP 1865 BOSTON NECK""",41.524558,-71.423991,2351154,16:09:00,16:09:00,24,0,64,http://www.ripta.com/64,Weekday
70600,"""RT 1A & RT 138 PARK&RIDE""",41.526983,-71.425462,2351154,16:10:00,16:10:00,25,0,64,http://www.ripta.com/64,Weekday
2361,"""TASHTASSUCK FS HELM""",41.525592,-71.385276,2351154,16:14:00,16:14:00,26,0,64,http://www.ripta.com/64,Weekday
72180,"""NORTH NS WATSON""",41.498149,-71.374706,2351154,16:19:00,16:19:00,27,0,64,http://www.ripta.com/64,Weekday
57405,"""NORTH AT 83 NORTH RD""",41.50085,-71.374766,2351154,16:20:00,16:20:00,28,0,64,http://www.ripta.com/64,Weekday
1505,"""NORTH NS AT 1 NORTH RD""",41.496551,-71.374702,2351154,16:20:00,16:20:00,29,0,64,http://www.ripta.com/64,Weekday
1495,"""NARRAGANSETT FS HOWLAND""",41.496192,-71.371722,2351154,16:21:00,16:21:00,30,0,64,http://www.ripta.com/64,Weekday
57510,"""NARRAGANSETT NS GREEN""",41.496246,-71.36939,2351154,16:21:00,16:21:00,31,0,64,http://www.ripta.com/64,Weekday
1526,"""CONANICUS FS NARRAGANSETT""",41.496595,-71.367009,2351154,16:21:00,16:21:00,32,0,64,http://www.ripta.com/64,Weekday
1745,"""CONANICUS NS MT HOPE""",41.504757,-71.364472,2351154,16:22:00,16:22:00,33,0,64,http://www.ripta.com/64,Weekday
59270,"""ADM KALBFUS OPP HALSEY (WASTE MANAGEMENT)""",41.507589,-71.314548,2351154,16:32:00,16:32:00,34,0,64,http://www.ripta.com/64,Weekday
1835,"""CONNELL HWAY OPP NISSAN VOLVO""",41.508102,-71.317583,2351154,16:32:00,16:32:00,35,0,64,http://www.ripta.com/64,Weekday
1895,"""NEWPORT TOWNE CENTER (STOP&SHOP)""",41.508474,-71.31643,2351154,16:32:00,16:32:00,36,0,64,http://www.ripta.com/64,Weekday
1890,"""NEWPORT TOWNE CENTER (WALMART)""",41.510625,-71.316887,2351154,16:33:00,16:33:00,37,0,64,http://www.ripta.com/64,Weekday
1870,"""NEWPORT TOWNE CENTER (LAUNDROMAT)""",41.511926,-71.317415,2351154,16:33:00,16:33:00,38,0,64,http://www.ripta.com/64,Weekday
2020,"""CONNELL HWAY NS MAPLE""",41.515053,-71.316041,2351154,16:33:00,16:33:00,39,0,64,http://www.ripta.com/64,Weekday
2090,"""CODDINGTON NS JOHN CHAFEE BLVD""",41.518131,-71.313698,2351154,16:34:00,16:34:00,40,0,64,http://www.ripta.com/64,Weekday
58145,"""CCRI (NEWPORT CAMPUS)""",41.51735,-71.31302,2351154,16:34:00,16:34:00,41,0,64,http://www.ripta.com/64,Weekday
2025,"""CONNELL OPP HILLMART""",41.515038,-71.316217,2351154,16:35:00,16:35:00,42,0,64,http://www.ripta.com/64,Weekday
1865,"""CONNELL  HWAY AT NEWPORT ADULTS VIDEO""",41.511545,-71.318059,2351154,16:36:00,16:36:00,43,0,64,http://www.ripta.com/64,Weekday
1775,"""CONNELL HWAY AT NEWPORT TIRE""",41.507682,-71.317696,2351154,16:37:00,16:37:00,44,0,64,http://www.ripta.com/64,Weekday
57760,"""ADM KALBFUS AT ROLLING GREEN APTS""",41.506826,-71.319378,2351154,16:38:00,16:38:00,45,0,64,http://www.ripta.com/64,Weekday
1695,"""THIRD OPP DYERS GATE""",41.503582,-71.320243,2351154,16:39:00,16:39:00,46,0,64,http://www.ripta.com/64,Weekday
1650,"""THIRD OPP BAYSIDE VILLAGE""",41.501766,-71.320017,2351154,16:39:00,16:39:00,47,0,64,http://www.ripta.com/64,Weekday
1600,"""THIRD FS CYPRESS""",41.499988,-71.319747,2351154,16:40:00,16:40:00,48,0,64,http://www.ripta.com/64,Weekday
56705,"""SECOND OPP 103 SECOND""",41.498628,-71.320415,2351154,16:40:00,16:40:00,49,0,64,http://www.ripta.com/64,Weekday
56710,"""SECOND NS PINE""",41.496743,-71.320205,2351154,16:41:00,16:41:00,50,0,64,http://www.ripta.com/64,Weekday
56720,"""SECOND NS POPLAR""",41.493479,-71.319751,2351154,16:42:00,16:42:00,51,0,64,http://www.ripta.com/64,Weekday
56725,"""SECOND NS MARSH""",41.491483,-71.31948,2351154,16:42:00,16:42:00,52,0,64,http://www.ripta.com/64,Weekday
1383,"""GATEWAY CENTER AT 64 BUS BERTH""",41.491485,-71.317772,2351154,16:43:00,16:43:00,53,0,64,http://www.ripta.com/64,Weekday
1383,"""GATEWAY CENTER AT 64 BUS BERTH""",41.491485,-71.317772,2351155,14:30:00,14:30:00,1,1,64,http://www.ripta.com/64,Weekday
1420,"""THIRD FS BRIDGE""",41.492298,-71.318642,2351155,14:31:00,14:31:00,2,1,64,http://www.ripta.com/64,Weekday
1465,"""THIRD AT WALNUT""",41.49467,-71.318955,2351155,14:31:00,14:31:00,3,1,64,http://www.ripta.com/64,Weekday
1530,"""THIRD NS LASALLE""",41.497507,-71.319305,2351155,14:32:00,14:32:00,4,1,64,http://www.ripta.com/64,Weekday
1605,"""THIRD OPP CYPRESS""",41.500429,-71.319726,2351155,14:33:00,14:33:00,5,1,64,http://www.ripta.com/64,Weekday
1645,"""THIRD AT BAYSIDE VILLAGE""",41.501716,-71.319844,2351155,14:34:00,14:34:00,6,1,64,http://www.ripta.com/64,Weekday
1715,"""THIRD OPP NAVAL HEALTH CLINIC""",41.504382,-71.320194,2351155,14:35:00,14:35:00,7,1,64,http://www.ripta.com/64,Weekday
1755,"""ADM KALBFUS AT AT ADMIRAL'S GATE""",41.506695,-71.319325,2351155,14:36:00,14:36:00,8,1,64,http://www.ripta.com/64,Weekday
1835,"""CONNELL HWAY OPP NISSAN VOLVO""",41.508102,-71.317583,2351155,14:37:00,14:37:00,9,1,64,http://www.ripta.com/64,Weekday
1895,"""NEWPORT TOWNE CENTER (STOP&SHOP)""",41.508474,-71.31643,2351155,14:37:00,14:37:00,10,1,64,http://www.ripta.com/64,Weekday
1890,"""NEWPORT TOWNE CENTER (WALMART)""",41.510625,-71.316887,2351155,14:38:00,14:38:00,11,1,64,http://www.ripta.com/64,Weekday
1870,"""NEWPORT TOWNE CENTER (LAUNDROMAT)""",41.511926,-71.317415,2351155,14:38:00,14:38:00,12,1,64,http://www.ripta.com/64,Weekday
2020,"""CONNELL HWAY NS MAPLE""",41.515053,-71.316041,2351155,14:38:00,14:38:00,13,1,64,http://www.ripta.com/64,Weekday
2090,"""CODDINGTON NS JOHN CHAFEE BLVD""",41.518131,-71.313698,2351155,14:39:00,14:39:00,14,1,64,http://www.ripta.com/64,Weekday
58145,"""CCRI (NEWPORT CAMPUS)""",41.51735,-71.31302,2351155,14:39:00,14:39:00,15,1,64,http://www.ripta.com/64,Weekday
2025,"""CONNELL OPP HILLMART""",41.515038,-71.316217,2351155,14:40:00,14:40:00,16,1,64,http://www.ripta.com/64,Weekday
1865,"""CONNELL  HWAY AT NEWPORT ADULTS VIDEO""",41.511545,-71.318059,2351155,14:40:00,14:40:00,17,1,64,http://www.ripta.com/64,Weekday
1775,"""CONNELL HWAY AT NEWPORT TIRE""",41.507682,-71.317696,2351155,14:41:00,14:41:00,18,1,64,http://www.ripta.com/64,Weekday
1575,"""CONANICUS FS KNOWLES""",41.496757,-71.367143,2351155,14:50:00,14:50:00,19,1,64,http://www.ripta.com/64,Weekday
1525,"""NARRAGANSETT FS E SHORE RD""",41.496382,-71.367405,2351155,14:50:00,14:50:00,20,1,64,http://www.ripta.com/64,Weekday
1515,"""NARRAGANSETT AT 20 NARRAGANSETT""",41.49637,-71.368745,2351155,14:50:00,14:50:00,21,1,64,http://www.ripta.com/64,Weekday
1520,"""NARRAGANSETT FS GRINNELL""",41.496315,-71.371732,2351155,14:50:00,14:50:00,22,1,64,http://www.ripta.com/64,Weekday
57520,"""NARRAGANSETT AT 92 NARRAGANSETT""",41.496233,-71.374074,2351155,14:51:00,14:51:00,23,1,64,http://www.ripta.com/64,Weekday
1565,"""NORTH NS VALLEY""",41.498233,-71.374589,2351155,14:51:00,14:51:00,24,1,64,http://www.ripta.com/64,Weekday
57525,"""NORTH OPP 79 NORTH""",41.50072,-71.374606,2351155,14:51:00,14:51:00,25,1,64,http://www.ripta.com/64,Weekday
70600,"""RT 1A & RT 138 PARK&RIDE""",41.526983,-71.425462,2351155,15:00:00,15:00:00,26,1,64,http://www.ripta.com/64,Weekday
2325,"""BOSTON NECK NS BARBERS HEIGHTS""",41.524298,-71.424082,2351155,15:00:00,15:00:00,27,1,64,http://www.ripta.com/64,Weekday
60085,"""BOSTON NECK FS SNUFF MILL""",41.522243,-71.42384,2351155,15:01:00,15:01:00,28,1,64,http://www.ripta.com/64,Weekday
2245,"""BOSTON NECK FS HOMESTEAD""",41.521254,-71.424046,2351155,15:01:00,15:01:00,29,1,64,http://www.ripta.com/64,Weekday
60090,"""BOSTON NECK OPP 2080 BOSTON NECK""",41.519246,-71.424093,2351155,15:01:00,15:01:00,30,1,64,http://www.ripta.com/64,Weekday
2065,"""BOSTON NECK OPP CHARLOTTE""",41.516748,-71.423412,2351155,15:02:00,15:02:00,31,1,64,http://www.ripta.com/64,Weekday
1880,"""BOSTON NECK FS FERRY""",41.507661,-71.425119,2351155,15:03:00,15:03:00,32,1,64,http://www.ripta.com/64,Weekday
1730,"""BOSTON NECK NS MINER""",41.505015,-71.42862,2351155,15:03:00,15:03:00,33,1,64,http://www.ripta.com/64,Weekday
1660,"""BOSTON NECK NS INDIAN TRAIL""",41.502256,-71.43213,2351155,15:04:00,15:04:00,34,1,64,http://www.ripta.com/64,Weekday
1615,"""BOSTON NECK NS RIVERDELL""",41.500993,-71.433797,2351155,15:04:00,15:04:00,35,1,64,http://www.ripta.com/64,Weekday
1545,"""BOSTON NECK NS PETTAQUAMSCUTT LAKE""",41.497967,-71.436521,2351155,15:05:00,15:05:00,36,1,64,http://www.ripta.com/64,Weekday
1450,"""BOSTON LAKE NS EDGEWATER RD""",41.494846,-71.437896,2351155,15:05:00,15:05:00,37,1,64,http://www.ripta.com/64,Weekday
1400,"""BOSTON NECK NS BRIDGETOWN""",41.492409,-71.43815,2351155,15:05:00,15:05:00,38,1,64,http://www.ripta.com/64,Weekday
58845,"""PIER RD FS SOUTH FERRY""",41.49198,-71.424045,2351155,15:07:00,15:07:00,39,1,64,http://www.ripta.com/64,Weekday
57555,"""BRIDGETOWN AT 130 BRIDGETOWN""",41.49033,-71.445921,2351155,15:11:00,15:11:00,40,1,64,http://www.ripta.com/64,Weekday
57560,"""BRIDGETOWN NS WALMSLEY""",41.488291,-71.449408,2351155,15:12:00,15:12:00,41,1,64,http://www.ripta.com/64,Weekday
57565,"""RT 138 AT 61 MOORESVILLE RD""",41.494603,-71.458699,2351155,15:14:00,15:14:00,42,1,64,http://www.ripta.com/64,Weekday
1075,"""KINGSTOWN FS NORTH RD""",41.480003,-71.522949,2351155,15:22:00,15:22:00,43,1,64,http://www.ripta.com/64,Weekday
1085,"""KINGSTOWN AT 2579 KINGSTOWN RD""",41.480197,-71.524366,2351155,15:22:00,15:22:00,44,1,64,http://www.ripta.com/64,Weekday
1180,"""UPPER COLLEGE NS CAMPUS""",41.482731,-71.525703,2351155,15:22:00,15:22:00,45,1,64,http://www.ripta.com/64,Weekday
1190,"""CAMPUS AT COLLEGE OF PHARMACY""",41.483487,-71.528164,2351155,15:23:00,15:23:00,46,1,64,http://www.ripta.com/64,Weekday
1225,"""URI STUDENT UNION""",41.484315,-71.529311,2351155,15:23:00,15:23:00,47,1,64,http://www.ripta.com/64,Weekday
1155,"""LOWER COLLEGE OPP ST AUGUSTINES CHURCH""",41.481905,-71.529871,2351155,15:24:00,15:24:00,48,1,64,http://www.ripta.com/64,Weekday
72190,"""KINGSTOWN OPP GRADUATE VILLAGE APTS""",41.482201,-71.535733,2351155,15:25:00,15:25:00,49,1,64,http://www.ripta.com/64,Weekday
1175,"""KINGSTOWN FS W INDEPENDENCE""",41.482871,-71.540778,2351155,15:26:00,15:26:00,50,1,64,http://www.ripta.com/64,Weekday
50720,"""KINGSTOWN NS PLAINS""",41.482103,-71.549827,2351155,15:28:00,15:28:00,51,1,64,http://www.ripta.com/64,Weekday
1205,"""KINGSTOWN NS WAITES CORNER""",41.482979,-71.551555,2351155,15:28:00,15:28:00,52,1,64,http://www.ripta.com/64,Weekday
59750,"""KINGSTOWN AT MOBIL GAS STATION""",41.483402,-71.553139,2351155,15:28:00,15:28:00,53,1,64,http://www.ripta.com/64,Weekday
50725,"""KINGSTOWN OPP WATSON""",41.483848,-71.555632,2351155,15:29:00,15:29:00,54,1,64,http://www.ripta.com/64,Weekday
1230,"""KINGSTON RAILROAD STATION""",41.484102,-71.560243,2351155,15:30:00,15:30:00,55,1,64,http://www.ripta.com/64,Weekday
1230,"""KINGSTON RAILROAD STATION""",41.484102,-71.560243,2351156,17:20:00,17:20:00,1,0,64,http://www.ripta.com/64,Weekday
50675,"""KINGSTOWN FS WATSON""",41.483611,-71.555325,2351156,17:21:00,17:21:00,2,0,64,http://www.ripta.com/64,Weekday
50680,"""KINGSTOWN NS TLC COFFEE ROASTERS""",41.483126,-71.552351,2351156,17:22:00,17:22:00,3,0,64,http://www.ripta.com/64,Weekday
50685,"""KINGSTOWN OPP W INDEPENDENCE WAY""",41.482704,-71.540456,2351156,17:24:00,17:24:00,4,0,64,http://www.ripta.com/64,Weekday
50690,"""KINGSTOWN OPP RYAN CENTER""",41.482359,-71.538198,2351156,17:24:00,17:24:00,5,0,64,http://www.ripta.com/64,Weekday
1140,"""LOWER COLLEGE NS BAYBERRY""",41.482182,-71.529691,2351156,17:26:00,17:26:00,6,0,64,http://www.ripta.com/64,Weekday
1225,"""URI STUDENT UNION""",41.484315,-71.529311,2351156,17:27:00,17:27:00,7,0,64,http://www.ripta.com/64,Weekday
1185,"""UPPER COLLEGE FS CAMPUS""",41.482725,-71.525816,2351156,17:27:00,17:27:00,8,0,64,http://www.ripta.com/64,Weekday
1120,"""UPPER COLLEGE NS RT 138""",41.48119,-71.525551,2351156,17:28:00,17:28:00,9,0,64,http://www.ripta.com/64,Weekday
1125,"""KINGSTOWN AT GRAD VILLAGE APTS""",41.482005,-71.535882,2351156,17:30:00,17:30:00,10,0,64,http://www.ripta.com/64,Weekday
57530,"""RT 138 NS RT 1""",41.494629,-71.456956,2351156,17:36:00,17:36:00,11,0,64,http://www.ripta.com/64,Weekday
57535,"""BRIDGETOWN FS RT 1""",41.494559,-71.456021,2351156,17:36:00,17:36:00,12,0,64,http://www.ripta.com/64,Weekday
57540,"""BRIDGETOWN FS RIVERSIDE""",41.48869,-71.44662,2351156,17:38:00,17:38:00,13,0,64,http://www.ripta.com/64,Weekday
58845,"""PIER RD FS SOUTH FERRY""",41.49198,-71.424045,2351156,17:41:00,17:41:00,14,0,64,http://www.ripta.com/64,Weekday
1395,"""BOSTON NECK FS S FERRY""",41.492364,-71.437984,2351156,17:44:00,17:44:00,15,0,64,http://www.ripta.com/64,Weekday
1455,"""BOSTON NECK OPP EDGEWATER""",41.494793,-71.437764,2351156,17:44:00,17:44:00,16,0,64,http://www.ripta.com/64,Weekday
1535,"""BOSTON NECK FS BANFIELD""",41.497986,-71.4363,2351156,17:45:00,17:45:00,17,0,64,http://www.ripta.com/64,Weekday
1610,"""BOSTON NECK OPP RIVERDELL""",41.500947,-71.433596,2351156,17:45:00,17:45:00,18,0,64,http://www.ripta.com/64,Weekday
1725,"""BOSTON NECK FS MINER""",41.504953,-71.428414,2351156,17:46:00,17:46:00,19,0,64,http://www.ripta.com/64,Weekday
1875,"""BOSTON NECK NS FERRY""",41.507607,-71.42496,2351156,17:47:00,17:47:00,20,0,64,http://www.ripta.com/64,Weekday
2070,"""BOSTON NECK FS CHARLOTTE""",41.516702,-71.42324,2351156,17:48:00,17:48:00,21,0,64,http://www.ripta.com/64,Weekday
58605,"""BOSTON NECK NS HIGHLAND""",41.52004,-71.423987,2351156,17:49:00,17:49:00,22,0,64,http://www.ripta.com/64,Weekday
2250,"""BOSTON NECK OPP SNUFF MILL""",41.52242,-71.423628,2351156,17:49:00,17:49:00,23,0,64,http://www.ripta.com/64,Weekday
2320,"""BOSTON NECK OPP 1865 BOSTON NECK""",41.524558,-71.423991,2351156,17:49:00,17:49:00,24,0,64,http://www.ripta.com/64,Weekday
70600,"""RT 1A & RT 138 PARK&RIDE""",41.526983,-71.425462,2351156,17:50:00,17:50:00,25,0,64,http://www.ripta.com/64,Weekday
2361,"""TASHTASSUCK FS HELM""",41.525592,-71.385276,2351156,17:54:00,17:54:00,26,0,64,http://www.ripta.com/64,Weekday
72180,"""NORTH NS WATSON""",41.498149,-71.374706,2351156,17:59:00,17:59:00,27,0,64,http://www.ripta.com/64,Weekday
57405,"""NORTH AT 83 NORTH RD""",41.50085,-71.374766,2351156,18:00:00,18:00:00,28,0,64,http://www.ripta.com/64,Weekday
1505,"""NORTH NS AT 1 NORTH RD""",41.496551,-71.374702,2351156,18:00:00,18:00:00,29,0,64,http://www.ripta.com/64,Weekday
1495,"""NARRAGANSETT FS HOWLAND""",41.496192,-71.371722,2351156,18:01:00,18:01:00,30,0,64,http://www.ripta.com/64,Weekday
57510,"""NARRAGANSETT NS GREEN""",41.496246,-71.36939,2351156,18:01:00,18:01:00,31,0,64,http://www.ripta.com/64,Weekday
1526,"""CONANICUS FS NARRAGANSETT""",41.496595,-71.367009,2351156,18:01:00,18:01:00,32,0,64,http://www.ripta.com/64,Weekday
1745,"""CONANICUS NS MT HOPE""",41.504757,-71.364472,2351156,18:02:00,18:02:00,33,0,64,http://www.ripta.com/64,Weekday
59270,"""ADM KALBFUS OPP HALSEY (WASTE MANAGEMENT)""",41.507589,-71.314548,2351156,18:12:00,18:12:00,34,0,64,http://www.ripta.com/64,Weekday
1835,"""CONNELL HWAY OPP NISSAN VOLVO""",41.508102,-71.317583,2351156,18:12:00,18:12:00,35,0,64,http://www.ripta.com/64,Weekday
1895,"""NEWPORT TOWNE CENTER (STOP&SHOP)""",41.508474,-71.31643,2351156,18:12:00,18:12:00,36,0,64,http://www.ripta.com/64,Weekday
1890,"""NEWPORT TOWNE CENTER (WALMART)""",41.510625,-71.316887,2351156,18:13:00,18:13:00,37,0,64,http://www.ripta.com/64,Weekday
1870,"""NEWPORT TOWNE CENTER (LAUNDROMAT)""",41.511926,-71.317415,2351156,18:13:00,18:13:00,38,0,64,http://www.ripta.com/64,Weekday
2020,"""CONNELL HWAY NS MAPLE""",41.515053,-71.316041,2351156,18:13:00,18:13:00,39,0,64,http://www.ripta.com/64,Weekday
2090,"""CODDINGTON NS JOHN CHAFEE BLVD""",41.518131,-71.313698,2351156,18:14:00,18:14:00,40,0,64,http://www.ripta.com/64,Weekday
58145,"""CCRI (NEWPORT CAMPUS)""",41.51735,-71.31302,2351156,18:14:00,18:14:00,41,0,64,http://www.ripta.com/64,Weekday
2025,"""CONNELL OPP HILLMART""",41.515038,-71.316217,2351156,18:15:00,18:15:00,42,0,64,http://www.ripta.com/64,Weekday
1865,"""CONNELL  HWAY AT NEWPORT ADULTS VIDEO""",41.511545,-71.318059,2351156,18:16:00,18:16:00,43,0,64,http://www.ripta.com/64,Weekday
1775,"""CONNELL HWAY AT NEWPORT TIRE""",41.507682,-71.317696,2351156,18:17:00,18:17:00,44,0,64,http://www.ripta.com/64,Weekday
57760,"""ADM KALBFUS AT ROLLING GREEN APTS""",41.506826,-71.319378,2351156,18:18:00,18:18:00,45,0,64,http://www.ripta.com/64,Weekday
1695,"""THIRD OPP DYERS GATE""",41.503582,-71.320243,2351156,18:19:00,18:19:00,46,0,64,http://www.ripta.com/64,Weekday
1650,"""THIRD OPP BAYSIDE VILLAGE""",41.501766,-71.320017,2351156,18:19:00,18:19:00,47,0,64,http://www.ripta.com/64,Weekday
1600,"""THIRD FS CYPRESS""",41.499988,-71.319747,2351156,18:20:00,18:20:00,48,0,64,http://www.ripta.com/64,Weekday
56705,"""SECOND OPP 103 SECOND""",41.498628,-71.320415,2351156,18:20:00,18:20:00,49,0,64,http://www.ripta.com/64,Weekday
56710,"""SECOND NS PINE""",41.496743,-71.320205,2351156,18:21:00,18:21:00,50,0,64,http://www.ripta.com/64,Weekday
56720,"""SECOND NS POPLAR""",41.493479,-71.319751,2351156,18:22:00,18:22:00,51,0,64,http://www.ripta.com/64,Weekday
56725,"""SECOND NS MARSH""",41.491483,-71.31948,2351156,18:22:00,18:22:00,52,0,64,http://www.ripta.com/64,Weekday
1383,"""GATEWAY CENTER AT 64 BUS BERTH""",41.491485,-71.317772,2351156,18:23:00,18:23:00,53,0,64,http://www.ripta.com/64,Weekday
1383,"""GATEWAY CENTER AT 64 BUS BERTH""",41.491485,-71.317772,2351157,15:45:00,15:45:00,1,1,64,http://www.ripta.com/64,Weekday
1420,"""THIRD FS BRIDGE""",41.492298,-71.318642,2351157,15:46:00,15:46:00,2,1,64,http://www.ripta.com/64,Weekday
1465,"""THIRD AT WALNUT""",41.49467,-71.318955,2351157,15:46:00,15:46:00,3,1,64,http://www.ripta.com/64,Weekday
1530,"""THIRD NS LASALLE""",41.497507,-71.319305,2351157,15:47:00,15:47:00,4,1,64,http://www.ripta.com/64,Weekday
1605,"""THIRD OPP CYPRESS""",41.500429,-71.319726,2351157,15:48:00,15:48:00,5,1,64,http://www.ripta.com/64,Weekday
1645,"""THIRD AT BAYSIDE VILLAGE""",41.501716,-71.319844,2351157,15:49:00,15:49:00,6,1,64,http://www.ripta.com/64,Weekday
1715,"""THIRD OPP NAVAL HEALTH CLINIC""",41.504382,-71.320194,2351157,15:50:00,15:50:00,7,1,64,http://www.ripta.com/64,Weekday
1755,"""ADM KALBFUS AT AT ADMIRAL'S GATE""",41.506695,-71.319325,2351157,15:51:00,15:51:00,8,1,64,http://www.ripta.com/64,Weekday
1835,"""CONNELL HWAY OPP NISSAN VOLVO""",41.508102,-71.317583,2351157,15:52:00,15:52:00,9,1,64,http://www.ripta.com/64,Weekday
1895,"""NEWPORT TOWNE CENTER (STOP&SHOP)""",41.508474,-71.31643,2351157,15:53:00,15:53:00,10,1,64,http://www.ripta.com/64,Weekday
1890,"""NEWPORT TOWNE CENTER (WALMART)""",41.510625,-71.316887,2351157,15:53:00,15:53:00,11,1,64,http://www.ripta.com/64,Weekday
1870,"""NEWPORT TOWNE CENTER (LAUNDROMAT)""",41.511926,-71.317415,2351157,15:54:00,15:54:00,12,1,64,http://www.ripta.com/64,Weekday
2020,"""CONNELL HWAY NS MAPLE""",41.515053,-71.316041,2351157,15:54:00,15:54:00,13,1,64,http://www.ripta.com/64,Weekday
2090,"""CODDINGTON NS JOHN CHAFEE BLVD""",41.518131,-71.313698,2351157,15:55:00,15:55:00,14,1,64,http://www.ripta.com/64,Weekday
2175,"""CODDINGTON AT RIPTA GARAGE""",41.519275,-71.309746,2351157,15:56:00,15:56:00,15,1,64,http://www.ripta.com/64,Weekday
2155,"""CODDINGTON NS SHERMAN""",41.518855,-71.306072,2351157,15:57:00,15:57:00,16,1,64,http://www.ripta.com/64,Weekday
57840,"""CODDINGTON OPP LANDINGS""",41.518513,-71.30297,2351157,15:57:00,15:57:00,17,1,64,http://www.ripta.com/64,Weekday
2105,"""CODDINGTON NS W MAIN""",41.518233,-71.300648,2351157,15:57:00,15:57:00,18,1,64,http://www.ripta.com/64,Weekday
2195,"""W MAIN NS MAPLEWOOD""",41.519281,-71.299718,2351157,15:58:00,15:58:00,19,1,64,http://www.ripta.com/64,Weekday
2235,"""W MAIN NS OAKWOOD""",41.521651,-71.298915,2351157,15:58:00,15:58:00,20,1,64,http://www.ripta.com/64,Weekday
2300,"""W MAIN NS VALLEY""",41.523402,-71.298232,2351157,15:59:00,15:59:00,21,1,64,http://www.ripta.com/64,Weekday
2315,"""W MAIN FS WOOLSEY""",41.524878,-71.29768,2351157,15:59:00,15:59:00,22,1,64,http://www.ripta.com/64,Weekday
2365,"""W MAIN AT ALL SAINTS ACADEMY""",41.527304,-71.296415,2351157,16:00:00,16:00:00,23,1,64,http://www.ripta.com/64,Weekday
2380,"""NUWC GATE 17""",41.529203,-71.307644,2351157,16:02:00,16:02:00,24,1,64,http://www.ripta.com/64,Weekday
2335,"""W MAIN NS CHASES""",41.525923,-71.297526,2351157,16:06:00,16:06:00,25,1,64,http://www.ripta.com/64,Weekday
2310,"""W MAIN OPP VALLEY""",41.52402,-71.298223,2351157,16:06:00,16:06:00,26,1,64,http://www.ripta.com/64,Weekday
2295,"""W MAIN AT MIDDLETOWN PUBLIC LIBRARY""",41.521907,-71.299019,2351157,16:07:00,16:07:00,27,1,64,http://www.ripta.com/64,Weekday
56775,"""W MAIN OPP MAPLEWOOD""",41.51945,-71.299852,2351157,16:08:00,16:08:00,28,1,64,http://www.ripta.com/64,Weekday
57865,"""CODDINGTON NS THE LANDINGS""",41.518492,-71.30153,2351157,16:09:00,16:09:00,29,1,64,http://www.ripta.com/64,Weekday
2145,"""CODDINGTON NS NIAGRA""",41.518598,-71.30307,2351157,16:09:00,16:09:00,30,1,64,http://www.ripta.com/64,Weekday
2150,"""CODDINGTON NS JONES""",41.518765,-71.304618,2351157,16:09:00,16:09:00,31,1,64,http://www.ripta.com/64,Weekday
2170,"""CODDINGTON OPP SHERMAN""",41.519007,-71.305795,2351157,16:10:00,16:10:00,32,1,64,http://www.ripta.com/64,Weekday
2180,"""CODDINGTON OPP BAYVIEW TRAILER PARK""",41.519162,-71.307064,2351157,16:10:00,16:10:00,33,1,64,http://www.ripta.com/64,Weekday
2200,"""CODDINGTON OPP RIPTA GARAGE""",41.519474,-71.309638,2351157,16:11:00,16:11:00,34,1,64,http://www.ripta.com/64,Weekday
2140,"""CODDINGTON OPP HARBOR BASE INN""",41.519375,-71.311716,2351157,16:11:00,16:11:00,35,1,64,http://www.ripta.com/64,Weekday
57870,"""CODDINGTON OPP CCRI ENTRANCE""",41.51835,-71.313613,2351157,16:12:00,16:12:00,36,1,64,http://www.ripta.com/64,Weekday
58145,"""CCRI (NEWPORT CAMPUS)""",41.51735,-71.31302,2351157,16:12:00,16:12:00,37,1,64,http://www.ripta.com/64,Weekday
2025,"""CONNELL OPP HILLMART""",41.515038,-71.316217,2351157,16:13:00,16:13:00,38,1,64,http://www.ripta.com/64,Weekday
1865,"""CONNELL  HWAY AT NEWPORT ADULTS VIDEO""",41.511545,-71.318059,2351157,16:13:00,16:13:00,39,1,64,http://www.ripta.com/64,Weekday
1775,"""CONNELL HWAY AT NEWPORT TIRE""",41.507682,-71.317696,2351157,16:14:00,16:14:00,40,1,64,http://www.ripta.com/64,Weekday
1575,"""CONANICUS FS KNOWLES""",41.496757,-71.367143,2351157,16:23:00,16:23:00,41,1,64,http://www.ripta.com/64,Weekday
1525,"""NARRAGANSETT FS E SHORE RD""",41.496382,-71.367405,2351157,16:23:00,16:23:00,42,1,64,http://www.ripta.com/64,Weekday
1515,"""NARRAGANSETT AT 20 NARRAGANSETT""",41.49637,-71.368745,2351157,16:23:00,16:23:00,43,1,64,http://www.ripta.com/64,Weekday
1520,"""NARRAGANSETT FS GRINNELL""",41.496315,-71.371732,2351157,16:23:00,16:23:00,44,1,64,http://www.ripta.com/64,Weekday
57520,"""NARRAGANSETT AT 92 NARRAGANSETT""",41.496233,-71.374074,2351157,16:24:00,16:24:00,45,1,64,http://www.ripta.com/64,Weekday
57575,"""JAMESTOWN HOUSING""",41.499648,-71.376341,2351157,16:24:00,16:24:00,46,1,64,http://www.ripta.com/64,Weekday
70600,"""RT 1A & RT 138 PARK&RIDE""",41.526983,-71.425462,2351157,16:33:00,16:33:00,47,1,64,http://www.ripta.com/64,Weekday
2325,"""BOSTON NECK NS BARBERS HEIGHTS""",41.524298,-71.424082,2351157,16:33:00,16:33:00,48,1,64,http://www.ripta.com/64,Weekday
60085,"""BOSTON NECK FS SNUFF MILL""",41.522243,-71.42384,2351157,16:34:00,16:34:00,49,1,64,http://www.ripta.com/64,Weekday
2245,"""BOSTON NECK FS HOMESTEAD""",41.521254,-71.424046,2351157,16:34:00,16:34:00,50,1,64,http://www.ripta.com/64,Weekday
60090,"""BOSTON NECK OPP 2080 BOSTON NECK""",41.519246,-71.424093,2351157,16:34:00,16:34:00,51,1,64,http://www.ripta.com/64,Weekday
2065,"""BOSTON NECK OPP CHARLOTTE""",41.516748,-71.423412,2351157,16:35:00,16:35:00,52,1,64,http://www.ripta.com/64,Weekday
1880,"""BOSTON NECK FS FERRY""",41.507661,-71.425119,2351157,16:36:00,16:36:00,53,1,64,http://www.ripta.com/64,Weekday
1730,"""BOSTON NECK NS MINER""",41.505015,-71.42862,2351157,16:36:00,16:36:00,54,1,64,http://www.ripta.com/64,Weekday
1660,"""BOSTON NECK NS INDIAN TRAIL""",41.502256,-71.43213,2351157,16:37:00,16:37:00,55,1,64,http://www.ripta.com/64,Weekday
1615,"""BOSTON NECK NS RIVERDELL""",41.500993,-71.433797,2351157,16:37:00,16:37:00,56,1,64,http://www.ripta.com/64,Weekday
1545,"""BOSTON NECK NS PETTAQUAMSCUTT LAKE""",41.497967,-71.436521,2351157,16:38:00,16:38:00,57,1,64,http://www.ripta.com/64,Weekday
1450,"""BOSTON LAKE NS EDGEWATER RD""",41.494846,-71.437896,2351157,16:38:00,16:38:00,58,1,64,http://www.ripta.com/64,Weekday
1400,"""BOSTON NECK NS BRIDGETOWN""",41.492409,-71.43815,2351157,16:38:00,16:38:00,59,1,64,http://www.ripta.com/64,Weekday
58845,"""PIER RD FS SOUTH FERRY""",41.49198,-71.424045,2351157,16:40:00,16:40:00,60,1,64,http://www.ripta.com/64,Weekday
57555,"""BRIDGETOWN AT 130 BRIDGETOWN""",41.49033,-71.445921,2351157,16:44:00,16:44:00,61,1,64,http://www.ripta.com/64,Weekday
57560,"""BRIDGETOWN NS WALMSLEY""",41.488291,-71.449408,2351157,16:45:00,16:45:00,62,1,64,http://www.ripta.com/64,Weekday
57565,"""RT 138 AT 61 MOORESVILLE RD""",41.494603,-71.458699,2351157,16:47:00,16:47:00,63,1,64,http://www.ripta.com/64,Weekday
1075,"""KINGSTOWN FS NORTH RD""",41.480003,-71.522949,2351157,16:55:00,16:55:00,64,1,64,http://www.ripta.com/64,Weekday
1085,"""KINGSTOWN AT 2579 KINGSTOWN RD""",41.480197,-71.524366,2351157,16:55:00,16:55:00,65,1,64,http://www.ripta.com/64,Weekday
1180,"""UPPER COLLEGE NS CAMPUS""",41.482731,-71.525703,2351157,16:55:00,16:55:00,66,1,64,http://www.ripta.com/64,Weekday
1190,"""CAMPUS AT COLLEGE OF PHARMACY""",41.483487,-71.528164,2351157,16:56:00,16:56:00,67,1,64,http://www.ripta.com/64,Weekday
1225,"""URI STUDENT UNION""",41.484315,-71.529311,2351157,16:56:00,16:56:00,68,1,64,http://www.ripta.com/64,Weekday
1155,"""LOWER COLLEGE OPP ST AUGUSTINES CHURCH""",41.481905,-71.529871,2351157,16:57:00,16:57:00,69,1,64,http://www.ripta.com/64,Weekday
72190,"""KINGSTOWN OPP GRADUATE VILLAGE APTS""",41.482201,-71.535733,2351157,16:58:00,16:58:00,70,1,64,http://www.ripta.com/64,Weekday
1175,"""KINGSTOWN FS W INDEPENDENCE""",41.482871,-71.540778,2351157,16:59:00,16:59:00,71,1,64,http://www.ripta.com/64,Weekday
50720,"""KINGSTOWN NS PLAINS""",41.482103,-71.549827,2351157,17:01:00,17:01:00,72,1,64,http://www.ripta.com/64,Weekday
1205,"""KINGSTOWN NS WAITES CORNER""",41.482979,-71.551555,2351157,17:01:00,17:01:00,73,1,64,http://www.ripta.com/64,Weekday
59750,"""KINGSTOWN AT MOBIL GAS STATION""",41.483402,-71.553139,2351157,17:01:00,17:01:00,74,1,64,http://www.ripta.com/64,Weekday
50725,"""KINGSTOWN OPP WATSON""",41.483848,-71.555632,2351157,17:02:00,17:02:00,75,1,64,http://www.ripta.com/64,Weekday
1230,"""KINGSTON RAILROAD STATION""",41.484102,-71.560243,2351157,17:03:00,17:03:00,76,1,64,http://www.ripta.com/64,Weekday
1230,"""KINGSTON RAILROAD STATION""",41.484102,-71.560243,2351158,14:30:00,14:30:00,1,0,64,http://www.ripta.com/64,Weekday
50675,"""KINGSTOWN FS WATSON""",41.483611,-71.555325,2351158,14:31:00,14:31:00,2,0,64,http://www.ripta.com/64,Weekday
50680,"""KINGSTOWN NS TLC COFFEE ROASTERS""",41.483126,-71.552351,2351158,14:32:00,14:32:00,3,0,64,http://www.ripta.com/64,Weekday
50685,"""KINGSTOWN OPP W INDEPENDENCE WAY""",41.482704,-71.540456,2351158,14:34:00,14:34:00,4,0,64,http://www.ripta.com/64,Weekday
50690,"""KINGSTOWN OPP RYAN CENTER""",41.482359,-71.538198,2351158,14:34:00,14:34:00,5,0,64,http://www.ripta.com/64,Weekday
1140,"""LOWER COLLEGE NS BAYBERRY""",41.482182,-71.529691,2351158,14:36:00,14:36:00,6,0,64,http://www.ripta.com/64,Weekday
1225,"""URI STUDENT UNION""",41.484315,-71.529311,2351158,14:37:00,14:37:00,7,0,64,http://www.ripta.com/64,Weekday
1185,"""UPPER COLLEGE FS CAMPUS""",41.482725,-71.525816,2351158,14:37:00,14:37:00,8,0,64,http://www.ripta.com/64,Weekday
1120,"""UPPER COLLEGE NS RT 138""",41.48119,-71.525551,2351158,14:38:00,14:38:00,9,0,64,http://www.ripta.com/64,Weekday
1125,"""KINGSTOWN AT GRAD VILLAGE APTS""",41.482005,-71.535882,2351158,14:40:00,14:40:00,10,0,64,http://www.ripta.com/64,Weekday
57530,"""RT 138 NS RT 1""",41.494629,-71.456956,2351158,14:46:00,14:46:00,11,0,64,http://www.ripta.com/64,Weekday
57535,"""BRIDGETOWN FS RT 1""",41.494559,-71.456021,2351158,14:46:00,14:46:00,12,0,64,http://www.ripta.com/64,Weekday
57540,"""BRIDGETOWN FS RIVERSIDE""",41.48869,-71.44662,2351158,14:48:00,14:48:00,13,0,64,http://www.ripta.com/64,Weekday
58845,"""PIER RD FS SOUTH FERRY""",41.49198,-71.424045,2351158,14:51:00,14:51:00,14,0,64,http://www.ripta.com/64,Weekday
1395,"""BOSTON NECK FS S FERRY""",41.492364,-71.437984,2351158,14:54:00,14:54:00,15,0,64,http://www.ripta.com/64,Weekday
1455,"""BOSTON NECK OPP EDGEWATER""",41.494793,-71.437764,2351158,14:54:00,14:54:00,16,0,64,http://www.ripta.com/64,Weekday
1535,"""BOSTON NECK FS BANFIELD""",41.497986,-71.4363,2351158,14:55:00,14:55:00,17,0,64,http://www.ripta.com/64,Weekday
1610,"""BOSTON NECK OPP RIVERDELL""",41.500947,-71.433596,2351158,14:55:00,14:55:00,18,0,64,http://www.ripta.com/64,Weekday
1725,"""BOSTON NECK FS MINER""",41.504953,-71.428414,2351158,14:56:00,14:56:00,19,0,64,http://www.ripta.com/64,Weekday
1875,"""BOSTON NECK NS FERRY""",41.507607,-71.42496,2351158,14:57:00,14:57:00,20,0,64,http://www.ripta.com/64,Weekday
2070,"""BOSTON NECK FS CHARLOTTE""",41.516702,-71.42324,2351158,14:58:00,14:58:00,21,0,64,http://www.ripta.com/64,Weekday
58605,"""BOSTON NECK NS HIGHLAND""",41.52004,-71.423987,2351158,14:59:00,14:59:00,22,0,64,http://www.ripta.com/64,Weekday
2250,"""BOSTON NECK OPP SNUFF MILL""",41.52242,-71.423628,2351158,14:59:00,14:59:00,23,0,64,http://www.ripta.com/64,Weekday
2320,"""BOSTON NECK OPP 1865 BOSTON NECK""",41.524558,-71.423991,2351158,14:59:00,14:59:00,24,0,64,http://www.ripta.com/64,Weekday
70600,"""RT 1A & RT 138 PARK&RIDE""",41.526983,-71.425462,2351158,15:00:00,15:00:00,25,0,64,http://www.ripta.com/64,Weekday
2361,"""TASHTASSUCK FS HELM""",41.525592,-71.385276,2351158,15:04:00,15:04:00,26,0,64,http://www.ripta.com/64,Weekday
72180,"""NORTH NS WATSON""",41.498149,-71.374706,2351158,15:09:00,15:09:00,27,0,64,http://www.ripta.com/64,Weekday
57405,"""NORTH AT 83 NORTH RD""",41.50085,-71.374766,2351158,15:10:00,15:10:00,28,0,64,http://www.ripta.com/64,Weekday
1505,"""NORTH NS AT 1 NORTH RD""",41.496551,-71.374702,2351158,15:10:00,15:10:00,29,0,64,http://www.ripta.com/64,Weekday
1495,"""NARRAGANSETT FS HOWLAND""",41.496192,-71.371722,2351158,15:11:00,15:11:00,30,0,64,http://www.ripta.com/64,Weekday
57510,"""NARRAGANSETT NS GREEN""",41.496246,-71.36939,2351158,15:11:00,15:11:00,31,0,64,http://www.ripta.com/64,Weekday
1526,"""CONANICUS FS NARRAGANSETT""",41.496595,-71.367009,2351158,15:11:00,15:11:00,32,0,64,http://www.ripta.com/64,Weekday
1745,"""CONANICUS NS MT HOPE""",41.504757,-71.364472,2351158,15:12:00,15:12:00,33,0,64,http://www.ripta.com/64,Weekday
59270,"""ADM KALBFUS OPP HALSEY (WASTE MANAGEMENT)""",41.507589,-71.314548,2351158,15:22:00,15:22:00,34,0,64,http://www.ripta.com/64,Weekday
1835,"""CONNELL HWAY OPP NISSAN VOLVO""",41.508102,-71.317583,2351158,15:22:00,15:22:00,35,0,64,http://www.ripta.com/64,Weekday
1895,"""NEWPORT TOWNE CENTER (STOP&SHOP)""",41.508474,-71.31643,2351158,15:22:00,15:22:00,36,0,64,http://www.ripta.com/64,Weekday
1890,"""NEWPORT TOWNE CENTER (WALMART)""",41.510625,-71.316887,2351158,15:23:00,15:23:00,37,0,64,http://www.ripta.com/64,Weekday
1870,"""NEWPORT TOWNE CENTER (LAUNDROMAT)""",41.511926,-71.317415,2351158,15:23:00,15:23:00,38,0,64,http://www.ripta.com/64,Weekday
2020,"""CONNELL HWAY NS MAPLE""",41.515053,-71.316041,2351158,15:23:00,15:23:00,39,0,64,http://www.ripta.com/64,Weekday
2090,"""CODDINGTON NS JOHN CHAFEE BLVD""",41.518131,-71.313698,2351158,15:24:00,15:24:00,40,0,64,http://www.ripta.com/64,Weekday
58145,"""CCRI (NEWPORT CAMPUS)""",41.51735,-71.31302,2351158,15:24:00,15:24:00,41,0,64,http://www.ripta.com/64,Weekday
2025,"""CONNELL OPP HILLMART""",41.515038,-71.316217,2351158,15:25:00,15:25:00,42,0,64,http://www.ripta.com/64,Weekday
1865,"""CONNELL  HWAY AT NEWPORT ADULTS VIDEO""",41.511545,-71.318059,2351158,15:26:00,15:26:00,43,0,64,http://www.ripta.com/64,Weekday
1775,"""CONNELL HWAY AT NEWPORT TIRE""",41.507682,-71.317696,2351158,15:27:00,15:27:00,44,0,64,http://www.ripta.com/64,Weekday
57760,"""ADM KALBFUS AT ROLLING GREEN APTS""",41.506826,-71.319378,2351158,15:28:00,15:28:00,45,0,64,http://www.ripta.com/64,Weekday
1695,"""THIRD OPP DYERS GATE""",41.503582,-71.320243,2351158,15:29:00,15:29:00,46,0,64,http://www.ripta.com/64,Weekday
1650,"""THIRD OPP BAYSIDE VILLAGE""",41.501766,-71.320017,2351158,15:29:00,15:29:00,47,0,64,http://www.ripta.com/64,Weekday
1600,"""THIRD FS CYPRESS""",41.499988,-71.319747,2351158,15:30:00,15:30:00,48,0,64,http://www.ripta.com/64,Weekday
56705,"""SECOND OPP 103 SECOND""",41.498628,-71.320415,2351158,15:30:00,15:30:00,49,0,64,http://www.ripta.com/64,Weekday
56710,"""SECOND NS PINE""",41.496743,-71.320205,2351158,15:31:00,15:31:00,50,0,64,http://www.ripta.com/64,Weekday
56720,"""SECOND NS POPLAR""",41.493479,-71.319751,2351158,15:32:00,15:32:00,51,0,64,http://www.ripta.com/64,Weekday
56725,"""SECOND NS MARSH""",41.491483,-71.31948,2351158,15:32:00,15:32:00,52,0,64,http://www.ripta.com/64,Weekday
1383,"""GATEWAY CENTER AT 64 BUS BERTH""",41.491485,-71.317772,2351158,15:33:00,15:33:00,53,0,64,http://www.ripta.com/64,Weekday
1230,"""KINGSTON RAILROAD STATION""",41.484102,-71.560243,2351159,13:15:00,13:15:00,1,0,64,http://www.ripta.com/64,Weekday
50675,"""KINGSTOWN FS WATSON""",41.483611,-71.555325,2351159,13:16:00,13:16:00,2,0,64,http://www.ripta.com/64,Weekday
50680,"""KINGSTOWN NS TLC COFFEE ROASTERS""",41.483126,-71.552351,2351159,13:17:00,13:17:00,3,0,64,http://www.ripta.com/64,Weekday
50685,"""KINGSTOWN OPP W INDEPENDENCE WAY""",41.482704,-71.540456,2351159,13:19:00,13:19:00,4,0,64,http://www.ripta.com/64,Weekday
50690,"""KINGSTOWN OPP RYAN CENTER""",41.482359,-71.538198,2351159,13:19:00,13:19:00,5,0,64,http://www.ripta.com/64,Weekday
1140,"""LOWER COLLEGE NS BAYBERRY""",41.482182,-71.529691,2351159,13:21:00,13:21:00,6,0,64,http://www.ripta.com/64,Weekday
1225,"""URI STUDENT UNION""",41.484315,-71.529311,2351159,13:22:00,13:22:00,7,0,64,http://www.ripta.com/64,Weekday
1185,"""UPPER COLLEGE FS CAMPUS""",41.482725,-71.525816,2351159,13:22:00,13:22:00,8,0,64,http://www.ripta.com/64,Weekday
1120,"""UPPER COLLEGE NS RT 138""",41.48119,-71.525551,2351159,13:23:00,13:23:00,9,0,64,http://www.ripta.com/64,Weekday
1125,"""KINGSTOWN AT GRAD VILLAGE APTS""",41.482005,-71.535882,2351159,13:25:00,13:25:00,10,0,64,http://www.ripta.com/64,Weekday
57530,"""RT 138 NS RT 1""",41.494629,-71.456956,2351159,13:31:00,13:31:00,11,0,64,http://www.ripta.com/64,Weekday
57535,"""BRIDGETOWN FS RT 1""",41.494559,-71.456021,2351159,13:31:00,13:31:00,12,0,64,http://www.ripta.com/64,Weekday
57540,"""BRIDGETOWN FS RIVERSIDE""",41.48869,-71.44662,2351159,13:33:00,13:33:00,13,0,64,http://www.ripta.com/64,Weekday
58845,"""PIER RD FS SOUTH FERRY""",41.49198,-71.424045,2351159,13:36:00,13:36:00,14,0,64,http://www.ripta.com/64,Weekday
1395,"""BOSTON NECK FS S FERRY""",41.492364,-71.437984,2351159,13:39:00,13:39:00,15,0,64,http://www.ripta.com/64,Weekday
1455,"""BOSTON NECK OPP EDGEWATER""",41.494793,-71.437764,2351159,13:39:00,13:39:00,16,0,64,http://www.ripta.com/64,Weekday
1535,"""BOSTON NECK FS BANFIELD""",41.497986,-71.4363,2351159,13:40:00,13:40:00,17,0,64,http://www.ripta.com/64,Weekday
1610,"""BOSTON NECK OPP RIVERDELL""",41.500947,-71.433596,2351159,13:40:00,13:40:00,18,0,64,http://www.ripta.com/64,Weekday
1725,"""BOSTON NECK FS MINER""",41.504953,-71.428414,2351159,13:41:00,13:41:00,19,0,64,http://www.ripta.com/64,Weekday
1875,"""BOSTON NECK NS FERRY""",41.507607,-71.42496,2351159,13:42:00,13:42:00,20,0,64,http://www.ripta.com/64,Weekday
2070,"""BOSTON NECK FS CHARLOTTE""",41.516702,-71.42324,2351159,13:43:00,13:43:00,21,0,64,http://www.ripta.com/64,Weekday
58605,"""BOSTON NECK NS HIGHLAND""",41.52004,-71.423987,2351159,13:44:00,13:44:00,22,0,64,http://www.ripta.com/64,Weekday
2250,"""BOSTON NECK OPP SNUFF MILL""",41.52242,-71.423628,2351159,13:44:00,13:44:00,23,0,64,http://www.ripta.com/64,Weekday
2320,"""BOSTON NECK OPP 1865 BOSTON NECK""",41.524558,-71.423991,2351159,13:44:00,13:44:00,24,0,64,http://www.ripta.com/64,Weekday
70600,"""RT 1A & RT 138 PARK&RIDE""",41.526983,-71.425462,2351159,13:45:00,13:45:00,25,0,64,http://www.ripta.com/64,Weekday
2361,"""TASHTASSUCK FS HELM""",41.525592,-71.385276,2351159,13:49:00,13:49:00,26,0,64,http://www.ripta.com/64,Weekday
72180,"""NORTH NS WATSON""",41.498149,-71.374706,2351159,13:54:00,13:54:00,27,0,64,http://www.ripta.com/64,Weekday
57405,"""NORTH AT 83 NORTH RD""",41.50085,-71.374766,2351159,13:55:00,13:55:00,28,0,64,http://www.ripta.com/64,Weekday
1505,"""NORTH NS AT 1 NORTH RD""",41.496551,-71.374702,2351159,13:55:00,13:55:00,29,0,64,http://www.ripta.com/64,Weekday
1495,"""NARRAGANSETT FS HOWLAND""",41.496192,-71.371722,2351159,13:56:00,13:56:00,30,0,64,http://www.ripta.com/64,Weekday
57510,"""NARRAGANSETT NS GREEN""",41.496246,-71.36939,2351159,13:56:00,13:56:00,31,0,64,http://www.ripta.com/64,Weekday
1526,"""CONANICUS FS NARRAGANSETT""",41.496595,-71.367009,2351159,13:56:00,13:56:00,32,0,64,http://www.ripta.com/64,Weekday
1745,"""CONANICUS NS MT HOPE""",41.504757,-71.364472,2351159,13:57:00,13:57:00,33,0,64,http://www.ripta.com/64,Weekday
59270,"""ADM KALBFUS OPP HALSEY (WASTE MANAGEMENT)""",41.507589,-71.314548,2351159,14:07:00,14:07:00,34,0,64,http://www.ripta.com/64,Weekday
1835,"""CONNELL HWAY OPP NISSAN VOLVO""",41.508102,-71.317583,2351159,14:07:00,14:07:00,35,0,64,http://www.ripta.com/64,Weekday
1895,"""NEWPORT TOWNE CENTER (STOP&SHOP)""",41.508474,-71.31643,2351159,14:07:00,14:07:00,36,0,64,http://www.ripta.com/64,Weekday
1890,"""NEWPORT TOWNE CENTER (WALMART)""",41.510625,-71.316887,2351159,14:08:00,14:08:00,37,0,64,http://www.ripta.com/64,Weekday
1870,"""NEWPORT TOWNE CENTER (LAUNDROMAT)""",41.511926,-71.317415,2351159,14:08:00,14:08:00,38,0,64,http://www.ripta.com/64,Weekday
2020,"""CONNELL HWAY NS MAPLE""",41.515053,-71.316041,2351159,14:08:00,14:08:00,39,0,64,http://www.ripta.com/64,Weekday
2090,"""CODDINGTON NS JOHN CHAFEE BLVD""",41.518131,-71.313698,2351159,14:09:00,14:09:00,40,0,64,http://www.ripta.com/64,Weekday
58145,"""CCRI (NEWPORT CAMPUS)""",41.51735,-71.31302,2351159,14:09:00,14:09:00,41,0,64,http://www.ripta.com/64,Weekday
2025,"""CONNELL OPP HILLMART""",41.515038,-71.316217,2351159,14:10:00,14:10:00,42,0,64,http://www.ripta.com/64,Weekday
1865,"""CONNELL  HWAY AT NEWPORT ADULTS VIDEO""",41.511545,-71.318059,2351159,14:11:00,14:11:00,43,0,64,http://www.ripta.com/64,Weekday
1775,"""CONNELL HWAY AT NEWPORT TIRE""",41.507682,-71.317696,2351159,14:12:00,14:12:00,44,0,64,http://www.ripta.com/64,Weekday
57760,"""ADM KALBFUS AT ROLLING GREEN APTS""",41.506826,-71.319378,2351159,14:13:00,14:13:00,45,0,64,http://www.ripta.com/64,Weekday
1695,"""THIRD OPP DYERS GATE""",41.503582,-71.320243,2351159,14:14:00,14:14:00,46,0,64,http://www.ripta.com/64,Weekday
1650,"""THIRD OPP BAYSIDE VILLAGE""",41.501766,-71.320017,2351159,14:14:00,14:14:00,47,0,64,http://www.ripta.com/64,Weekday
1600,"""THIRD FS CYPRESS""",41.499988,-71.319747,2351159,14:15:00,14:15:00,48,0,64,http://www.ripta.com/64,Weekday
56705,"""SECOND OPP 103 SECOND""",41.498628,-71.320415,2351159,14:15:00,14:15:00,49,0,64,http://www.ripta.com/64,Weekday
56710,"""SECOND NS PINE""",41.496743,-71.320205,2351159,14:16:00,14:16:00,50,0,64,http://www.ripta.com/64,Weekday
56720,"""SECOND NS POPLAR""",41.493479,-71.319751,2351159,14:17:00,14:17:00,51,0,64,http://www.ripta.com/64,Weekday
56725,"""SECOND NS MARSH""",41.491483,-71.31948,2351159,14:17:00,14:17:00,52,0,64,http://www.ripta.com/64,Weekday
1383,"""GATEWAY CENTER AT 64 BUS BERTH""",41.491485,-71.317772,2351159,14:18:00,14:18:00,53,0,64,http://www.ripta.com/64,Weekday
1383,"""GATEWAY CENTER AT 64 BUS BERTH""",41.491485,-71.317772,2351160,11:55:00,11:55:00,1,1,64,http://www.ripta.com/64,Weekday
1420,"""THIRD FS BRIDGE""",41.492298,-71.318642,2351160,11:56:00,11:56:00,2,1,64,http://www.ripta.com/64,Weekday
1465,"""THIRD AT WALNUT""",41.49467,-71.318955,2351160,11:56:00,11:56:00,3,1,64,http://www.ripta.com/64,Weekday
1530,"""THIRD NS LASALLE""",41.497507,-71.319305,2351160,11:57:00,11:57:00,4,1,64,http://www.ripta.com/64,Weekday
1605,"""THIRD OPP CYPRESS""",41.500429,-71.319726,2351160,11:58:00,11:58:00,5,1,64,http://www.ripta.com/64,Weekday
1645,"""THIRD AT BAYSIDE VILLAGE""",41.501716,-71.319844,2351160,11:59:00,11:59:00,6,1,64,http://www.ripta.com/64,Weekday
1715,"""THIRD OPP NAVAL HEALTH CLINIC""",41.504382,-71.320194,2351160,12:00:00,12:00:00,7,1,64,http://www.ripta.com/64,Weekday
1755,"""ADM KALBFUS AT AT ADMIRAL'S GATE""",41.506695,-71.319325,2351160,12:01:00,12:01:00,8,1,64,http://www.ripta.com/64,Weekday
1835,"""CONNELL HWAY OPP NISSAN VOLVO""",41.508102,-71.317583,2351160,12:02:00,12:02:00,9,1,64,http://www.ripta.com/64,Weekday
1895,"""NEWPORT TOWNE CENTER (STOP&SHOP)""",41.508474,-71.31643,2351160,12:02:00,12:02:00,10,1,64,http://www.ripta.com/64,Weekday
1890,"""NEWPORT TOWNE CENTER (WALMART)""",41.510625,-71.316887,2351160,12:03:00,12:03:00,11,1,64,http://www.ripta.com/64,Weekday
1870,"""NEWPORT TOWNE CENTER (LAUNDROMAT)""",41.511926,-71.317415,2351160,12:03:00,12:03:00,12,1,64,http://www.ripta.com/64,Weekday
2020,"""CONNELL HWAY NS MAPLE""",41.515053,-71.316041,2351160,12:03:00,12:03:00,13,1,64,http://www.ripta.com/64,Weekday
2090,"""CODDINGTON NS JOHN CHAFEE BLVD""",41.518131,-71.313698,2351160,12:04:00,12:04:00,14,1,64,http://www.ripta.com/64,Weekday
58145,"""CCRI (NEWPORT CAMPUS)""",41.51735,-71.31302,2351160,12:04:00,12:04:00,15,1,64,http://www.ripta.com/64,Weekday
2025,"""CONNELL OPP HILLMART""",41.515038,-71.316217,2351160,12:05:00,12:05:00,16,1,64,http://www.ripta.com/64,Weekday
1865,"""CONNELL  HWAY AT NEWPORT ADULTS VIDEO""",41.511545,-71.318059,2351160,12:05:00,12:05:00,17,1,64,http://www.ripta.com/64,Weekday
1775,"""CONNELL HWAY AT NEWPORT TIRE""",41.507682,-71.317696,2351160,12:06:00,12:06:00,18,1,64,http://www.ripta.com/64,Weekday
1575,"""CONANICUS FS KNOWLES""",41.496757,-71.367143,2351160,12:15:00,12:15:00,19,1,64,http://www.ripta.com/64,Weekday
1525,"""NARRAGANSETT FS E SHORE RD""",41.496382,-71.367405,2351160,12:15:00,12:15:00,20,1,64,http://www.ripta.com/64,Weekday
1515,"""NARRAGANSETT AT 20 NARRAGANSETT""",41.49637,-71.368745,2351160,12:15:00,12:15:00,21,1,64,http://www.ripta.com/64,Weekday
1520,"""NARRAGANSETT FS GRINNELL""",41.496315,-71.371732,2351160,12:15:00,12:15:00,22,1,64,http://www.ripta.com/64,Weekday
57520,"""NARRAGANSETT AT 92 NARRAGANSETT""",41.496233,-71.374074,2351160,12:16:00,12:16:00,23,1,64,http://www.ripta.com/64,Weekday
1565,"""NORTH NS VALLEY""",41.498233,-71.374589,2351160,12:16:00,12:16:00,24,1,64,http://www.ripta.com/64,Weekday
57525,"""NORTH OPP 79 NORTH""",41.50072,-71.374606,2351160,12:16:00,12:16:00,25,1,64,http://www.ripta.com/64,Weekday
70600,"""RT 1A & RT 138 PARK&RIDE""",41.526983,-71.425462,2351160,12:25:00,12:25:00,26,1,64,http://www.ripta.com/64,Weekday
2325,"""BOSTON NECK NS BARBERS HEIGHTS""",41.524298,-71.424082,2351160,12:25:00,12:25:00,27,1,64,http://www.ripta.com/64,Weekday
60085,"""BOSTON NECK FS SNUFF MILL""",41.522243,-71.42384,2351160,12:26:00,12:26:00,28,1,64,http://www.ripta.com/64,Weekday
2245,"""BOSTON NECK FS HOMESTEAD""",41.521254,-71.424046,2351160,12:26:00,12:26:00,29,1,64,http://www.ripta.com/64,Weekday
60090,"""BOSTON NECK OPP 2080 BOSTON NECK""",41.519246,-71.424093,2351160,12:26:00,12:26:00,30,1,64,http://www.ripta.com/64,Weekday
2065,"""BOSTON NECK OPP CHARLOTTE""",41.516748,-71.423412,2351160,12:27:00,12:27:00,31,1,64,http://www.ripta.com/64,Weekday
1880,"""BOSTON NECK FS FERRY""",41.507661,-71.425119,2351160,12:28:00,12:28:00,32,1,64,http://www.ripta.com/64,Weekday
1730,"""BOSTON NECK NS MINER""",41.505015,-71.42862,2351160,12:28:00,12:28:00,33,1,64,http://www.ripta.com/64,Weekday
1660,"""BOSTON NECK NS INDIAN TRAIL""",41.502256,-71.43213,2351160,12:29:00,12:29:00,34,1,64,http://www.ripta.com/64,Weekday
1615,"""BOSTON NECK NS RIVERDELL""",41.500993,-71.433797,2351160,12:29:00,12:29:00,35,1,64,http://www.ripta.com/64,Weekday
1545,"""BOSTON NECK NS PETTAQUAMSCUTT LAKE""",41.497967,-71.436521,2351160,12:30:00,12:30:00,36,1,64,http://www.ripta.com/64,Weekday
1450,"""BOSTON LAKE NS EDGEWATER RD""",41.494846,-71.437896,2351160,12:30:00,12:30:00,37,1,64,http://www.ripta.com/64,Weekday
1400,"""BOSTON NECK NS BRIDGETOWN""",41.492409,-71.43815,2351160,12:30:00,12:30:00,38,1,64,http://www.ripta.com/64,Weekday
58845,"""PIER RD FS SOUTH FERRY""",41.49198,-71.424045,2351160,12:32:00,12:32:00,39,1,64,http://www.ripta.com/64,Weekday
57555,"""BRIDGETOWN AT 130 BRIDGETOWN""",41.49033,-71.445921,2351160,12:36:00,12:36:00,40,1,64,http://www.ripta.com/64,Weekday
57560,"""BRIDGETOWN NS WALMSLEY""",41.488291,-71.449408,2351160,12:37:00,12:37:00,41,1,64,http://www.ripta.com/64,Weekday
57565,"""RT 138 AT 61 MOORESVILLE RD""",41.494603,-71.458699,2351160,12:39:00,12:39:00,42,1,64,http://www.ripta.com/64,Weekday
1075,"""KINGSTOWN FS NORTH RD""",41.480003,-71.522949,2351160,12:47:00,12:47:00,43,1,64,http://www.ripta.com/64,Weekday
1085,"""KINGSTOWN AT 2579 KINGSTOWN RD""",41.480197,-71.524366,2351160,12:47:00,12:47:00,44,1,64,http://www.ripta.com/64,Weekday
1180,"""UPPER COLLEGE NS CAMPUS""",41.482731,-71.525703,2351160,12:47:00,12:47:00,45,1,64,http://www.ripta.com/64,Weekday
1190,"""CAMPUS AT COLLEGE OF PHARMACY""",41.483487,-71.528164,2351160,12:48:00,12:48:00,46,1,64,http://www.ripta.com/64,Weekday
1225,"""URI STUDENT UNION""",41.484315,-71.529311,2351160,12:48:00,12:48:00,47,1,64,http://www.ripta.com/64,Weekday
1155,"""LOWER COLLEGE OPP ST AUGUSTINES CHURCH""",41.481905,-71.529871,2351160,12:49:00,12:49:00,48,1,64,http://www.ripta.com/64,Weekday
72190,"""KINGSTOWN OPP GRADUATE VILLAGE APTS""",41.482201,-71.535733,2351160,12:50:00,12:50:00,49,1,64,http://www.ripta.com/64,Weekday
1175,"""KINGSTOWN FS W INDEPENDENCE""",41.482871,-71.540778,2351160,12:51:00,12:51:00,50,1,64,http://www.ripta.com/64,Weekday
50720,"""KINGSTOWN NS PLAINS""",41.482103,-71.549827,2351160,12:53:00,12:53:00,51,1,64,http://www.ripta.com/64,Weekday
1205,"""KINGSTOWN NS WAITES CORNER""",41.482979,-71.551555,2351160,12:53:00,12:53:00,52,1,64,http://www.ripta.com/64,Weekday
59750,"""KINGSTOWN AT MOBIL GAS STATION""",41.483402,-71.553139,2351160,12:53:00,12:53:00,53,1,64,http://www.ripta.com/64,Weekday
50725,"""KINGSTOWN OPP WATSON""",41.483848,-71.555632,2351160,12:54:00,12:54:00,54,1,64,http://www.ripta.com/64,Weekday
1230,"""KINGSTON RAILROAD STATION""",41.484102,-71.560243,2351160,12:55:00,12:55:00,55,1,64,http://www.ripta.com/64,Weekday
1230,"""KINGSTON RAILROAD STATION""",41.484102,-71.560243,2351161,10:30:00,10:30:00,1,0,64,http://www.ripta.com/64,Weekday
50675,"""KINGSTOWN FS WATSON""",41.483611,-71.555325,2351161,10:31:00,10:31:00,2,0,64,http://www.ripta.com/64,Weekday
50680,"""KINGSTOWN NS TLC COFFEE ROASTERS""",41.483126,-71.552351,2351161,10:31:00,10:31:00,3,0,64,http://www.ripta.com/64,Weekday
50685,"""KINGSTOWN OPP W INDEPENDENCE WAY""",41.482704,-71.540456,2351161,10:33:00,10:33:00,4,0,64,http://www.ripta.com/64,Weekday
50690,"""KINGSTOWN OPP RYAN CENTER""",41.482359,-71.538198,2351161,10:34:00,10:34:00,5,0,64,http://www.ripta.com/64,Weekday
1140,"""LOWER COLLEGE NS BAYBERRY""",41.482182,-71.529691,2351161,10:35:00,10:35:00,6,0,64,http://www.ripta.com/64,Weekday
1225,"""URI STUDENT UNION""",41.484315,-71.529311,2351161,10:36:00,10:36:00,7,0,64,http://www.ripta.com/64,Weekday
1185,"""UPPER COLLEGE FS CAMPUS""",41.482725,-71.525816,2351161,10:36:00,10:36:00,8,0,64,http://www.ripta.com/64,Weekday
1120,"""UPPER COLLEGE NS RT 138""",41.48119,-71.525551,2351161,10:37:00,10:37:00,9,0,64,http://www.ripta.com/64,Weekday
1125,"""KINGSTOWN AT GRAD VILLAGE APTS""",41.482005,-71.535882,2351161,10:39:00,10:39:00,10,0,64,http://www.ripta.com/64,Weekday
57530,"""RT 138 NS RT 1""",41.494629,-71.456956,2351161,10:45:00,10:45:00,11,0,64,http://www.ripta.com/64,Weekday
57535,"""BRIDGETOWN FS RT 1""",41.494559,-71.456021,2351161,10:45:00,10:45:00,12,0,64,http://www.ripta.com/64,Weekday
57540,"""BRIDGETOWN FS RIVERSIDE""",41.48869,-71.44662,2351161,10:47:00,10:47:00,13,0,64,http://www.ripta.com/64,Weekday
58845,"""PIER RD FS SOUTH FERRY""",41.49198,-71.424045,2351161,10:50:00,10:50:00,14,0,64,http://www.ripta.com/64,Weekday
1395,"""BOSTON NECK FS S FERRY""",41.492364,-71.437984,2351161,10:53:00,10:53:00,15,0,64,http://www.ripta.com/64,Weekday
1455,"""BOSTON NECK OPP EDGEWATER""",41.494793,-71.437764,2351161,10:53:00,10:53:00,16,0,64,http://www.ripta.com/64,Weekday
1535,"""BOSTON NECK FS BANFIELD""",41.497986,-71.4363,2351161,10:54:00,10:54:00,17,0,64,http://www.ripta.com/64,Weekday
1610,"""BOSTON NECK OPP RIVERDELL""",41.500947,-71.433596,2351161,10:54:00,10:54:00,18,0,64,http://www.ripta.com/64,Weekday
1725,"""BOSTON NECK FS MINER""",41.504953,-71.428414,2351161,10:55:00,10:55:00,19,0,64,http://www.ripta.com/64,Weekday
1875,"""BOSTON NECK NS FERRY""",41.507607,-71.42496,2351161,10:56:00,10:56:00,20,0,64,http://www.ripta.com/64,Weekday
2070,"""BOSTON NECK FS CHARLOTTE""",41.516702,-71.42324,2351161,10:57:00,10:57:00,21,0,64,http://www.ripta.com/64,Weekday
58605,"""BOSTON NECK NS HIGHLAND""",41.52004,-71.423987,2351161,10:58:00,10:58:00,22,0,64,http://www.ripta.com/64,Weekday
2250,"""BOSTON NECK OPP SNUFF MILL""",41.52242,-71.423628,2351161,10:58:00,10:58:00,23,0,64,http://www.ripta.com/64,Weekday
2320,"""BOSTON NECK OPP 1865 BOSTON NECK""",41.524558,-71.423991,2351161,10:58:00,10:58:00,24,0,64,http://www.ripta.com/64,Weekday
70600,"""RT 1A & RT 138 PARK&RIDE""",41.526983,-71.425462,2351161,10:59:00,10:59:00,25,0,64,http://www.ripta.com/64,Weekday
2361,"""TASHTASSUCK FS HELM""",41.525592,-71.385276,2351161,11:03:00,11:03:00,26,0,64,http://www.ripta.com/64,Weekday
72180,"""NORTH NS WATSON""",41.498149,-71.374706,2351161,11:08:00,11:08:00,27,0,64,http://www.ripta.com/64,Weekday
57405,"""NORTH AT 83 NORTH RD""",41.50085,-71.374766,2351161,11:09:00,11:09:00,28,0,64,http://www.ripta.com/64,Weekday
1505,"""NORTH NS AT 1 NORTH RD""",41.496551,-71.374702,2351161,11:09:00,11:09:00,29,0,64,http://www.ripta.com/64,Weekday
1495,"""NARRAGANSETT FS HOWLAND""",41.496192,-71.371722,2351161,11:10:00,11:10:00,30,0,64,http://www.ripta.com/64,Weekday
57510,"""NARRAGANSETT NS GREEN""",41.496246,-71.36939,2351161,11:10:00,11:10:00,31,0,64,http://www.ripta.com/64,Weekday
1526,"""CONANICUS FS NARRAGANSETT""",41.496595,-71.367009,2351161,11:10:00,11:10:00,32,0,64,http://www.ripta.com/64,Weekday
1745,"""CONANICUS NS MT HOPE""",41.504757,-71.364472,2351161,11:11:00,11:11:00,33,0,64,http://www.ripta.com/64,Weekday
59270,"""ADM KALBFUS OPP HALSEY (WASTE MANAGEMENT)""",41.507589,-71.314548,2351161,11:21:00,11:21:00,34,0,64,http://www.ripta.com/64,Weekday
1835,"""CONNELL HWAY OPP NISSAN VOLVO""",41.508102,-71.317583,2351161,11:21:00,11:21:00,35,0,64,http://www.ripta.com/64,Weekday
1895,"""NEWPORT TOWNE CENTER (STOP&SHOP)""",41.508474,-71.31643,2351161,11:21:00,11:21:00,36,0,64,http://www.ripta.com/64,Weekday
1890,"""NEWPORT TOWNE CENTER (WALMART)""",41.510625,-71.316887,2351161,11:22:00,11:22:00,37,0,64,http://www.ripta.com/64,Weekday
1870,"""NEWPORT TOWNE CENTER (LAUNDROMAT)""",41.511926,-71.317415,2351161,11:22:00,11:22:00,38,0,64,http://www.ripta.com/64,Weekday
2020,"""CONNELL HWAY NS MAPLE""",41.515053,-71.316041,2351161,11:22:00,11:22:00,39,0,64,http://www.ripta.com/64,Weekday
2090,"""CODDINGTON NS JOHN CHAFEE BLVD""",41.518131,-71.313698,2351161,11:23:00,11:23:00,40,0,64,http://www.ripta.com/64,Weekday
58145,"""CCRI (NEWPORT CAMPUS)""",41.51735,-71.31302,2351161,11:23:00,11:23:00,41,0,64,http://www.ripta.com/64,Weekday
2025,"""CONNELL OPP HILLMART""",41.515038,-71.316217,2351161,11:24:00,11:24:00,42,0,64,http://www.ripta.com/64,Weekday
1865,"""CONNELL  HWAY AT NEWPORT ADULTS VIDEO""",41.511545,-71.318059,2351161,11:25:00,11:25:00,43,0,64,http://www.ripta.com/64,Weekday
1775,"""CONNELL HWAY AT NEWPORT TIRE""",41.507682,-71.317696,2351161,11:26:00,11:26:00,44,0,64,http://www.ripta.com/64,Weekday
57760,"""ADM KALBFUS AT ROLLING GREEN APTS""",41.506826,-71.319378,2351161,11:27:00,11:27:00,45,0,64,http://www.ripta.com/64,Weekday
1695,"""THIRD OPP DYERS GATE""",41.503582,-71.320243,2351161,11:28:00,11:28:00,46,0,64,http://www.ripta.com/64,Weekday
1650,"""THIRD OPP BAYSIDE VILLAGE""",41.501766,-71.320017,2351161,11:28:00,11:28:00,47,0,64,http://www.ripta.com/64,Weekday
1600,"""THIRD FS CYPRESS""",41.499988,-71.319747,2351161,11:29:00,11:29:00,48,0,64,http://www.ripta.com/64,Weekday
56705,"""SECOND OPP 103 SECOND""",41.498628,-71.320415,2351161,11:29:00,11:29:00,49,0,64,http://www.ripta.com/64,Weekday
56710,"""SECOND NS PINE""",41.496743,-71.320205,2351161,11:30:00,11:30:00,50,0,64,http://www.ripta.com/64,Weekday
56720,"""SECOND NS POPLAR""",41.493479,-71.319751,2351161,11:31:00,11:31:00,51,0,64,http://www.ripta.com/64,Weekday
56725,"""SECOND NS MARSH""",41.491483,-71.31948,2351161,11:31:00,11:31:00,52,0,64,http://www.ripta.com/64,Weekday
1383,"""GATEWAY CENTER AT 64 BUS BERTH""",41.491485,-71.317772,2351161,11:32:00,11:32:00,53,0,64,http://www.ripta.com/64,Weekday
1230,"""KINGSTON RAILROAD STATION""",41.484102,-71.560243,2351162,07:20:00,07:20:00,1,0,64,http://www.ripta.com/64,Weekday
50675,"""KINGSTOWN FS WATSON""",41.483611,-71.555325,2351162,07:21:00,07:21:00,2,0,64,http://www.ripta.com/64,Weekday
50680,"""KINGSTOWN NS TLC COFFEE ROASTERS""",41.483126,-71.552351,2351162,07:21:00,07:21:00,3,0,64,http://www.ripta.com/64,Weekday
50685,"""KINGSTOWN OPP W INDEPENDENCE WAY""",41.482704,-71.540456,2351162,07:23:00,07:23:00,4,0,64,http://www.ripta.com/64,Weekday
50690,"""KINGSTOWN OPP RYAN CENTER""",41.482359,-71.538198,2351162,07:24:00,07:24:00,5,0,64,http://www.ripta.com/64,Weekday
1140,"""LOWER COLLEGE NS BAYBERRY""",41.482182,-71.529691,2351162,07:25:00,07:25:00,6,0,64,http://www.ripta.com/64,Weekday
1225,"""URI STUDENT UNION""",41.484315,-71.529311,2351162,07:26:00,07:26:00,7,0,64,http://www.ripta.com/64,Weekday
1185,"""UPPER COLLEGE FS CAMPUS""",41.482725,-71.525816,2351162,07:26:00,07:26:00,8,0,64,http://www.ripta.com/64,Weekday
1120,"""UPPER COLLEGE NS RT 138""",41.48119,-71.525551,2351162,07:27:00,07:27:00,9,0,64,http://www.ripta.com/64,Weekday
1125,"""KINGSTOWN AT GRAD VILLAGE APTS""",41.482005,-71.535882,2351162,07:29:00,07:29:00,10,0,64,http://www.ripta.com/64,Weekday
57530,"""RT 138 NS RT 1""",41.494629,-71.456956,2351162,07:35:00,07:35:00,11,0,64,http://www.ripta.com/64,Weekday
57535,"""BRIDGETOWN FS RT 1""",41.494559,-71.456021,2351162,07:35:00,07:35:00,12,0,64,http://www.ripta.com/64,Weekday
57540,"""BRIDGETOWN FS RIVERSIDE""",41.48869,-71.44662,2351162,07:37:00,07:37:00,13,0,64,http://www.ripta.com/64,Weekday
58845,"""PIER RD FS SOUTH FERRY""",41.49198,-71.424045,2351162,07:40:00,07:40:00,14,0,64,http://www.ripta.com/64,Weekday
1395,"""BOSTON NECK FS S FERRY""",41.492364,-71.437984,2351162,07:43:00,07:43:00,15,0,64,http://www.ripta.com/64,Weekday
1455,"""BOSTON NECK OPP EDGEWATER""",41.494793,-71.437764,2351162,07:43:00,07:43:00,16,0,64,http://www.ripta.com/64,Weekday
1535,"""BOSTON NECK FS BANFIELD""",41.497986,-71.4363,2351162,07:44:00,07:44:00,17,0,64,http://www.ripta.com/64,Weekday
1610,"""BOSTON NECK OPP RIVERDELL""",41.500947,-71.433596,2351162,07:44:00,07:44:00,18,0,64,http://www.ripta.com/64,Weekday
1725,"""BOSTON NECK FS MINER""",41.504953,-71.428414,2351162,07:45:00,07:45:00,19,0,64,http://www.ripta.com/64,Weekday
1875,"""BOSTON NECK NS FERRY""",41.507607,-71.42496,2351162,07:46:00,07:46:00,20,0,64,http://www.ripta.com/64,Weekday
2070,"""BOSTON NECK FS CHARLOTTE""",41.516702,-71.42324,2351162,07:47:00,07:47:00,21,0,64,http://www.ripta.com/64,Weekday
58605,"""BOSTON NECK NS HIGHLAND""",41.52004,-71.423987,2351162,07:48:00,07:48:00,22,0,64,http://www.ripta.com/64,Weekday
2250,"""BOSTON NECK OPP SNUFF MILL""",41.52242,-71.423628,2351162,07:48:00,07:48:00,23,0,64,http://www.ripta.com/64,Weekday
2320,"""BOSTON NECK OPP 1865 BOSTON NECK""",41.524558,-71.423991,2351162,07:48:00,07:48:00,24,0,64,http://www.ripta.com/64,Weekday
70600,"""RT 1A & RT 138 PARK&RIDE""",41.526983,-71.425462,2351162,07:49:00,07:49:00,25,0,64,http://www.ripta.com/64,Weekday
2361,"""TASHTASSUCK FS HELM""",41.525592,-71.385276,2351162,07:53:00,07:53:00,26,0,64,http://www.ripta.com/64,Weekday
72180,"""NORTH NS WATSON""",41.498149,-71.374706,2351162,07:58:00,07:58:00,27,0,64,http://www.ripta.com/64,Weekday
57405,"""NORTH AT 83 NORTH RD""",41.50085,-71.374766,2351162,07:59:00,07:59:00,28,0,64,http://www.ripta.com/64,Weekday
1505,"""NORTH NS AT 1 NORTH RD""",41.496551,-71.374702,2351162,07:59:00,07:59:00,29,0,64,http://www.ripta.com/64,Weekday
1495,"""NARRAGANSETT FS HOWLAND""",41.496192,-71.371722,2351162,08:00:00,08:00:00,30,0,64,http://www.ripta.com/64,Weekday
57510,"""NARRAGANSETT NS GREEN""",41.496246,-71.36939,2351162,08:00:00,08:00:00,31,0,64,http://www.ripta.com/64,Weekday
1526,"""CONANICUS FS NARRAGANSETT""",41.496595,-71.367009,2351162,08:00:00,08:00:00,32,0,64,http://www.ripta.com/64,Weekday
1745,"""CONANICUS NS MT HOPE""",41.504757,-71.364472,2351162,08:01:00,08:01:00,33,0,64,http://www.ripta.com/64,Weekday
59270,"""ADM KALBFUS OPP HALSEY (WASTE MANAGEMENT)""",41.507589,-71.314548,2351162,08:11:00,08:11:00,34,0,64,http://www.ripta.com/64,Weekday
1835,"""CONNELL HWAY OPP NISSAN VOLVO""",41.508102,-71.317583,2351162,08:11:00,08:11:00,35,0,64,http://www.ripta.com/64,Weekday
1895,"""NEWPORT TOWNE CENTER (STOP&SHOP)""",41.508474,-71.31643,2351162,08:11:00,08:11:00,36,0,64,http://www.ripta.com/64,Weekday
1890,"""NEWPORT TOWNE CENTER (WALMART)""",41.510625,-71.316887,2351162,08:12:00,08:12:00,37,0,64,http://www.ripta.com/64,Weekday
1870,"""NEWPORT TOWNE CENTER (LAUNDROMAT)""",41.511926,-71.317415,2351162,08:12:00,08:12:00,38,0,64,http://www.ripta.com/64,Weekday
2020,"""CONNELL HWAY NS MAPLE""",41.515053,-71.316041,2351162,08:12:00,08:12:00,39,0,64,http://www.ripta.com/64,Weekday
2090,"""CODDINGTON NS JOHN CHAFEE BLVD""",41.518131,-71.313698,2351162,08:13:00,08:13:00,40,0,64,http://www.ripta.com/64,Weekday
58145,"""CCRI (NEWPORT CAMPUS)""",41.51735,-71.31302,2351162,08:13:00,08:13:00,41,0,64,http://www.ripta.com/64,Weekday
2175,"""CODDINGTON AT RIPTA GARAGE""",41.519275,-71.309746,2351162,08:15:00,08:15:00,42,0,64,http://www.ripta.com/64,Weekday
2155,"""CODDINGTON NS SHERMAN""",41.518855,-71.306072,2351162,08:16:00,08:16:00,43,0,64,http://www.ripta.com/64,Weekday
57840,"""CODDINGTON OPP LANDINGS""",41.518513,-71.30297,2351162,08:16:00,08:16:00,44,0,64,http://www.ripta.com/64,Weekday
2105,"""CODDINGTON NS W MAIN""",41.518233,-71.300648,2351162,08:16:00,08:16:00,45,0,64,http://www.ripta.com/64,Weekday
2195,"""W MAIN NS MAPLEWOOD""",41.519281,-71.299718,2351162,08:17:00,08:17:00,46,0,64,http://www.ripta.com/64,Weekday
2235,"""W MAIN NS OAKWOOD""",41.521651,-71.298915,2351162,08:17:00,08:17:00,47,0,64,http://www.ripta.com/64,Weekday
2300,"""W MAIN NS VALLEY""",41.523402,-71.298232,2351162,08:18:00,08:18:00,48,0,64,http://www.ripta.com/64,Weekday
2315,"""W MAIN FS WOOLSEY""",41.524878,-71.29768,2351162,08:18:00,08:18:00,49,0,64,http://www.ripta.com/64,Weekday
2365,"""W MAIN AT ALL SAINTS ACADEMY""",41.527304,-71.296415,2351162,08:19:00,08:19:00,50,0,64,http://www.ripta.com/64,Weekday
2380,"""NUWC GATE 17""",41.529203,-71.307644,2351162,08:21:00,08:21:00,51,0,64,http://www.ripta.com/64,Weekday
2335,"""W MAIN NS CHASES""",41.525923,-71.297526,2351162,08:23:00,08:23:00,52,0,64,http://www.ripta.com/64,Weekday
2310,"""W MAIN OPP VALLEY""",41.52402,-71.298223,2351162,08:24:00,08:24:00,53,0,64,http://www.ripta.com/64,Weekday
2295,"""W MAIN AT MIDDLETOWN PUBLIC LIBRARY""",41.521907,-71.299019,2351162,08:24:00,08:24:00,54,0,64,http://www.ripta.com/64,Weekday
56775,"""W MAIN OPP MAPLEWOOD""",41.51945,-71.299852,2351162,08:25:00,08:25:00,55,0,64,http://www.ripta.com/64,Weekday
57865,"""CODDINGTON NS THE LANDINGS""",41.518492,-71.30153,2351162,08:25:00,08:25:00,56,0,64,http://www.ripta.com/64,Weekday
2145,"""CODDINGTON NS NIAGRA""",41.518598,-71.30307,2351162,08:25:00,08:25:00,57,0,64,http://www.ripta.com/64,Weekday
2150,"""CODDINGTON NS JONES""",41.518765,-71.304618,2351162,08:26:00,08:26:00,58,0,64,http://www.ripta.com/64,Weekday
2170,"""CODDINGTON OPP SHERMAN""",41.519007,-71.305795,2351162,08:26:00,08:26:00,59,0,64,http://www.ripta.com/64,Weekday
2180,"""CODDINGTON OPP BAYVIEW TRAILER PARK""",41.519162,-71.307064,2351162,08:26:00,08:26:00,60,0,64,http://www.ripta.com/64,Weekday
2200,"""CODDINGTON OPP RIPTA GARAGE""",41.519474,-71.309638,2351162,08:26:00,08:26:00,61,0,64,http://www.ripta.com/64,Weekday
2140,"""CODDINGTON OPP HARBOR BASE INN""",41.519375,-71.311716,2351162,08:27:00,08:27:00,62,0,64,http://www.ripta.com/64,Weekday
57870,"""CODDINGTON OPP CCRI ENTRANCE""",41.51835,-71.313613,2351162,08:27:00,08:27:00,63,0,64,http://www.ripta.com/64,Weekday
2025,"""CONNELL OPP HILLMART""",41.515038,-71.316217,2351162,08:28:00,08:28:00,64,0,64,http://www.ripta.com/64,Weekday
1865,"""CONNELL  HWAY AT NEWPORT ADULTS VIDEO""",41.511545,-71.318059,2351162,08:28:00,08:28:00,65,0,64,http://www.ripta.com/64,Weekday
1775,"""CONNELL HWAY AT NEWPORT TIRE""",41.507682,-71.317696,2351162,08:29:00,08:29:00,66,0,64,http://www.ripta.com/64,Weekday
57760,"""ADM KALBFUS AT ROLLING GREEN APTS""",41.506826,-71.319378,2351162,08:29:00,08:29:00,67,0,64,http://www.ripta.com/64,Weekday
1695,"""THIRD OPP DYERS GATE""",41.503582,-71.320243,2351162,08:30:00,08:30:00,68,0,64,http://www.ripta.com/64,Weekday
1650,"""THIRD OPP BAYSIDE VILLAGE""",41.501766,-71.320017,2351162,08:31:00,08:31:00,69,0,64,http://www.ripta.com/64,Weekday
1600,"""THIRD FS CYPRESS""",41.499988,-71.319747,2351162,08:31:00,08:31:00,70,0,64,http://www.ripta.com/64,Weekday
56705,"""SECOND OPP 103 SECOND""",41.498628,-71.320415,2351162,08:31:00,08:31:00,71,0,64,http://www.ripta.com/64,Weekday
56710,"""SECOND NS PINE""",41.496743,-71.320205,2351162,08:32:00,08:32:00,72,0,64,http://www.ripta.com/64,Weekday
56720,"""SECOND NS POPLAR""",41.493479,-71.319751,2351162,08:32:00,08:32:00,73,0,64,http://www.ripta.com/64,Weekday
56725,"""SECOND NS MARSH""",41.491483,-71.31948,2351162,08:33:00,08:33:00,74,0,64,http://www.ripta.com/64,Weekday
1383,"""GATEWAY CENTER AT 64 BUS BERTH""",41.491485,-71.317772,2351162,08:33:00,08:33:00,75,0,64,http://www.ripta.com/64,Weekday
1230,"""KINGSTON RAILROAD STATION""",41.484102,-71.560243,2351163,09:15:00,09:15:00,1,0,64,http://www.ripta.com/64,Weekday
50675,"""KINGSTOWN FS WATSON""",41.483611,-71.555325,2351163,09:16:00,09:16:00,2,0,64,http://www.ripta.com/64,Weekday
50680,"""KINGSTOWN NS TLC COFFEE ROASTERS""",41.483126,-71.552351,2351163,09:16:00,09:16:00,3,0,64,http://www.ripta.com/64,Weekday
50685,"""KINGSTOWN OPP W INDEPENDENCE WAY""",41.482704,-71.540456,2351163,09:18:00,09:18:00,4,0,64,http://www.ripta.com/64,Weekday
50690,"""KINGSTOWN OPP RYAN CENTER""",41.482359,-71.538198,2351163,09:19:00,09:19:00,5,0,64,http://www.ripta.com/64,Weekday
1140,"""LOWER COLLEGE NS BAYBERRY""",41.482182,-71.529691,2351163,09:20:00,09:20:00,6,0,64,http://www.ripta.com/64,Weekday
1225,"""URI STUDENT UNION""",41.484315,-71.529311,2351163,09:21:00,09:21:00,7,0,64,http://www.ripta.com/64,Weekday
1185,"""UPPER COLLEGE FS CAMPUS""",41.482725,-71.525816,2351163,09:21:00,09:21:00,8,0,64,http://www.ripta.com/64,Weekday
1120,"""UPPER COLLEGE NS RT 138""",41.48119,-71.525551,2351163,09:22:00,09:22:00,9,0,64,http://www.ripta.com/64,Weekday
1125,"""KINGSTOWN AT GRAD VILLAGE APTS""",41.482005,-71.535882,2351163,09:24:00,09:24:00,10,0,64,http://www.ripta.com/64,Weekday
57530,"""RT 138 NS RT 1""",41.494629,-71.456956,2351163,09:30:00,09:30:00,11,0,64,http://www.ripta.com/64,Weekday
57535,"""BRIDGETOWN FS RT 1""",41.494559,-71.456021,2351163,09:30:00,09:30:00,12,0,64,http://www.ripta.com/64,Weekday
57540,"""BRIDGETOWN FS RIVERSIDE""",41.48869,-71.44662,2351163,09:32:00,09:32:00,13,0,64,http://www.ripta.com/64,Weekday
58845,"""PIER RD FS SOUTH FERRY""",41.49198,-71.424045,2351163,09:35:00,09:35:00,14,0,64,http://www.ripta.com/64,Weekday
1395,"""BOSTON NECK FS S FERRY""",41.492364,-71.437984,2351163,09:38:00,09:38:00,15,0,64,http://www.ripta.com/64,Weekday
1455,"""BOSTON NECK OPP EDGEWATER""",41.494793,-71.437764,2351163,09:38:00,09:38:00,16,0,64,http://www.ripta.com/64,Weekday
1535,"""BOSTON NECK FS BANFIELD""",41.497986,-71.4363,2351163,09:39:00,09:39:00,17,0,64,http://www.ripta.com/64,Weekday
1610,"""BOSTON NECK OPP RIVERDELL""",41.500947,-71.433596,2351163,09:39:00,09:39:00,18,0,64,http://www.ripta.com/64,Weekday
1725,"""BOSTON NECK FS MINER""",41.504953,-71.428414,2351163,09:40:00,09:40:00,19,0,64,http://www.ripta.com/64,Weekday
1875,"""BOSTON NECK NS FERRY""",41.507607,-71.42496,2351163,09:41:00,09:41:00,20,0,64,http://www.ripta.com/64,Weekday
2070,"""BOSTON NECK FS CHARLOTTE""",41.516702,-71.42324,2351163,09:42:00,09:42:00,21,0,64,http://www.ripta.com/64,Weekday
58605,"""BOSTON NECK NS HIGHLAND""",41.52004,-71.423987,2351163,09:43:00,09:43:00,22,0,64,http://www.ripta.com/64,Weekday
2250,"""BOSTON NECK OPP SNUFF MILL""",41.52242,-71.423628,2351163,09:43:00,09:43:00,23,0,64,http://www.ripta.com/64,Weekday
2320,"""BOSTON NECK OPP 1865 BOSTON NECK""",41.524558,-71.423991,2351163,09:43:00,09:43:00,24,0,64,http://www.ripta.com/64,Weekday
70600,"""RT 1A & RT 138 PARK&RIDE""",41.526983,-71.425462,2351163,09:44:00,09:44:00,25,0,64,http://www.ripta.com/64,Weekday
2361,"""TASHTASSUCK FS HELM""",41.525592,-71.385276,2351163,09:48:00,09:48:00,26,0,64,http://www.ripta.com/64,Weekday
72180,"""NORTH NS WATSON""",41.498149,-71.374706,2351163,09:53:00,09:53:00,27,0,64,http://www.ripta.com/64,Weekday
57405,"""NORTH AT 83 NORTH RD""",41.50085,-71.374766,2351163,09:54:00,09:54:00,28,0,64,http://www.ripta.com/64,Weekday
1505,"""NORTH NS AT 1 NORTH RD""",41.496551,-71.374702,2351163,09:54:00,09:54:00,29,0,64,http://www.ripta.com/64,Weekday
1495,"""NARRAGANSETT FS HOWLAND""",41.496192,-71.371722,2351163,09:55:00,09:55:00,30,0,64,http://www.ripta.com/64,Weekday
57510,"""NARRAGANSETT NS GREEN""",41.496246,-71.36939,2351163,09:55:00,09:55:00,31,0,64,http://www.ripta.com/64,Weekday
1526,"""CONANICUS FS NARRAGANSETT""",41.496595,-71.367009,2351163,09:55:00,09:55:00,32,0,64,http://www.ripta.com/64,Weekday
1745,"""CONANICUS NS MT HOPE""",41.504757,-71.364472,2351163,09:56:00,09:56:00,33,0,64,http://www.ripta.com/64,Weekday
59270,"""ADM KALBFUS OPP HALSEY (WASTE MANAGEMENT)""",41.507589,-71.314548,2351163,10:06:00,10:06:00,34,0,64,http://www.ripta.com/64,Weekday
1835,"""CONNELL HWAY OPP NISSAN VOLVO""",41.508102,-71.317583,2351163,10:06:00,10:06:00,35,0,64,http://www.ripta.com/64,Weekday
1895,"""NEWPORT TOWNE CENTER (STOP&SHOP)""",41.508474,-71.31643,2351163,10:06:00,10:06:00,36,0,64,http://www.ripta.com/64,Weekday
1890,"""NEWPORT TOWNE CENTER (WALMART)""",41.510625,-71.316887,2351163,10:07:00,10:07:00,37,0,64,http://www.ripta.com/64,Weekday
1870,"""NEWPORT TOWNE CENTER (LAUNDROMAT)""",41.511926,-71.317415,2351163,10:07:00,10:07:00,38,0,64,http://www.ripta.com/64,Weekday
2020,"""CONNELL HWAY NS MAPLE""",41.515053,-71.316041,2351163,10:07:00,10:07:00,39,0,64,http://www.ripta.com/64,Weekday
2090,"""CODDINGTON NS JOHN CHAFEE BLVD""",41.518131,-71.313698,2351163,10:08:00,10:08:00,40,0,64,http://www.ripta.com/64,Weekday
58145,"""CCRI (NEWPORT CAMPUS)""",41.51735,-71.31302,2351163,10:08:00,10:08:00,41,0,64,http://www.ripta.com/64,Weekday
2025,"""CONNELL OPP HILLMART""",41.515038,-71.316217,2351163,10:09:00,10:09:00,42,0,64,http://www.ripta.com/64,Weekday
1865,"""CONNELL  HWAY AT NEWPORT ADULTS VIDEO""",41.511545,-71.318059,2351163,10:10:00,10:10:00,43,0,64,http://www.ripta.com/64,Weekday
1775,"""CONNELL HWAY AT NEWPORT TIRE""",41.507682,-71.317696,2351163,10:11:00,10:11:00,44,0,64,http://www.ripta.com/64,Weekday
57760,"""ADM KALBFUS AT ROLLING GREEN APTS""",41.506826,-71.319378,2351163,10:12:00,10:12:00,45,0,64,http://www.ripta.com/64,Weekday
1695,"""THIRD OPP DYERS GATE""",41.503582,-71.320243,2351163,10:13:00,10:13:00,46,0,64,http://www.ripta.com/64,Weekday
1650,"""THIRD OPP BAYSIDE VILLAGE""",41.501766,-71.320017,2351163,10:13:00,10:13:00,47,0,64,http://www.ripta.com/64,Weekday
1600,"""THIRD FS CYPRESS""",41.499988,-71.319747,2351163,10:14:00,10:14:00,48,0,64,http://www.ripta.com/64,Weekday
56705,"""SECOND OPP 103 SECOND""",41.498628,-71.320415,2351163,10:14:00,10:14:00,49,0,64,http://www.ripta.com/64,Weekday
56710,"""SECOND NS PINE""",41.496743,-71.320205,2351163,10:15:00,10:15:00,50,0,64,http://www.ripta.com/64,Weekday
56720,"""SECOND NS POPLAR""",41.493479,-71.319751,2351163,10:16:00,10:16:00,51,0,64,http://www.ripta.com/64,Weekday
56725,"""SECOND NS MARSH""",41.491483,-71.31948,2351163,10:16:00,10:16:00,52,0,64,http://www.ripta.com/64,Weekday
1383,"""GATEWAY CENTER AT 64 BUS BERTH""",41.491485,-71.317772,2351163,10:17:00,10:17:00,53,0,64,http://www.ripta.com/64,Weekday
1383,"""GATEWAY CENTER AT 64 BUS BERTH""",41.491485,-71.317772,2351164,09:10:00,09:10:00,1,1,64,http://www.ripta.com/64,Weekday
1420,"""THIRD FS BRIDGE""",41.492298,-71.318642,2351164,09:11:00,09:11:00,2,1,64,http://www.ripta.com/64,Weekday
1465,"""THIRD AT WALNUT""",41.49467,-71.318955,2351164,09:11:00,09:11:00,3,1,64,http://www.ripta.com/64,Weekday
1530,"""THIRD NS LASALLE""",41.497507,-71.319305,2351164,09:12:00,09:12:00,4,1,64,http://www.ripta.com/64,Weekday
1605,"""THIRD OPP CYPRESS""",41.500429,-71.319726,2351164,09:13:00,09:13:00,5,1,64,http://www.ripta.com/64,Weekday
1645,"""THIRD AT BAYSIDE VILLAGE""",41.501716,-71.319844,2351164,09:14:00,09:14:00,6,1,64,http://www.ripta.com/64,Weekday
1715,"""THIRD OPP NAVAL HEALTH CLINIC""",41.504382,-71.320194,2351164,09:15:00,09:15:00,7,1,64,http://www.ripta.com/64,Weekday
1755,"""ADM KALBFUS AT AT ADMIRAL'S GATE""",41.506695,-71.319325,2351164,09:16:00,09:16:00,8,1,64,http://www.ripta.com/64,Weekday
1835,"""CONNELL HWAY OPP NISSAN VOLVO""",41.508102,-71.317583,2351164,09:17:00,09:17:00,9,1,64,http://www.ripta.com/64,Weekday
1895,"""NEWPORT TOWNE CENTER (STOP&SHOP)""",41.508474,-71.31643,2351164,09:17:00,09:17:00,10,1,64,http://www.ripta.com/64,Weekday
1890,"""NEWPORT TOWNE CENTER (WALMART)""",41.510625,-71.316887,2351164,09:18:00,09:18:00,11,1,64,http://www.ripta.com/64,Weekday
1870,"""NEWPORT TOWNE CENTER (LAUNDROMAT)""",41.511926,-71.317415,2351164,09:18:00,09:18:00,12,1,64,http://www.ripta.com/64,Weekday
2020,"""CONNELL HWAY NS MAPLE""",41.515053,-71.316041,2351164,09:18:00,09:18:00,13,1,64,http://www.ripta.com/64,Weekday
2090,"""CODDINGTON NS JOHN CHAFEE BLVD""",41.518131,-71.313698,2351164,09:19:00,09:19:00,14,1,64,http://www.ripta.com/64,Weekday
58145,"""CCRI (NEWPORT CAMPUS)""",41.51735,-71.31302,2351164,09:19:00,09:19:00,15,1,64,http://www.ripta.com/64,Weekday
2025,"""CONNELL OPP HILLMART""",41.515038,-71.316217,2351164,09:20:00,09:20:00,16,1,64,http://www.ripta.com/64,Weekday
1865,"""CONNELL  HWAY AT NEWPORT ADULTS VIDEO""",41.511545,-71.318059,2351164,09:20:00,09:20:00,17,1,64,http://www.ripta.com/64,Weekday
1775,"""CONNELL HWAY AT NEWPORT TIRE""",41.507682,-71.317696,2351164,09:21:00,09:21:00,18,1,64,http://www.ripta.com/64,Weekday
1575,"""CONANICUS FS KNOWLES""",41.496757,-71.367143,2351164,09:30:00,09:30:00,19,1,64,http://www.ripta.com/64,Weekday
1525,"""NARRAGANSETT FS E SHORE RD""",41.496382,-71.367405,2351164,09:30:00,09:30:00,20,1,64,http://www.ripta.com/64,Weekday
1515,"""NARRAGANSETT AT 20 NARRAGANSETT""",41.49637,-71.368745,2351164,09:30:00,09:30:00,21,1,64,http://www.ripta.com/64,Weekday
1520,"""NARRAGANSETT FS GRINNELL""",41.496315,-71.371732,2351164,09:30:00,09:30:00,22,1,64,http://www.ripta.com/64,Weekday
57520,"""NARRAGANSETT AT 92 NARRAGANSETT""",41.496233,-71.374074,2351164,09:31:00,09:31:00,23,1,64,http://www.ripta.com/64,Weekday
1565,"""NORTH NS VALLEY""",41.498233,-71.374589,2351164,09:31:00,09:31:00,24,1,64,http://www.ripta.com/64,Weekday
57525,"""NORTH OPP 79 NORTH""",41.50072,-71.374606,2351164,09:31:00,09:31:00,25,1,64,http://www.ripta.com/64,Weekday
70600,"""RT 1A & RT 138 PARK&RIDE""",41.526983,-71.425462,2351164,09:40:00,09:40:00,26,1,64,http://www.ripta.com/64,Weekday
2325,"""BOSTON NECK NS BARBERS HEIGHTS""",41.524298,-71.424082,2351164,09:40:00,09:40:00,27,1,64,http://www.ripta.com/64,Weekday
60085,"""BOSTON NECK FS SNUFF MILL""",41.522243,-71.42384,2351164,09:41:00,09:41:00,28,1,64,http://www.ripta.com/64,Weekday
2245,"""BOSTON NECK FS HOMESTEAD""",41.521254,-71.424046,2351164,09:41:00,09:41:00,29,1,64,http://www.ripta.com/64,Weekday
60090,"""BOSTON NECK OPP 2080 BOSTON NECK""",41.519246,-71.424093,2351164,09:41:00,09:41:00,30,1,64,http://www.ripta.com/64,Weekday
2065,"""BOSTON NECK OPP CHARLOTTE""",41.516748,-71.423412,2351164,09:42:00,09:42:00,31,1,64,http://www.ripta.com/64,Weekday
1880,"""BOSTON NECK FS FERRY""",41.507661,-71.425119,2351164,09:43:00,09:43:00,32,1,64,http://www.ripta.com/64,Weekday
1730,"""BOSTON NECK NS MINER""",41.505015,-71.42862,2351164,09:43:00,09:43:00,33,1,64,http://www.ripta.com/64,Weekday
1660,"""BOSTON NECK NS INDIAN TRAIL""",41.502256,-71.43213,2351164,09:44:00,09:44:00,34,1,64,http://www.ripta.com/64,Weekday
1615,"""BOSTON NECK NS RIVERDELL""",41.500993,-71.433797,2351164,09:44:00,09:44:00,35,1,64,http://www.ripta.com/64,Weekday
1545,"""BOSTON NECK NS PETTAQUAMSCUTT LAKE""",41.497967,-71.436521,2351164,09:45:00,09:45:00,36,1,64,http://www.ripta.com/64,Weekday
1450,"""BOSTON LAKE NS EDGEWATER RD""",41.494846,-71.437896,2351164,09:45:00,09:45:00,37,1,64,http://www.ripta.com/64,Weekday
1400,"""BOSTON NECK NS BRIDGETOWN""",41.492409,-71.43815,2351164,09:45:00,09:45:00,38,1,64,http://www.ripta.com/64,Weekday
58845,"""PIER RD FS SOUTH FERRY""",41.49198,-71.424045,2351164,09:47:00,09:47:00,39,1,64,http://www.ripta.com/64,Weekday
57555,"""BRIDGETOWN AT 130 BRIDGETOWN""",41.49033,-71.445921,2351164,09:51:00,09:51:00,40,1,64,http://www.ripta.com/64,Weekday
57560,"""BRIDGETOWN NS WALMSLEY""",41.488291,-71.449408,2351164,09:52:00,09:52:00,41,1,64,http://www.ripta.com/64,Weekday
57565,"""RT 138 AT 61 MOORESVILLE RD""",41.494603,-71.458699,2351164,09:54:00,09:54:00,42,1,64,http://www.ripta.com/64,Weekday
1075,"""KINGSTOWN FS NORTH RD""",41.480003,-71.522949,2351164,10:02:00,10:02:00,43,1,64,http://www.ripta.com/64,Weekday
1085,"""KINGSTOWN AT 2579 KINGSTOWN RD""",41.480197,-71.524366,2351164,10:02:00,10:02:00,44,1,64,http://www.ripta.com/64,Weekday
1180,"""UPPER COLLEGE NS CAMPUS""",41.482731,-71.525703,2351164,10:02:00,10:02:00,45,1,64,http://www.ripta.com/64,Weekday
1190,"""CAMPUS AT COLLEGE OF PHARMACY""",41.483487,-71.528164,2351164,10:03:00,10:03:00,46,1,64,http://www.ripta.com/64,Weekday
1225,"""URI STUDENT UNION""",41.484315,-71.529311,2351164,10:03:00,10:03:00,47,1,64,http://www.ripta.com/64,Weekday
1155,"""LOWER COLLEGE OPP ST AUGUSTINES CHURCH""",41.481905,-71.529871,2351164,10:04:00,10:04:00,48,1,64,http://www.ripta.com/64,Weekday
72190,"""KINGSTOWN OPP GRADUATE VILLAGE APTS""",41.482201,-71.535733,2351164,10:05:00,10:05:00,49,1,64,http://www.ripta.com/64,Weekday
1175,"""KINGSTOWN FS W INDEPENDENCE""",41.482871,-71.540778,2351164,10:06:00,10:06:00,50,1,64,http://www.ripta.com/64,Weekday
50720,"""KINGSTOWN NS PLAINS""",41.482103,-71.549827,2351164,10:08:00,10:08:00,51,1,64,http://www.ripta.com/64,Weekday
1205,"""KINGSTOWN NS WAITES CORNER""",41.482979,-71.551555,2351164,10:08:00,10:08:00,52,1,64,http://www.ripta.com/64,Weekday
59750,"""KINGSTOWN AT MOBIL GAS STATION""",41.483402,-71.553139,2351164,10:08:00,10:08:00,53,1,64,http://www.ripta.com/64,Weekday
50725,"""KINGSTOWN OPP WATSON""",41.483848,-71.555632,2351164,10:09:00,10:09:00,54,1,64,http://www.ripta.com/64,Weekday
1230,"""KINGSTON RAILROAD STATION""",41.484102,-71.560243,2351164,10:10:00,10:10:00,55,1,64,http://www.ripta.com/64,Weekday
1383,"""GATEWAY CENTER AT 64 BUS BERTH""",41.491485,-71.317772,2351165,08:00:00,08:00:00,1,1,64,http://www.ripta.com/64,Weekday
1420,"""THIRD FS BRIDGE""",41.492298,-71.318642,2351165,08:01:00,08:01:00,2,1,64,http://www.ripta.com/64,Weekday
1465,"""THIRD AT WALNUT""",41.49467,-71.318955,2351165,08:01:00,08:01:00,3,1,64,http://www.ripta.com/64,Weekday
1530,"""THIRD NS LASALLE""",41.497507,-71.319305,2351165,08:02:00,08:02:00,4,1,64,http://www.ripta.com/64,Weekday
1605,"""THIRD OPP CYPRESS""",41.500429,-71.319726,2351165,08:03:00,08:03:00,5,1,64,http://www.ripta.com/64,Weekday
1645,"""THIRD AT BAYSIDE VILLAGE""",41.501716,-71.319844,2351165,08:04:00,08:04:00,6,1,64,http://www.ripta.com/64,Weekday
1715,"""THIRD OPP NAVAL HEALTH CLINIC""",41.504382,-71.320194,2351165,08:05:00,08:05:00,7,1,64,http://www.ripta.com/64,Weekday
1755,"""ADM KALBFUS AT AT ADMIRAL'S GATE""",41.506695,-71.319325,2351165,08:06:00,08:06:00,8,1,64,http://www.ripta.com/64,Weekday
1835,"""CONNELL HWAY OPP NISSAN VOLVO""",41.508102,-71.317583,2351165,08:07:00,08:07:00,9,1,64,http://www.ripta.com/64,Weekday
1895,"""NEWPORT TOWNE CENTER (STOP&SHOP)""",41.508474,-71.31643,2351165,08:07:00,08:07:00,10,1,64,http://www.ripta.com/64,Weekday
1890,"""NEWPORT TOWNE CENTER (WALMART)""",41.510625,-71.316887,2351165,08:08:00,08:08:00,11,1,64,http://www.ripta.com/64,Weekday
1870,"""NEWPORT TOWNE CENTER (LAUNDROMAT)""",41.511926,-71.317415,2351165,08:08:00,08:08:00,12,1,64,http://www.ripta.com/64,Weekday
2020,"""CONNELL HWAY NS MAPLE""",41.515053,-71.316041,2351165,08:08:00,08:08:00,13,1,64,http://www.ripta.com/64,Weekday
2090,"""CODDINGTON NS JOHN CHAFEE BLVD""",41.518131,-71.313698,2351165,08:09:00,08:09:00,14,1,64,http://www.ripta.com/64,Weekday
58145,"""CCRI (NEWPORT CAMPUS)""",41.51735,-71.31302,2351165,08:09:00,08:09:00,15,1,64,http://www.ripta.com/64,Weekday
2025,"""CONNELL OPP HILLMART""",41.515038,-71.316217,2351165,08:10:00,08:10:00,16,1,64,http://www.ripta.com/64,Weekday
1865,"""CONNELL  HWAY AT NEWPORT ADULTS VIDEO""",41.511545,-71.318059,2351165,08:10:00,08:10:00,17,1,64,http://www.ripta.com/64,Weekday
1775,"""CONNELL HWAY AT NEWPORT TIRE""",41.507682,-71.317696,2351165,08:11:00,08:11:00,18,1,64,http://www.ripta.com/64,Weekday
1575,"""CONANICUS FS KNOWLES""",41.496757,-71.367143,2351165,08:20:00,08:20:00,19,1,64,http://www.ripta.com/64,Weekday
1525,"""NARRAGANSETT FS E SHORE RD""",41.496382,-71.367405,2351165,08:20:00,08:20:00,20,1,64,http://www.ripta.com/64,Weekday
1515,"""NARRAGANSETT AT 20 NARRAGANSETT""",41.49637,-71.368745,2351165,08:20:00,08:20:00,21,1,64,http://www.ripta.com/64,Weekday
1520,"""NARRAGANSETT FS GRINNELL""",41.496315,-71.371732,2351165,08:20:00,08:20:00,22,1,64,http://www.ripta.com/64,Weekday
57520,"""NARRAGANSETT AT 92 NARRAGANSETT""",41.496233,-71.374074,2351165,08:21:00,08:21:00,23,1,64,http://www.ripta.com/64,Weekday
1565,"""NORTH NS VALLEY""",41.498233,-71.374589,2351165,08:21:00,08:21:00,24,1,64,http://www.ripta.com/64,Weekday
57525,"""NORTH OPP 79 NORTH""",41.50072,-71.374606,2351165,08:21:00,08:21:00,25,1,64,http://www.ripta.com/64,Weekday
70600,"""RT 1A & RT 138 PARK&RIDE""",41.526983,-71.425462,2351165,08:30:00,08:30:00,26,1,64,http://www.ripta.com/64,Weekday
2325,"""BOSTON NECK NS BARBERS HEIGHTS""",41.524298,-71.424082,2351165,08:30:00,08:30:00,27,1,64,http://www.ripta.com/64,Weekday
60085,"""BOSTON NECK FS SNUFF MILL""",41.522243,-71.42384,2351165,08:31:00,08:31:00,28,1,64,http://www.ripta.com/64,Weekday
2245,"""BOSTON NECK FS HOMESTEAD""",41.521254,-71.424046,2351165,08:31:00,08:31:00,29,1,64,http://www.ripta.com/64,Weekday
60090,"""BOSTON NECK OPP 2080 BOSTON NECK""",41.519246,-71.424093,2351165,08:31:00,08:31:00,30,1,64,http://www.ripta.com/64,Weekday
2065,"""BOSTON NECK OPP CHARLOTTE""",41.516748,-71.423412,2351165,08:32:00,08:32:00,31,1,64,http://www.ripta.com/64,Weekday
1880,"""BOSTON NECK FS FERRY""",41.507661,-71.425119,2351165,08:33:00,08:33:00,32,1,64,http://www.ripta.com/64,Weekday
1730,"""BOSTON NECK NS MINER""",41.505015,-71.42862,2351165,08:33:00,08:33:00,33,1,64,http://www.ripta.com/64,Weekday
1660,"""BOSTON NECK NS INDIAN TRAIL""",41.502256,-71.43213,2351165,08:34:00,08:34:00,34,1,64,http://www.ripta.com/64,Weekday
1615,"""BOSTON NECK NS RIVERDELL""",41.500993,-71.433797,2351165,08:34:00,08:34:00,35,1,64,http://www.ripta.com/64,Weekday
1545,"""BOSTON NECK NS PETTAQUAMSCUTT LAKE""",41.497967,-71.436521,2351165,08:35:00,08:35:00,36,1,64,http://www.ripta.com/64,Weekday
1450,"""BOSTON LAKE NS EDGEWATER RD""",41.494846,-71.437896,2351165,08:35:00,08:35:00,37,1,64,http://www.ripta.com/64,Weekday
1400,"""BOSTON NECK NS BRIDGETOWN""",41.492409,-71.43815,2351165,08:35:00,08:35:00,38,1,64,http://www.ripta.com/64,Weekday
58845,"""PIER RD FS SOUTH FERRY""",41.49198,-71.424045,2351165,08:37:00,08:37:00,39,1,64,http://www.ripta.com/64,Weekday
57555,"""BRIDGETOWN AT 130 BRIDGETOWN""",41.49033,-71.445921,2351165,08:41:00,08:41:00,40,1,64,http://www.ripta.com/64,Weekday
57560,"""BRIDGETOWN NS WALMSLEY""",41.488291,-71.449408,2351165,08:42:00,08:42:00,41,1,64,http://www.ripta.com/64,Weekday
57565,"""RT 138 AT 61 MOORESVILLE RD""",41.494603,-71.458699,2351165,08:44:00,08:44:00,42,1,64,http://www.ripta.com/64,Weekday
1075,"""KINGSTOWN FS NORTH RD""",41.480003,-71.522949,2351165,08:52:00,08:52:00,43,1,64,http://www.ripta.com/64,Weekday
1085,"""KINGSTOWN AT 2579 KINGSTOWN RD""",41.480197,-71.524366,2351165,08:52:00,08:52:00,44,1,64,http://www.ripta.com/64,Weekday
1180,"""UPPER COLLEGE NS CAMPUS""",41.482731,-71.525703,2351165,08:52:00,08:52:00,45,1,64,http://www.ripta.com/64,Weekday
1190,"""CAMPUS AT COLLEGE OF PHARMACY""",41.483487,-71.528164,2351165,08:53:00,08:53:00,46,1,64,http://www.ripta.com/64,Weekday
1225,"""URI STUDENT UNION""",41.484315,-71.529311,2351165,08:53:00,08:53:00,47,1,64,http://www.ripta.com/64,Weekday
1155,"""LOWER COLLEGE OPP ST AUGUSTINES CHURCH""",41.481905,-71.529871,2351165,08:54:00,08:54:00,48,1,64,http://www.ripta.com/64,Weekday
72190,"""KINGSTOWN OPP GRADUATE VILLAGE APTS""",41.482201,-71.535733,2351165,08:55:00,08:55:00,49,1,64,http://www.ripta.com/64,Weekday
1175,"""KINGSTOWN FS W INDEPENDENCE""",41.482871,-71.540778,2351165,08:56:00,08:56:00,50,1,64,http://www.ripta.com/64,Weekday
50720,"""KINGSTOWN NS PLAINS""",41.482103,-71.549827,2351165,08:58:00,08:58:00,51,1,64,http://www.ripta.com/64,Weekday
1205,"""KINGSTOWN NS WAITES CORNER""",41.482979,-71.551555,2351165,08:58:00,08:58:00,52,1,64,http://www.ripta.com/64,Weekday
59750,"""KINGSTOWN AT MOBIL GAS STATION""",41.483402,-71.553139,2351165,08:58:00,08:58:00,53,1,64,http://www.ripta.com/64,Weekday
50725,"""KINGSTOWN OPP WATSON""",41.483848,-71.555632,2351165,08:59:00,08:59:00,54,1,64,http://www.ripta.com/64,Weekday
1230,"""KINGSTON RAILROAD STATION""",41.484102,-71.560243,2351165,09:00:00,09:00:00,55,1,64,http://www.ripta.com/64,Weekday
1230,"""KINGSTON RAILROAD STATION""",41.484102,-71.560243,2351166,11:55:00,11:55:00,1,0,64,http://www.ripta.com/64,Weekday
50675,"""KINGSTOWN FS WATSON""",41.483611,-71.555325,2351166,11:56:00,11:56:00,2,0,64,http://www.ripta.com/64,Weekday
50680,"""KINGSTOWN NS TLC COFFEE ROASTERS""",41.483126,-71.552351,2351166,11:56:00,11:56:00,3,0,64,http://www.ripta.com/64,Weekday
50685,"""KINGSTOWN OPP W INDEPENDENCE WAY""",41.482704,-71.540456,2351166,11:58:00,11:58:00,4,0,64,http://www.ripta.com/64,Weekday
50690,"""KINGSTOWN OPP RYAN CENTER""",41.482359,-71.538198,2351166,11:59:00,11:59:00,5,0,64,http://www.ripta.com/64,Weekday
1140,"""LOWER COLLEGE NS BAYBERRY""",41.482182,-71.529691,2351166,12:00:00,12:00:00,6,0,64,http://www.ripta.com/64,Weekday
1225,"""URI STUDENT UNION""",41.484315,-71.529311,2351166,12:01:00,12:01:00,7,0,64,http://www.ripta.com/64,Weekday
1185,"""UPPER COLLEGE FS CAMPUS""",41.482725,-71.525816,2351166,12:01:00,12:01:00,8,0,64,http://www.ripta.com/64,Weekday
1120,"""UPPER COLLEGE NS RT 138""",41.48119,-71.525551,2351166,12:02:00,12:02:00,9,0,64,http://www.ripta.com/64,Weekday
1125,"""KINGSTOWN AT GRAD VILLAGE APTS""",41.482005,-71.535882,2351166,12:04:00,12:04:00,10,0,64,http://www.ripta.com/64,Weekday
57530,"""RT 138 NS RT 1""",41.494629,-71.456956,2351166,12:10:00,12:10:00,11,0,64,http://www.ripta.com/64,Weekday
57535,"""BRIDGETOWN FS RT 1""",41.494559,-71.456021,2351166,12:10:00,12:10:00,12,0,64,http://www.ripta.com/64,Weekday
57540,"""BRIDGETOWN FS RIVERSIDE""",41.48869,-71.44662,2351166,12:12:00,12:12:00,13,0,64,http://www.ripta.com/64,Weekday
58845,"""PIER RD FS SOUTH FERRY""",41.49198,-71.424045,2351166,12:15:00,12:15:00,14,0,64,http://www.ripta.com/64,Weekday
1395,"""BOSTON NECK FS S FERRY""",41.492364,-71.437984,2351166,12:18:00,12:18:00,15,0,64,http://www.ripta.com/64,Weekday
1455,"""BOSTON NECK OPP EDGEWATER""",41.494793,-71.437764,2351166,12:18:00,12:18:00,16,0,64,http://www.ripta.com/64,Weekday
1535,"""BOSTON NECK FS BANFIELD""",41.497986,-71.4363,2351166,12:19:00,12:19:00,17,0,64,http://www.ripta.com/64,Weekday
1610,"""BOSTON NECK OPP RIVERDELL""",41.500947,-71.433596,2351166,12:19:00,12:19:00,18,0,64,http://www.ripta.com/64,Weekday
1725,"""BOSTON NECK FS MINER""",41.504953,-71.428414,2351166,12:20:00,12:20:00,19,0,64,http://www.ripta.com/64,Weekday
1875,"""BOSTON NECK NS FERRY""",41.507607,-71.42496,2351166,12:21:00,12:21:00,20,0,64,http://www.ripta.com/64,Weekday
2070,"""BOSTON NECK FS CHARLOTTE""",41.516702,-71.42324,2351166,12:22:00,12:22:00,21,0,64,http://www.ripta.com/64,Weekday
58605,"""BOSTON NECK NS HIGHLAND""",41.52004,-71.423987,2351166,12:23:00,12:23:00,22,0,64,http://www.ripta.com/64,Weekday
2250,"""BOSTON NECK OPP SNUFF MILL""",41.52242,-71.423628,2351166,12:23:00,12:23:00,23,0,64,http://www.ripta.com/64,Weekday
2320,"""BOSTON NECK OPP 1865 BOSTON NECK""",41.524558,-71.423991,2351166,12:23:00,12:23:00,24,0,64,http://www.ripta.com/64,Weekday
70600,"""RT 1A & RT 138 PARK&RIDE""",41.526983,-71.425462,2351166,12:24:00,12:24:00,25,0,64,http://www.ripta.com/64,Weekday
2361,"""TASHTASSUCK FS HELM""",41.525592,-71.385276,2351166,12:28:00,12:28:00,26,0,64,http://www.ripta.com/64,Weekday
72180,"""NORTH NS WATSON""",41.498149,-71.374706,2351166,12:33:00,12:33:00,27,0,64,http://www.ripta.com/64,Weekday
57405,"""NORTH AT 83 NORTH RD""",41.50085,-71.374766,2351166,12:34:00,12:34:00,28,0,64,http://www.ripta.com/64,Weekday
1505,"""NORTH NS AT 1 NORTH RD""",41.496551,-71.374702,2351166,12:34:00,12:34:00,29,0,64,http://www.ripta.com/64,Weekday
1495,"""NARRAGANSETT FS HOWLAND""",41.496192,-71.371722,2351166,12:35:00,12:35:00,30,0,64,http://www.ripta.com/64,Weekday
57510,"""NARRAGANSETT NS GREEN""",41.496246,-71.36939,2351166,12:35:00,12:35:00,31,0,64,http://www.ripta.com/64,Weekday
1526,"""CONANICUS FS NARRAGANSETT""",41.496595,-71.367009,2351166,12:35:00,12:35:00,32,0,64,http://www.ripta.com/64,Weekday
1745,"""CONANICUS NS MT HOPE""",41.504757,-71.364472,2351166,12:36:00,12:36:00,33,0,64,http://www.ripta.com/64,Weekday
59270,"""ADM KALBFUS OPP HALSEY (WASTE MANAGEMENT)""",41.507589,-71.314548,2351166,12:46:00,12:46:00,34,0,64,http://www.ripta.com/64,Weekday
1835,"""CONNELL HWAY OPP NISSAN VOLVO""",41.508102,-71.317583,2351166,12:46:00,12:46:00,35,0,64,http://www.ripta.com/64,Weekday
1895,"""NEWPORT TOWNE CENTER (STOP&SHOP)""",41.508474,-71.31643,2351166,12:46:00,12:46:00,36,0,64,http://www.ripta.com/64,Weekday
1890,"""NEWPORT TOWNE CENTER (WALMART)""",41.510625,-71.316887,2351166,12:47:00,12:47:00,37,0,64,http://www.ripta.com/64,Weekday
1870,"""NEWPORT TOWNE CENTER (LAUNDROMAT)""",41.511926,-71.317415,2351166,12:47:00,12:47:00,38,0,64,http://www.ripta.com/64,Weekday
2020,"""CONNELL HWAY NS MAPLE""",41.515053,-71.316041,2351166,12:47:00,12:47:00,39,0,64,http://www.ripta.com/64,Weekday
2090,"""CODDINGTON NS JOHN CHAFEE BLVD""",41.518131,-71.313698,2351166,12:48:00,12:48:00,40,0,64,http://www.ripta.com/64,Weekday
58145,"""CCRI (NEWPORT CAMPUS)""",41.51735,-71.31302,2351166,12:48:00,12:48:00,41,0,64,http://www.ripta.com/64,Weekday
2025,"""CONNELL OPP HILLMART""",41.515038,-71.316217,2351166,12:49:00,12:49:00,42,0,64,http://www.ripta.com/64,Weekday
1865,"""CONNELL  HWAY AT NEWPORT ADULTS VIDEO""",41.511545,-71.318059,2351166,12:50:00,12:50:00,43,0,64,http://www.ripta.com/64,Weekday
1775,"""CONNELL HWAY AT NEWPORT TIRE""",41.507682,-71.317696,2351166,12:51:00,12:51:00,44,0,64,http://www.ripta.com/64,Weekday
57760,"""ADM KALBFUS AT ROLLING GREEN APTS""",41.506826,-71.319378,2351166,12:52:00,12:52:00,45,0,64,http://www.ripta.com/64,Weekday
1695,"""THIRD OPP DYERS GATE""",41.503582,-71.320243,2351166,12:53:00,12:53:00,46,0,64,http://www.ripta.com/64,Weekday
1650,"""THIRD OPP BAYSIDE VILLAGE""",41.501766,-71.320017,2351166,12:53:00,12:53:00,47,0,64,http://www.ripta.com/64,Weekday
1600,"""THIRD FS CYPRESS""",41.499988,-71.319747,2351166,12:54:00,12:54:00,48,0,64,http://www.ripta.com/64,Weekday
56705,"""SECOND OPP 103 SECOND""",41.498628,-71.320415,2351166,12:54:00,12:54:00,49,0,64,http://www.ripta.com/64,Weekday
56710,"""SECOND NS PINE""",41.496743,-71.320205,2351166,12:55:00,12:55:00,50,0,64,http://www.ripta.com/64,Weekday
56720,"""SECOND NS POPLAR""",41.493479,-71.319751,2351166,12:56:00,12:56:00,51,0,64,http://www.ripta.com/64,Weekday
56725,"""SECOND NS MARSH""",41.491483,-71.31948,2351166,12:56:00,12:56:00,52,0,64,http://www.ripta.com/64,Weekday
1383,"""GATEWAY CENTER AT 64 BUS BERTH""",41.491485,-71.317772,2351166,12:57:00,12:57:00,53,0,64,http://www.ripta.com/64,Weekday
1383,"""GATEWAY CENTER AT 64 BUS BERTH""",41.491485,-71.317772,2351167,10:40:00,10:40:00,1,1,64,http://www.ripta.com/64,Weekday
1420,"""THIRD FS BRIDGE""",41.492298,-71.318642,2351167,10:41:00,10:41:00,2,1,64,http://www.ripta.com/64,Weekday
1465,"""THIRD AT WALNUT""",41.49467,-71.318955,2351167,10:41:00,10:41:00,3,1,64,http://www.ripta.com/64,Weekday
1530,"""THIRD NS LASALLE""",41.497507,-71.319305,2351167,10:42:00,10:42:00,4,1,64,http://www.ripta.com/64,Weekday
1605,"""THIRD OPP CYPRESS""",41.500429,-71.319726,2351167,10:43:00,10:43:00,5,1,64,http://www.ripta.com/64,Weekday
1645,"""THIRD AT BAYSIDE VILLAGE""",41.501716,-71.319844,2351167,10:44:00,10:44:00,6,1,64,http://www.ripta.com/64,Weekday
1715,"""THIRD OPP NAVAL HEALTH CLINIC""",41.504382,-71.320194,2351167,10:45:00,10:45:00,7,1,64,http://www.ripta.com/64,Weekday
1755,"""ADM KALBFUS AT AT ADMIRAL'S GATE""",41.506695,-71.319325,2351167,10:46:00,10:46:00,8,1,64,http://www.ripta.com/64,Weekday
1835,"""CONNELL HWAY OPP NISSAN VOLVO""",41.508102,-71.317583,2351167,10:47:00,10:47:00,9,1,64,http://www.ripta.com/64,Weekday
1895,"""NEWPORT TOWNE CENTER (STOP&SHOP)""",41.508474,-71.31643,2351167,10:47:00,10:47:00,10,1,64,http://www.ripta.com/64,Weekday
1890,"""NEWPORT TOWNE CENTER (WALMART)""",41.510625,-71.316887,2351167,10:48:00,10:48:00,11,1,64,http://www.ripta.com/64,Weekday
1870,"""NEWPORT TOWNE CENTER (LAUNDROMAT)""",41.511926,-71.317415,2351167,10:48:00,10:48:00,12,1,64,http://www.ripta.com/64,Weekday
2020,"""CONNELL HWAY NS MAPLE""",41.515053,-71.316041,2351167,10:48:00,10:48:00,13,1,64,http://www.ripta.com/64,Weekday
2090,"""CODDINGTON NS JOHN CHAFEE BLVD""",41.518131,-71.313698,2351167,10:49:00,10:49:00,14,1,64,http://www.ripta.com/64,Weekday
58145,"""CCRI (NEWPORT CAMPUS)""",41.51735,-71.31302,2351167,10:49:00,10:49:00,15,1,64,http://www.ripta.com/64,Weekday
2025,"""CONNELL OPP HILLMART""",41.515038,-71.316217,2351167,10:50:00,10:50:00,16,1,64,http://www.ripta.com/64,Weekday
1865,"""CONNELL  HWAY AT NEWPORT ADULTS VIDEO""",41.511545,-71.318059,2351167,10:50:00,10:50:00,17,1,64,http://www.ripta.com/64,Weekday
1775,"""CONNELL HWAY AT NEWPORT TIRE""",41.507682,-71.317696,2351167,10:51:00,10:51:00,18,1,64,http://www.ripta.com/64,Weekday
1575,"""CONANICUS FS KNOWLES""",41.496757,-71.367143,2351167,11:00:00,11:00:00,19,1,64,http://www.ripta.com/64,Weekday
1525,"""NARRAGANSETT FS E SHORE RD""",41.496382,-71.367405,2351167,11:00:00,11:00:00,20,1,64,http://www.ripta.com/64,Weekday
1515,"""NARRAGANSETT AT 20 NARRAGANSETT""",41.49637,-71.368745,2351167,11:00:00,11:00:00,21,1,64,http://www.ripta.com/64,Weekday
1520,"""NARRAGANSETT FS GRINNELL""",41.496315,-71.371732,2351167,11:00:00,11:00:00,22,1,64,http://www.ripta.com/64,Weekday
57520,"""NARRAGANSETT AT 92 NARRAGANSETT""",41.496233,-71.374074,2351167,11:01:00,11:01:00,23,1,64,http://www.ripta.com/64,Weekday
1565,"""NORTH NS VALLEY""",41.498233,-71.374589,2351167,11:01:00,11:01:00,24,1,64,http://www.ripta.com/64,Weekday
57525,"""NORTH OPP 79 NORTH""",41.50072,-71.374606,2351167,11:01:00,11:01:00,25,1,64,http://www.ripta.com/64,Weekday
70600,"""RT 1A & RT 138 PARK&RIDE""",41.526983,-71.425462,2351167,11:10:00,11:10:00,26,1,64,http://www.ripta.com/64,Weekday
2325,"""BOSTON NECK NS BARBERS HEIGHTS""",41.524298,-71.424082,2351167,11:10:00,11:10:00,27,1,64,http://www.ripta.com/64,Weekday
60085,"""BOSTON NECK FS SNUFF MILL""",41.522243,-71.42384,2351167,11:11:00,11:11:00,28,1,64,http://www.ripta.com/64,Weekday
2245,"""BOSTON NECK FS HOMESTEAD""",41.521254,-71.424046,2351167,11:11:00,11:11:00,29,1,64,http://www.ripta.com/64,Weekday
60090,"""BOSTON NECK OPP 2080 BOSTON NECK""",41.519246,-71.424093,2351167,11:11:00,11:11:00,30,1,64,http://www.ripta.com/64,Weekday
2065,"""BOSTON NECK OPP CHARLOTTE""",41.516748,-71.423412,2351167,11:12:00,11:12:00,31,1,64,http://www.ripta.com/64,Weekday
1880,"""BOSTON NECK FS FERRY""",41.507661,-71.425119,2351167,11:13:00,11:13:00,32,1,64,http://www.ripta.com/64,Weekday
1730,"""BOSTON NECK NS MINER""",41.505015,-71.42862,2351167,11:13:00,11:13:00,33,1,64,http://www.ripta.com/64,Weekday
1660,"""BOSTON NECK NS INDIAN TRAIL""",41.502256,-71.43213,2351167,11:14:00,11:14:00,34,1,64,http://www.ripta.com/64,Weekday
1615,"""BOSTON NECK NS RIVERDELL""",41.500993,-71.433797,2351167,11:14:00,11:14:00,35,1,64,http://www.ripta.com/64,Weekday
1545,"""BOSTON NECK NS PETTAQUAMSCUTT LAKE""",41.497967,-71.436521,2351167,11:15:00,11:15:00,36,1,64,http://www.ripta.com/64,Weekday
1450,"""BOSTON LAKE NS EDGEWATER RD""",41.494846,-71.437896,2351167,11:15:00,11:15:00,37,1,64,http://www.ripta.com/64,Weekday
1400,"""BOSTON NECK NS BRIDGETOWN""",41.492409,-71.43815,2351167,11:15:00,11:15:00,38,1,64,http://www.ripta.com/64,Weekday
58845,"""PIER RD FS SOUTH FERRY""",41.49198,-71.424045,2351167,11:17:00,11:17:00,39,1,64,http://www.ripta.com/64,Weekday
57555,"""BRIDGETOWN AT 130 BRIDGETOWN""",41.49033,-71.445921,2351167,11:21:00,11:21:00,40,1,64,http://www.ripta.com/64,Weekday
57560,"""BRIDGETOWN NS WALMSLEY""",41.488291,-71.449408,2351167,11:22:00,11:22:00,41,1,64,http://www.ripta.com/64,Weekday
57565,"""RT 138 AT 61 MOORESVILLE RD""",41.494603,-71.458699,2351167,11:24:00,11:24:00,42,1,64,http://www.ripta.com/64,Weekday
1075,"""KINGSTOWN FS NORTH RD""",41.480003,-71.522949,2351167,11:32:00,11:32:00,43,1,64,http://www.ripta.com/64,Weekday
1085,"""KINGSTOWN AT 2579 KINGSTOWN RD""",41.480197,-71.524366,2351167,11:32:00,11:32:00,44,1,64,http://www.ripta.com/64,Weekday
1180,"""UPPER COLLEGE NS CAMPUS""",41.482731,-71.525703,2351167,11:32:00,11:32:00,45,1,64,http://www.ripta.com/64,Weekday
1190,"""CAMPUS AT COLLEGE OF PHARMACY""",41.483487,-71.528164,2351167,11:33:00,11:33:00,46,1,64,http://www.ripta.com/64,Weekday
1225,"""URI STUDENT UNION""",41.484315,-71.529311,2351167,11:33:00,11:33:00,47,1,64,http://www.ripta.com/64,Weekday
1155,"""LOWER COLLEGE OPP ST AUGUSTINES CHURCH""",41.481905,-71.529871,2351167,11:34:00,11:34:00,48,1,64,http://www.ripta.com/64,Weekday
72190,"""KINGSTOWN OPP GRADUATE VILLAGE APTS""",41.482201,-71.535733,2351167,11:35:00,11:35:00,49,1,64,http://www.ripta.com/64,Weekday
1175,"""KINGSTOWN FS W INDEPENDENCE""",41.482871,-71.540778,2351167,11:36:00,11:36:00,50,1,64,http://www.ripta.com/64,Weekday
50720,"""KINGSTOWN NS PLAINS""",41.482103,-71.549827,2351167,11:38:00,11:38:00,51,1,64,http://www.ripta.com/64,Weekday
1205,"""KINGSTOWN NS WAITES CORNER""",41.482979,-71.551555,2351167,11:38:00,11:38:00,52,1,64,http://www.ripta.com/64,Weekday
59750,"""KINGSTOWN AT MOBIL GAS STATION""",41.483402,-71.553139,2351167,11:38:00,11:38:00,53,1,64,http://www.ripta.com/64,Weekday
50725,"""KINGSTOWN OPP WATSON""",41.483848,-71.555632,2351167,11:39:00,11:39:00,54,1,64,http://www.ripta.com/64,Weekday
1230,"""KINGSTON RAILROAD STATION""",41.484102,-71.560243,2351167,11:40:00,11:40:00,55,1,64,http://www.ripta.com/64,Weekday
1383,"""GATEWAY CENTER AT 64 BUS BERTH""",41.491485,-71.317772,2351171,07:00:00,07:00:00,1,1,64,http://www.ripta.com/64,Weekday
1420,"""THIRD FS BRIDGE""",41.492298,-71.318642,2351171,07:01:00,07:01:00,2,1,64,http://www.ripta.com/64,Weekday
1465,"""THIRD AT WALNUT""",41.49467,-71.318955,2351171,07:01:00,07:01:00,3,1,64,http://www.ripta.com/64,Weekday
1530,"""THIRD NS LASALLE""",41.497507,-71.319305,2351171,07:02:00,07:02:00,4,1,64,http://www.ripta.com/64,Weekday
1605,"""THIRD OPP CYPRESS""",41.500429,-71.319726,2351171,07:03:00,07:03:00,5,1,64,http://www.ripta.com/64,Weekday
1645,"""THIRD AT BAYSIDE VILLAGE""",41.501716,-71.319844,2351171,07:04:00,07:04:00,6,1,64,http://www.ripta.com/64,Weekday
1715,"""THIRD OPP NAVAL HEALTH CLINIC""",41.504382,-71.320194,2351171,07:05:00,07:05:00,7,1,64,http://www.ripta.com/64,Weekday
1755,"""ADM KALBFUS AT AT ADMIRAL'S GATE""",41.506695,-71.319325,2351171,07:06:00,07:06:00,8,1,64,http://www.ripta.com/64,Weekday
1835,"""CONNELL HWAY OPP NISSAN VOLVO""",41.508102,-71.317583,2351171,07:07:00,07:07:00,9,1,64,http://www.ripta.com/64,Weekday
1895,"""NEWPORT TOWNE CENTER (STOP&SHOP)""",41.508474,-71.31643,2351171,07:07:00,07:07:00,10,1,64,http://www.ripta.com/64,Weekday
1890,"""NEWPORT TOWNE CENTER (WALMART)""",41.510625,-71.316887,2351171,07:08:00,07:08:00,11,1,64,http://www.ripta.com/64,Weekday
1870,"""NEWPORT TOWNE CENTER (LAUNDROMAT)""",41.511926,-71.317415,2351171,07:08:00,07:08:00,12,1,64,http://www.ripta.com/64,Weekday
2020,"""CONNELL HWAY NS MAPLE""",41.515053,-71.316041,2351171,07:08:00,07:08:00,13,1,64,http://www.ripta.com/64,Weekday
2090,"""CODDINGTON NS JOHN CHAFEE BLVD""",41.518131,-71.313698,2351171,07:09:00,07:09:00,14,1,64,http://www.ripta.com/64,Weekday
58145,"""CCRI (NEWPORT CAMPUS)""",41.51735,-71.31302,2351171,07:09:00,07:09:00,15,1,64,http://www.ripta.com/64,Weekday
2025,"""CONNELL OPP HILLMART""",41.515038,-71.316217,2351171,07:10:00,07:10:00,16,1,64,http://www.ripta.com/64,Weekday
1865,"""CONNELL  HWAY AT NEWPORT ADULTS VIDEO""",41.511545,-71.318059,2351171,07:10:00,07:10:00,17,1,64,http://www.ripta.com/64,Weekday
1775,"""CONNELL HWAY AT NEWPORT TIRE""",41.507682,-71.317696,2351171,07:11:00,07:11:00,18,1,64,http://www.ripta.com/64,Weekday
1575,"""CONANICUS FS KNOWLES""",41.496757,-71.367143,2351171,07:20:00,07:20:00,19,1,64,http://www.ripta.com/64,Weekday
1525,"""NARRAGANSETT FS E SHORE RD""",41.496382,-71.367405,2351171,07:20:00,07:20:00,20,1,64,http://www.ripta.com/64,Weekday
1515,"""NARRAGANSETT AT 20 NARRAGANSETT""",41.49637,-71.368745,2351171,07:20:00,07:20:00,21,1,64,http://www.ripta.com/64,Weekday
1520,"""NARRAGANSETT FS GRINNELL""",41.496315,-71.371732,2351171,07:20:00,07:20:00,22,1,64,http://www.ripta.com/64,Weekday
57520,"""NARRAGANSETT AT 92 NARRAGANSETT""",41.496233,-71.374074,2351171,07:21:00,07:21:00,23,1,64,http://www.ripta.com/64,Weekday
1565,"""NORTH NS VALLEY""",41.498233,-71.374589,2351171,07:21:00,07:21:00,24,1,64,http://www.ripta.com/64,Weekday
57525,"""NORTH OPP 79 NORTH""",41.50072,-71.374606,2351171,07:21:00,07:21:00,25,1,64,http://www.ripta.com/64,Weekday
70600,"""RT 1A & RT 138 PARK&RIDE""",41.526983,-71.425462,2351171,07:30:00,07:30:00,26,1,64,http://www.ripta.com/64,Weekday
2325,"""BOSTON NECK NS BARBERS HEIGHTS""",41.524298,-71.424082,2351171,07:30:00,07:30:00,27,1,64,http://www.ripta.com/64,Weekday
60085,"""BOSTON NECK FS SNUFF MILL""",41.522243,-71.42384,2351171,07:31:00,07:31:00,28,1,64,http://www.ripta.com/64,Weekday
2245,"""BOSTON NECK FS HOMESTEAD""",41.521254,-71.424046,2351171,07:31:00,07:31:00,29,1,64,http://www.ripta.com/64,Weekday
60090,"""BOSTON NECK OPP 2080 BOSTON NECK""",41.519246,-71.424093,2351171,07:31:00,07:31:00,30,1,64,http://www.ripta.com/64,Weekday
2065,"""BOSTON NECK OPP CHARLOTTE""",41.516748,-71.423412,2351171,07:32:00,07:32:00,31,1,64,http://www.ripta.com/64,Weekday
1880,"""BOSTON NECK FS FERRY""",41.507661,-71.425119,2351171,07:33:00,07:33:00,32,1,64,http://www.ripta.com/64,Weekday
1730,"""BOSTON NECK NS MINER""",41.505015,-71.42862,2351171,07:33:00,07:33:00,33,1,64,http://www.ripta.com/64,Weekday
1660,"""BOSTON NECK NS INDIAN TRAIL""",41.502256,-71.43213,2351171,07:34:00,07:34:00,34,1,64,http://www.ripta.com/64,Weekday
1615,"""BOSTON NECK NS RIVERDELL""",41.500993,-71.433797,2351171,07:34:00,07:34:00,35,1,64,http://www.ripta.com/64,Weekday
1545,"""BOSTON NECK NS PETTAQUAMSCUTT LAKE""",41.497967,-71.436521,2351171,07:35:00,07:35:00,36,1,64,http://www.ripta.com/64,Weekday
1450,"""BOSTON LAKE NS EDGEWATER RD""",41.494846,-71.437896,2351171,07:35:00,07:35:00,37,1,64,http://www.ripta.com/64,Weekday
1400,"""BOSTON NECK NS BRIDGETOWN""",41.492409,-71.43815,2351171,07:35:00,07:35:00,38,1,64,http://www.ripta.com/64,Weekday
58845,"""PIER RD FS SOUTH FERRY""",41.49198,-71.424045,2351171,07:37:00,07:37:00,39,1,64,http://www.ripta.com/64,Weekday
57555,"""BRIDGETOWN AT 130 BRIDGETOWN""",41.49033,-71.445921,2351171,07:41:00,07:41:00,40,1,64,http://www.ripta.com/64,Weekday
57560,"""BRIDGETOWN NS WALMSLEY""",41.488291,-71.449408,2351171,07:42:00,07:42:00,41,1,64,http://www.ripta.com/64,Weekday
57565,"""RT 138 AT 61 MOORESVILLE RD""",41.494603,-71.458699,2351171,07:44:00,07:44:00,42,1,64,http://www.ripta.com/64,Weekday
1075,"""KINGSTOWN FS NORTH RD""",41.480003,-71.522949,2351171,07:52:00,07:52:00,43,1,64,http://www.ripta.com/64,Weekday
1085,"""KINGSTOWN AT 2579 KINGSTOWN RD""",41.480197,-71.524366,2351171,07:52:00,07:52:00,44,1,64,http://www.ripta.com/64,Weekday
1180,"""UPPER COLLEGE NS CAMPUS""",41.482731,-71.525703,2351171,07:52:00,07:52:00,45,1,64,http://www.ripta.com/64,Weekday
1190,"""CAMPUS AT COLLEGE OF PHARMACY""",41.483487,-71.528164,2351171,07:53:00,07:53:00,46,1,64,http://www.ripta.com/64,Weekday
1225,"""URI STUDENT UNION""",41.484315,-71.529311,2351171,07:53:00,07:53:00,47,1,64,http://www.ripta.com/64,Weekday
1155,"""LOWER COLLEGE OPP ST AUGUSTINES CHURCH""",41.481905,-71.529871,2351171,07:54:00,07:54:00,48,1,64,http://www.ripta.com/64,Weekday
72190,"""KINGSTOWN OPP GRADUATE VILLAGE APTS""",41.482201,-71.535733,2351171,07:55:00,07:55:00,49,1,64,http://www.ripta.com/64,Weekday
1175,"""KINGSTOWN FS W INDEPENDENCE""",41.482871,-71.540778,2351171,07:56:00,07:56:00,50,1,64,http://www.ripta.com/64,Weekday
50720,"""KINGSTOWN NS PLAINS""",41.482103,-71.549827,2351171,07:58:00,07:58:00,51,1,64,http://www.ripta.com/64,Weekday
1205,"""KINGSTOWN NS WAITES CORNER""",41.482979,-71.551555,2351171,07:58:00,07:58:00,52,1,64,http://www.ripta.com/64,Weekday
59750,"""KINGSTOWN AT MOBIL GAS STATION""",41.483402,-71.553139,2351171,07:58:00,07:58:00,53,1,64,http://www.ripta.com/64,Weekday
50725,"""KINGSTOWN OPP WATSON""",41.483848,-71.555632,2351171,07:59:00,07:59:00,54,1,64,http://www.ripta.com/64,Weekday
1230,"""KINGSTON RAILROAD STATION""",41.484102,-71.560243,2351171,08:00:00,08:00:00,55,1,64,http://www.ripta.com/64,Weekday
1230,"""KINGSTON RAILROAD STATION""",41.484102,-71.560243,2351172,14:05:00,14:05:00,1,0,64,http://www.ripta.com/64,Weekday
50675,"""KINGSTOWN FS WATSON""",41.483611,-71.555325,2351172,14:06:00,14:06:00,2,0,64,http://www.ripta.com/64,Weekday
50680,"""KINGSTOWN NS TLC COFFEE ROASTERS""",41.483126,-71.552351,2351172,14:07:00,14:07:00,3,0,64,http://www.ripta.com/64,Weekday
50685,"""KINGSTOWN OPP W INDEPENDENCE WAY""",41.482704,-71.540456,2351172,14:09:00,14:09:00,4,0,64,http://www.ripta.com/64,Weekday
50690,"""KINGSTOWN OPP RYAN CENTER""",41.482359,-71.538198,2351172,14:09:00,14:09:00,5,0,64,http://www.ripta.com/64,Weekday
1140,"""LOWER COLLEGE NS BAYBERRY""",41.482182,-71.529691,2351172,14:11:00,14:11:00,6,0,64,http://www.ripta.com/64,Weekday
1225,"""URI STUDENT UNION""",41.484315,-71.529311,2351172,14:12:00,14:12:00,7,0,64,http://www.ripta.com/64,Weekday
1185,"""UPPER COLLEGE FS CAMPUS""",41.482725,-71.525816,2351172,14:12:00,14:12:00,8,0,64,http://www.ripta.com/64,Weekday
1120,"""UPPER COLLEGE NS RT 138""",41.48119,-71.525551,2351172,14:13:00,14:13:00,9,0,64,http://www.ripta.com/64,Weekday
1125,"""KINGSTOWN AT GRAD VILLAGE APTS""",41.482005,-71.535882,2351172,14:15:00,14:15:00,10,0,64,http://www.ripta.com/64,Weekday
57530,"""RT 138 NS RT 1""",41.494629,-71.456956,2351172,14:21:00,14:21:00,11,0,64,http://www.ripta.com/64,Weekday
57535,"""BRIDGETOWN FS RT 1""",41.494559,-71.456021,2351172,14:21:00,14:21:00,12,0,64,http://www.ripta.com/64,Weekday
57540,"""BRIDGETOWN FS RIVERSIDE""",41.48869,-71.44662,2351172,14:23:00,14:23:00,13,0,64,http://www.ripta.com/64,Weekday
58845,"""PIER RD FS SOUTH FERRY""",41.49198,-71.424045,2351172,14:26:00,14:26:00,14,0,64,http://www.ripta.com/64,Weekday
1395,"""BOSTON NECK FS S FERRY""",41.492364,-71.437984,2351172,14:29:00,14:29:00,15,0,64,http://www.ripta.com/64,Weekday
1455,"""BOSTON NECK OPP EDGEWATER""",41.494793,-71.437764,2351172,14:29:00,14:29:00,16,0,64,http://www.ripta.com/64,Weekday
1535,"""BOSTON NECK FS BANFIELD""",41.497986,-71.4363,2351172,14:30:00,14:30:00,17,0,64,http://www.ripta.com/64,Weekday
1610,"""BOSTON NECK OPP RIVERDELL""",41.500947,-71.433596,2351172,14:30:00,14:30:00,18,0,64,http://www.ripta.com/64,Weekday
1725,"""BOSTON NECK FS MINER""",41.504953,-71.428414,2351172,14:31:00,14:31:00,19,0,64,http://www.ripta.com/64,Weekday
1875,"""BOSTON NECK NS FERRY""",41.507607,-71.42496,2351172,14:32:00,14:32:00,20,0,64,http://www.ripta.com/64,Weekday
2070,"""BOSTON NECK FS CHARLOTTE""",41.516702,-71.42324,2351172,14:33:00,14:33:00,21,0,64,http://www.ripta.com/64,Weekday
58605,"""BOSTON NECK NS HIGHLAND""",41.52004,-71.423987,2351172,14:34:00,14:34:00,22,0,64,http://www.ripta.com/64,Weekday
2250,"""BOSTON NECK OPP SNUFF MILL""",41.52242,-71.423628,2351172,14:34:00,14:34:00,23,0,64,http://www.ripta.com/64,Weekday
2320,"""BOSTON NECK OPP 1865 BOSTON NECK""",41.524558,-71.423991,2351172,14:34:00,14:34:00,24,0,64,http://www.ripta.com/64,Weekday
70600,"""RT 1A & RT 138 PARK&RIDE""",41.526983,-71.425462,2351172,14:35:00,14:35:00,25,0,64,http://www.ripta.com/64,Weekday
2361,"""TASHTASSUCK FS HELM""",41.525592,-71.385276,2351172,14:39:00,14:39:00,26,0,64,http://www.ripta.com/64,Weekday
72180,"""NORTH NS WATSON""",41.498149,-71.374706,2351172,14:44:00,14:44:00,27,0,64,http://www.ripta.com/64,Weekday
57405,"""NORTH AT 83 NORTH RD""",41.50085,-71.374766,2351172,14:45:00,14:45:00,28,0,64,http://www.ripta.com/64,Weekday
1505,"""NORTH NS AT 1 NORTH RD""",41.496551,-71.374702,2351172,14:45:00,14:45:00,29,0,64,http://www.ripta.com/64,Weekday
1495,"""NARRAGANSETT FS HOWLAND""",41.496192,-71.371722,2351172,14:46:00,14:46:00,30,0,64,http://www.ripta.com/64,Weekday
57510,"""NARRAGANSETT NS GREEN""",41.496246,-71.36939,2351172,14:46:00,14:46:00,31,0,64,http://www.ripta.com/64,Weekday
1526,"""CONANICUS FS NARRAGANSETT""",41.496595,-71.367009,2351172,14:46:00,14:46:00,32,0,64,http://www.ripta.com/64,Weekday
1745,"""CONANICUS NS MT HOPE""",41.504757,-71.364472,2351172,14:47:00,14:47:00,33,0,64,http://www.ripta.com/64,Weekday
59270,"""ADM KALBFUS OPP HALSEY (WASTE MANAGEMENT)""",41.507589,-71.314548,2351172,14:57:00,14:57:00,34,0,64,http://www.ripta.com/64,Weekday
1835,"""CONNELL HWAY OPP NISSAN VOLVO""",41.508102,-71.317583,2351172,14:57:00,14:57:00,35,0,64,http://www.ripta.com/64,Weekday
1895,"""NEWPORT TOWNE CENTER (STOP&SHOP)""",41.508474,-71.31643,2351172,14:57:00,14:57:00,36,0,64,http://www.ripta.com/64,Weekday
1890,"""NEWPORT TOWNE CENTER (WALMART)""",41.510625,-71.316887,2351172,14:58:00,14:58:00,37,0,64,http://www.ripta.com/64,Weekday
1870,"""NEWPORT TOWNE CENTER (LAUNDROMAT)""",41.511926,-71.317415,2351172,14:58:00,14:58:00,38,0,64,http://www.ripta.com/64,Weekday
2020,"""CONNELL HWAY NS MAPLE""",41.515053,-71.316041,2351172,14:58:00,14:58:00,39,0,64,http://www.ripta.com/64,Weekday
2090,"""CODDINGTON NS JOHN CHAFEE BLVD""",41.518131,-71.313698,2351172,14:59:00,14:59:00,40,0,64,http://www.ripta.com/64,Weekday
58145,"""CCRI (NEWPORT CAMPUS)""",41.51735,-71.31302,2351172,14:59:00,14:59:00,41,0,64,http://www.ripta.com/64,Weekday
2025,"""CONNELL OPP HILLMART""",41.515038,-71.316217,2351172,15:00:00,15:00:00,42,0,64,http://www.ripta.com/64,Weekday
1865,"""CONNELL  HWAY AT NEWPORT ADULTS VIDEO""",41.511545,-71.318059,2351172,15:01:00,15:01:00,43,0,64,http://www.ripta.com/64,Weekday
1775,"""CONNELL HWAY AT NEWPORT TIRE""",41.507682,-71.317696,2351172,15:02:00,15:02:00,44,0,64,http://www.ripta.com/64,Weekday
57760,"""ADM KALBFUS AT ROLLING GREEN APTS""",41.506826,-71.319378,2351172,15:03:00,15:03:00,45,0,64,http://www.ripta.com/64,Weekday
1695,"""THIRD OPP DYERS GATE""",41.503582,-71.320243,2351172,15:04:00,15:04:00,46,0,64,http://www.ripta.com/64,Weekday
1650,"""THIRD OPP BAYSIDE VILLAGE""",41.501766,-71.320017,2351172,15:04:00,15:04:00,47,0,64,http://www.ripta.com/64,Weekday
1600,"""THIRD FS CYPRESS""",41.499988,-71.319747,2351172,15:05:00,15:05:00,48,0,64,http://www.ripta.com/64,Weekday
56705,"""SECOND OPP 103 SECOND""",41.498628,-71.320415,2351172,15:05:00,15:05:00,49,0,64,http://www.ripta.com/64,Weekday
56710,"""SECOND NS PINE""",41.496743,-71.320205,2351172,15:06:00,15:06:00,50,0,64,http://www.ripta.com/64,Weekday
56720,"""SECOND NS POPLAR""",41.493479,-71.319751,2351172,15:07:00,15:07:00,51,0,64,http://www.ripta.com/64,Weekday
56725,"""SECOND NS MARSH""",41.491483,-71.31948,2351172,15:07:00,15:07:00,52,0,64,http://www.ripta.com/64,Weekday
1383,"""GATEWAY CENTER AT 64 BUS BERTH""",41.491485,-71.317772,2351172,15:08:00,15:08:00,53,0,64,http://www.ripta.com/64,Weekday
1383,"""GATEWAY CENTER AT 64 BUS BERTH""",41.491485,-71.317772,2351503,12:05:00,12:05:00,1,1,64,http://www.ripta.com/64,Saturday
1420,"""THIRD FS BRIDGE""",41.492298,-71.318642,2351503,12:06:00,12:06:00,2,1,64,http://www.ripta.com/64,Saturday
1465,"""THIRD AT WALNUT""",41.49467,-71.318955,2351503,12:06:00,12:06:00,3,1,64,http://www.ripta.com/64,Saturday
1530,"""THIRD NS LASALLE""",41.497507,-71.319305,2351503,12:07:00,12:07:00,4,1,64,http://www.ripta.com/64,Saturday
1605,"""THIRD OPP CYPRESS""",41.500429,-71.319726,2351503,12:08:00,12:08:00,5,1,64,http://www.ripta.com/64,Saturday
1645,"""THIRD AT BAYSIDE VILLAGE""",41.501716,-71.319844,2351503,12:09:00,12:09:00,6,1,64,http://www.ripta.com/64,Saturday
1715,"""THIRD OPP NAVAL HEALTH CLINIC""",41.504382,-71.320194,2351503,12:10:00,12:10:00,7,1,64,http://www.ripta.com/64,Saturday
1755,"""ADM KALBFUS AT AT ADMIRAL'S GATE""",41.506695,-71.319325,2351503,12:11:00,12:11:00,8,1,64,http://www.ripta.com/64,Saturday
1835,"""CONNELL HWAY OPP NISSAN VOLVO""",41.508102,-71.317583,2351503,12:12:00,12:12:00,9,1,64,http://www.ripta.com/64,Saturday
1895,"""NEWPORT TOWNE CENTER (STOP&SHOP)""",41.508474,-71.31643,2351503,12:12:00,12:12:00,10,1,64,http://www.ripta.com/64,Saturday
1890,"""NEWPORT TOWNE CENTER (WALMART)""",41.510625,-71.316887,2351503,12:13:00,12:13:00,11,1,64,http://www.ripta.com/64,Saturday
1870,"""NEWPORT TOWNE CENTER (LAUNDROMAT)""",41.511926,-71.317415,2351503,12:13:00,12:13:00,12,1,64,http://www.ripta.com/64,Saturday
2020,"""CONNELL HWAY NS MAPLE""",41.515053,-71.316041,2351503,12:13:00,12:13:00,13,1,64,http://www.ripta.com/64,Saturday
2090,"""CODDINGTON NS JOHN CHAFEE BLVD""",41.518131,-71.313698,2351503,12:14:00,12:14:00,14,1,64,http://www.ripta.com/64,Saturday
58145,"""CCRI (NEWPORT CAMPUS)""",41.51735,-71.31302,2351503,12:14:00,12:14:00,15,1,64,http://www.ripta.com/64,Saturday
2025,"""CONNELL OPP HILLMART""",41.515038,-71.316217,2351503,12:15:00,12:15:00,16,1,64,http://www.ripta.com/64,Saturday
1865,"""CONNELL  HWAY AT NEWPORT ADULTS VIDEO""",41.511545,-71.318059,2351503,12:15:00,12:15:00,17,1,64,http://www.ripta.com/64,Saturday
1775,"""CONNELL HWAY AT NEWPORT TIRE""",41.507682,-71.317696,2351503,12:16:00,12:16:00,18,1,64,http://www.ripta.com/64,Saturday
1575,"""CONANICUS FS KNOWLES""",41.496757,-71.367143,2351503,12:25:00,12:25:00,19,1,64,http://www.ripta.com/64,Saturday
1525,"""NARRAGANSETT FS E SHORE RD""",41.496382,-71.367405,2351503,12:25:00,12:25:00,20,1,64,http://www.ripta.com/64,Saturday
1515,"""NARRAGANSETT AT 20 NARRAGANSETT""",41.49637,-71.368745,2351503,12:25:00,12:25:00,21,1,64,http://www.ripta.com/64,Saturday
1520,"""NARRAGANSETT FS GRINNELL""",41.496315,-71.371732,2351503,12:25:00,12:25:00,22,1,64,http://www.ripta.com/64,Saturday
57520,"""NARRAGANSETT AT 92 NARRAGANSETT""",41.496233,-71.374074,2351503,12:26:00,12:26:00,23,1,64,http://www.ripta.com/64,Saturday
1565,"""NORTH NS VALLEY""",41.498233,-71.374589,2351503,12:26:00,12:26:00,24,1,64,http://www.ripta.com/64,Saturday
57525,"""NORTH OPP 79 NORTH""",41.50072,-71.374606,2351503,12:26:00,12:26:00,25,1,64,http://www.ripta.com/64,Saturday
70600,"""RT 1A & RT 138 PARK&RIDE""",41.526983,-71.425462,2351503,12:35:00,12:35:00,26,1,64,http://www.ripta.com/64,Saturday
2325,"""BOSTON NECK NS BARBERS HEIGHTS""",41.524298,-71.424082,2351503,12:35:00,12:35:00,27,1,64,http://www.ripta.com/64,Saturday
60085,"""BOSTON NECK FS SNUFF MILL""",41.522243,-71.42384,2351503,12:36:00,12:36:00,28,1,64,http://www.ripta.com/64,Saturday
2245,"""BOSTON NECK FS HOMESTEAD""",41.521254,-71.424046,2351503,12:36:00,12:36:00,29,1,64,http://www.ripta.com/64,Saturday
60090,"""BOSTON NECK OPP 2080 BOSTON NECK""",41.519246,-71.424093,2351503,12:36:00,12:36:00,30,1,64,http://www.ripta.com/64,Saturday
2065,"""BOSTON NECK OPP CHARLOTTE""",41.516748,-71.423412,2351503,12:36:00,12:36:00,31,1,64,http://www.ripta.com/64,Saturday
1880,"""BOSTON NECK FS FERRY""",41.507661,-71.425119,2351503,12:38:00,12:38:00,32,1,64,http://www.ripta.com/64,Saturday
1730,"""BOSTON NECK NS MINER""",41.505015,-71.42862,2351503,12:38:00,12:38:00,33,1,64,http://www.ripta.com/64,Saturday
1660,"""BOSTON NECK NS INDIAN TRAIL""",41.502256,-71.43213,2351503,12:39:00,12:39:00,34,1,64,http://www.ripta.com/64,Saturday
1615,"""BOSTON NECK NS RIVERDELL""",41.500993,-71.433797,2351503,12:39:00,12:39:00,35,1,64,http://www.ripta.com/64,Saturday
1545,"""BOSTON NECK NS PETTAQUAMSCUTT LAKE""",41.497967,-71.436521,2351503,12:39:00,12:39:00,36,1,64,http://www.ripta.com/64,Saturday
1450,"""BOSTON LAKE NS EDGEWATER RD""",41.494846,-71.437896,2351503,12:40:00,12:40:00,37,1,64,http://www.ripta.com/64,Saturday
1400,"""BOSTON NECK NS BRIDGETOWN""",41.492409,-71.43815,2351503,12:40:00,12:40:00,38,1,64,http://www.ripta.com/64,Saturday
57555,"""BRIDGETOWN AT 130 BRIDGETOWN""",41.49033,-71.445921,2351503,12:41:00,12:41:00,39,1,64,http://www.ripta.com/64,Saturday
57560,"""BRIDGETOWN NS WALMSLEY""",41.488291,-71.449408,2351503,12:42:00,12:42:00,40,1,64,http://www.ripta.com/64,Saturday
57565,"""RT 138 AT 61 MOORESVILLE RD""",41.494603,-71.458699,2351503,12:43:00,12:43:00,41,1,64,http://www.ripta.com/64,Saturday
1075,"""KINGSTOWN FS NORTH RD""",41.480003,-71.522949,2351503,12:51:00,12:51:00,42,1,64,http://www.ripta.com/64,Saturday
1085,"""KINGSTOWN AT 2579 KINGSTOWN RD""",41.480197,-71.524366,2351503,12:51:00,12:51:00,43,1,64,http://www.ripta.com/64,Saturday
1180,"""UPPER COLLEGE NS CAMPUS""",41.482731,-71.525703,2351503,12:51:00,12:51:00,44,1,64,http://www.ripta.com/64,Saturday
1190,"""CAMPUS AT COLLEGE OF PHARMACY""",41.483487,-71.528164,2351503,12:52:00,12:52:00,45,1,64,http://www.ripta.com/64,Saturday
1225,"""URI STUDENT UNION""",41.484315,-71.529311,2351503,12:52:00,12:52:00,46,1,64,http://www.ripta.com/64,Saturday
1155,"""LOWER COLLEGE OPP ST AUGUSTINES CHURCH""",41.481905,-71.529871,2351503,12:53:00,12:53:00,47,1,64,http://www.ripta.com/64,Saturday
72190,"""KINGSTOWN OPP GRADUATE VILLAGE APTS""",41.482201,-71.535733,2351503,12:54:00,12:54:00,48,1,64,http://www.ripta.com/64,Saturday
1175,"""KINGSTOWN FS W INDEPENDENCE""",41.482871,-71.540778,2351503,12:55:00,12:55:00,49,1,64,http://www.ripta.com/64,Saturday
50720,"""KINGSTOWN NS PLAINS""",41.482103,-71.549827,2351503,12:56:00,12:56:00,50,1,64,http://www.ripta.com/64,Saturday
1205,"""KINGSTOWN NS WAITES CORNER""",41.482979,-71.551555,2351503,12:56:00,12:56:00,51,1,64,http://www.ripta.com/64,Saturday
59750,"""KINGSTOWN AT MOBIL GAS STATION""",41.483402,-71.553139,2351503,12:57:00,12:57:00,52,1,64,http://www.ripta.com/64,Saturday
50725,"""KINGSTOWN OPP WATSON""",41.483848,-71.555632,2351503,12:57:00,12:57:00,53,1,64,http://www.ripta.com/64,Saturday
1230,"""KINGSTON RAILROAD STATION""",41.484102,-71.560243,2351503,12:58:00,12:58:00,54,1,64,http://www.ripta.com/64,Saturday
1383,"""GATEWAY CENTER AT 64 BUS BERTH""",41.491485,-71.317772,2351504,09:55:00,09:55:00,1,1,64,http://www.ripta.com/64,Saturday
1420,"""THIRD FS BRIDGE""",41.492298,-71.318642,2351504,09:56:00,09:56:00,2,1,64,http://www.ripta.com/64,Saturday
1465,"""THIRD AT WALNUT""",41.49467,-71.318955,2351504,09:56:00,09:56:00,3,1,64,http://www.ripta.com/64,Saturday
1530,"""THIRD NS LASALLE""",41.497507,-71.319305,2351504,09:57:00,09:57:00,4,1,64,http://www.ripta.com/64,Saturday
1605,"""THIRD OPP CYPRESS""",41.500429,-71.319726,2351504,09:58:00,09:58:00,5,1,64,http://www.ripta.com/64,Saturday
1645,"""THIRD AT BAYSIDE VILLAGE""",41.501716,-71.319844,2351504,09:59:00,09:59:00,6,1,64,http://www.ripta.com/64,Saturday
1715,"""THIRD OPP NAVAL HEALTH CLINIC""",41.504382,-71.320194,2351504,10:00:00,10:00:00,7,1,64,http://www.ripta.com/64,Saturday
1755,"""ADM KALBFUS AT AT ADMIRAL'S GATE""",41.506695,-71.319325,2351504,10:01:00,10:01:00,8,1,64,http://www.ripta.com/64,Saturday
1835,"""CONNELL HWAY OPP NISSAN VOLVO""",41.508102,-71.317583,2351504,10:02:00,10:02:00,9,1,64,http://www.ripta.com/64,Saturday
1895,"""NEWPORT TOWNE CENTER (STOP&SHOP)""",41.508474,-71.31643,2351504,10:02:00,10:02:00,10,1,64,http://www.ripta.com/64,Saturday
1890,"""NEWPORT TOWNE CENTER (WALMART)""",41.510625,-71.316887,2351504,10:03:00,10:03:00,11,1,64,http://www.ripta.com/64,Saturday
1870,"""NEWPORT TOWNE CENTER (LAUNDROMAT)""",41.511926,-71.317415,2351504,10:03:00,10:03:00,12,1,64,http://www.ripta.com/64,Saturday
2020,"""CONNELL HWAY NS MAPLE""",41.515053,-71.316041,2351504,10:03:00,10:03:00,13,1,64,http://www.ripta.com/64,Saturday
2090,"""CODDINGTON NS JOHN CHAFEE BLVD""",41.518131,-71.313698,2351504,10:04:00,10:04:00,14,1,64,http://www.ripta.com/64,Saturday
58145,"""CCRI (NEWPORT CAMPUS)""",41.51735,-71.31302,2351504,10:04:00,10:04:00,15,1,64,http://www.ripta.com/64,Saturday
2025,"""CONNELL OPP HILLMART""",41.515038,-71.316217,2351504,10:05:00,10:05:00,16,1,64,http://www.ripta.com/64,Saturday
1865,"""CONNELL  HWAY AT NEWPORT ADULTS VIDEO""",41.511545,-71.318059,2351504,10:05:00,10:05:00,17,1,64,http://www.ripta.com/64,Saturday
1775,"""CONNELL HWAY AT NEWPORT TIRE""",41.507682,-71.317696,2351504,10:06:00,10:06:00,18,1,64,http://www.ripta.com/64,Saturday
1575,"""CONANICUS FS KNOWLES""",41.496757,-71.367143,2351504,10:15:00,10:15:00,19,1,64,http://www.ripta.com/64,Saturday
1525,"""NARRAGANSETT FS E SHORE RD""",41.496382,-71.367405,2351504,10:15:00,10:15:00,20,1,64,http://www.ripta.com/64,Saturday
1515,"""NARRAGANSETT AT 20 NARRAGANSETT""",41.49637,-71.368745,2351504,10:15:00,10:15:00,21,1,64,http://www.ripta.com/64,Saturday
1520,"""NARRAGANSETT FS GRINNELL""",41.496315,-71.371732,2351504,10:15:00,10:15:00,22,1,64,http://www.ripta.com/64,Saturday
57520,"""NARRAGANSETT AT 92 NARRAGANSETT""",41.496233,-71.374074,2351504,10:16:00,10:16:00,23,1,64,http://www.ripta.com/64,Saturday
1565,"""NORTH NS VALLEY""",41.498233,-71.374589,2351504,10:16:00,10:16:00,24,1,64,http://www.ripta.com/64,Saturday
57525,"""NORTH OPP 79 NORTH""",41.50072,-71.374606,2351504,10:16:00,10:16:00,25,1,64,http://www.ripta.com/64,Saturday
70600,"""RT 1A & RT 138 PARK&RIDE""",41.526983,-71.425462,2351504,10:25:00,10:25:00,26,1,64,http://www.ripta.com/64,Saturday
2325,"""BOSTON NECK NS BARBERS HEIGHTS""",41.524298,-71.424082,2351504,10:25:00,10:25:00,27,1,64,http://www.ripta.com/64,Saturday
60085,"""BOSTON NECK FS SNUFF MILL""",41.522243,-71.42384,2351504,10:26:00,10:26:00,28,1,64,http://www.ripta.com/64,Saturday
2245,"""BOSTON NECK FS HOMESTEAD""",41.521254,-71.424046,2351504,10:26:00,10:26:00,29,1,64,http://www.ripta.com/64,Saturday
60090,"""BOSTON NECK OPP 2080 BOSTON NECK""",41.519246,-71.424093,2351504,10:26:00,10:26:00,30,1,64,http://www.ripta.com/64,Saturday
2065,"""BOSTON NECK OPP CHARLOTTE""",41.516748,-71.423412,2351504,10:26:00,10:26:00,31,1,64,http://www.ripta.com/64,Saturday
1880,"""BOSTON NECK FS FERRY""",41.507661,-71.425119,2351504,10:28:00,10:28:00,32,1,64,http://www.ripta.com/64,Saturday
1730,"""BOSTON NECK NS MINER""",41.505015,-71.42862,2351504,10:28:00,10:28:00,33,1,64,http://www.ripta.com/64,Saturday
1660,"""BOSTON NECK NS INDIAN TRAIL""",41.502256,-71.43213,2351504,10:29:00,10:29:00,34,1,64,http://www.ripta.com/64,Saturday
1615,"""BOSTON NECK NS RIVERDELL""",41.500993,-71.433797,2351504,10:29:00,10:29:00,35,1,64,http://www.ripta.com/64,Saturday
1545,"""BOSTON NECK NS PETTAQUAMSCUTT LAKE""",41.497967,-71.436521,2351504,10:29:00,10:29:00,36,1,64,http://www.ripta.com/64,Saturday
1450,"""BOSTON LAKE NS EDGEWATER RD""",41.494846,-71.437896,2351504,10:30:00,10:30:00,37,1,64,http://www.ripta.com/64,Saturday
1400,"""BOSTON NECK NS BRIDGETOWN""",41.492409,-71.43815,2351504,10:30:00,10:30:00,38,1,64,http://www.ripta.com/64,Saturday
57555,"""BRIDGETOWN AT 130 BRIDGETOWN""",41.49033,-71.445921,2351504,10:31:00,10:31:00,39,1,64,http://www.ripta.com/64,Saturday
57560,"""BRIDGETOWN NS WALMSLEY""",41.488291,-71.449408,2351504,10:32:00,10:32:00,40,1,64,http://www.ripta.com/64,Saturday
57565,"""RT 138 AT 61 MOORESVILLE RD""",41.494603,-71.458699,2351504,10:33:00,10:33:00,41,1,64,http://www.ripta.com/64,Saturday
1075,"""KINGSTOWN FS NORTH RD""",41.480003,-71.522949,2351504,10:41:00,10:41:00,42,1,64,http://www.ripta.com/64,Saturday
1085,"""KINGSTOWN AT 2579 KINGSTOWN RD""",41.480197,-71.524366,2351504,10:41:00,10:41:00,43,1,64,http://www.ripta.com/64,Saturday
1180,"""UPPER COLLEGE NS CAMPUS""",41.482731,-71.525703,2351504,10:41:00,10:41:00,44,1,64,http://www.ripta.com/64,Saturday
1190,"""CAMPUS AT COLLEGE OF PHARMACY""",41.483487,-71.528164,2351504,10:42:00,10:42:00,45,1,64,http://www.ripta.com/64,Saturday
1225,"""URI STUDENT UNION""",41.484315,-71.529311,2351504,10:42:00,10:42:00,46,1,64,http://www.ripta.com/64,Saturday
1155,"""LOWER COLLEGE OPP ST AUGUSTINES CHURCH""",41.481905,-71.529871,2351504,10:43:00,10:43:00,47,1,64,http://www.ripta.com/64,Saturday
72190,"""KINGSTOWN OPP GRADUATE VILLAGE APTS""",41.482201,-71.535733,2351504,10:44:00,10:44:00,48,1,64,http://www.ripta.com/64,Saturday
1175,"""KINGSTOWN FS W INDEPENDENCE""",41.482871,-71.540778,2351504,10:45:00,10:45:00,49,1,64,http://www.ripta.com/64,Saturday
50720,"""KINGSTOWN NS PLAINS""",41.482103,-71.549827,2351504,10:46:00,10:46:00,50,1,64,http://www.ripta.com/64,Saturday
1205,"""KINGSTOWN NS WAITES CORNER""",41.482979,-71.551555,2351504,10:46:00,10:46:00,51,1,64,http://www.ripta.com/64,Saturday
59750,"""KINGSTOWN AT MOBIL GAS STATION""",41.483402,-71.553139,2351504,10:47:00,10:47:00,52,1,64,http://www.ripta.com/64,Saturday
50725,"""KINGSTOWN OPP WATSON""",41.483848,-71.555632,2351504,10:47:00,10:47:00,53,1,64,http://www.ripta.com/64,Saturday
1230,"""KINGSTON RAILROAD STATION""",41.484102,-71.560243,2351504,10:48:00,10:48:00,54,1,64,http://www.ripta.com/64,Saturday
1383,"""GATEWAY CENTER AT 64 BUS BERTH""",41.491485,-71.317772,2351505,14:20:00,14:20:00,1,1,64,http://www.ripta.com/64,Saturday
1420,"""THIRD FS BRIDGE""",41.492298,-71.318642,2351505,14:21:00,14:21:00,2,1,64,http://www.ripta.com/64,Saturday
1465,"""THIRD AT WALNUT""",41.49467,-71.318955,2351505,14:21:00,14:21:00,3,1,64,http://www.ripta.com/64,Saturday
1530,"""THIRD NS LASALLE""",41.497507,-71.319305,2351505,14:22:00,14:22:00,4,1,64,http://www.ripta.com/64,Saturday
1605,"""THIRD OPP CYPRESS""",41.500429,-71.319726,2351505,14:23:00,14:23:00,5,1,64,http://www.ripta.com/64,Saturday
1645,"""THIRD AT BAYSIDE VILLAGE""",41.501716,-71.319844,2351505,14:24:00,14:24:00,6,1,64,http://www.ripta.com/64,Saturday
1715,"""THIRD OPP NAVAL HEALTH CLINIC""",41.504382,-71.320194,2351505,14:25:00,14:25:00,7,1,64,http://www.ripta.com/64,Saturday
1755,"""ADM KALBFUS AT AT ADMIRAL'S GATE""",41.506695,-71.319325,2351505,14:26:00,14:26:00,8,1,64,http://www.ripta.com/64,Saturday
1835,"""CONNELL HWAY OPP NISSAN VOLVO""",41.508102,-71.317583,2351505,14:27:00,14:27:00,9,1,64,http://www.ripta.com/64,Saturday
1895,"""NEWPORT TOWNE CENTER (STOP&SHOP)""",41.508474,-71.31643,2351505,14:27:00,14:27:00,10,1,64,http://www.ripta.com/64,Saturday
1890,"""NEWPORT TOWNE CENTER (WALMART)""",41.510625,-71.316887,2351505,14:28:00,14:28:00,11,1,64,http://www.ripta.com/64,Saturday
1870,"""NEWPORT TOWNE CENTER (LAUNDROMAT)""",41.511926,-71.317415,2351505,14:28:00,14:28:00,12,1,64,http://www.ripta.com/64,Saturday
2020,"""CONNELL HWAY NS MAPLE""",41.515053,-71.316041,2351505,14:28:00,14:28:00,13,1,64,http://www.ripta.com/64,Saturday
2090,"""CODDINGTON NS JOHN CHAFEE BLVD""",41.518131,-71.313698,2351505,14:29:00,14:29:00,14,1,64,http://www.ripta.com/64,Saturday
58145,"""CCRI (NEWPORT CAMPUS)""",41.51735,-71.31302,2351505,14:29:00,14:29:00,15,1,64,http://www.ripta.com/64,Saturday
2025,"""CONNELL OPP HILLMART""",41.515038,-71.316217,2351505,14:30:00,14:30:00,16,1,64,http://www.ripta.com/64,Saturday
1865,"""CONNELL  HWAY AT NEWPORT ADULTS VIDEO""",41.511545,-71.318059,2351505,14:30:00,14:30:00,17,1,64,http://www.ripta.com/64,Saturday
1775,"""CONNELL HWAY AT NEWPORT TIRE""",41.507682,-71.317696,2351505,14:31:00,14:31:00,18,1,64,http://www.ripta.com/64,Saturday
1575,"""CONANICUS FS KNOWLES""",41.496757,-71.367143,2351505,14:40:00,14:40:00,19,1,64,http://www.ripta.com/64,Saturday
1525,"""NARRAGANSETT FS E SHORE RD""",41.496382,-71.367405,2351505,14:40:00,14:40:00,20,1,64,http://www.ripta.com/64,Saturday
1515,"""NARRAGANSETT AT 20 NARRAGANSETT""",41.49637,-71.368745,2351505,14:40:00,14:40:00,21,1,64,http://www.ripta.com/64,Saturday
1520,"""NARRAGANSETT FS GRINNELL""",41.496315,-71.371732,2351505,14:40:00,14:40:00,22,1,64,http://www.ripta.com/64,Saturday
57520,"""NARRAGANSETT AT 92 NARRAGANSETT""",41.496233,-71.374074,2351505,14:41:00,14:41:00,23,1,64,http://www.ripta.com/64,Saturday
1565,"""NORTH NS VALLEY""",41.498233,-71.374589,2351505,14:41:00,14:41:00,24,1,64,http://www.ripta.com/64,Saturday
57525,"""NORTH OPP 79 NORTH""",41.50072,-71.374606,2351505,14:41:00,14:41:00,25,1,64,http://www.ripta.com/64,Saturday
70600,"""RT 1A & RT 138 PARK&RIDE""",41.526983,-71.425462,2351505,14:50:00,14:50:00,26,1,64,http://www.ripta.com/64,Saturday
2325,"""BOSTON NECK NS BARBERS HEIGHTS""",41.524298,-71.424082,2351505,14:50:00,14:50:00,27,1,64,http://www.ripta.com/64,Saturday
60085,"""BOSTON NECK FS SNUFF MILL""",41.522243,-71.42384,2351505,14:51:00,14:51:00,28,1,64,http://www.ripta.com/64,Saturday
2245,"""BOSTON NECK FS HOMESTEAD""",41.521254,-71.424046,2351505,14:51:00,14:51:00,29,1,64,http://www.ripta.com/64,Saturday
60090,"""BOSTON NECK OPP 2080 BOSTON NECK""",41.519246,-71.424093,2351505,14:51:00,14:51:00,30,1,64,http://www.ripta.com/64,Saturday
2065,"""BOSTON NECK OPP CHARLOTTE""",41.516748,-71.423412,2351505,14:51:00,14:51:00,31,1,64,http://www.ripta.com/64,Saturday
1880,"""BOSTON NECK FS FERRY""",41.507661,-71.425119,2351505,14:53:00,14:53:00,32,1,64,http://www.ripta.com/64,Saturday
1730,"""BOSTON NECK NS MINER""",41.505015,-71.42862,2351505,14:53:00,14:53:00,33,1,64,http://www.ripta.com/64,Saturday
1660,"""BOSTON NECK NS INDIAN TRAIL""",41.502256,-71.43213,2351505,14:54:00,14:54:00,34,1,64,http://www.ripta.com/64,Saturday
1615,"""BOSTON NECK NS RIVERDELL""",41.500993,-71.433797,2351505,14:54:00,14:54:00,35,1,64,http://www.ripta.com/64,Saturday
1545,"""BOSTON NECK NS PETTAQUAMSCUTT LAKE""",41.497967,-71.436521,2351505,14:54:00,14:54:00,36,1,64,http://www.ripta.com/64,Saturday
1450,"""BOSTON LAKE NS EDGEWATER RD""",41.494846,-71.437896,2351505,14:55:00,14:55:00,37,1,64,http://www.ripta.com/64,Saturday
1400,"""BOSTON NECK NS BRIDGETOWN""",41.492409,-71.43815,2351505,14:55:00,14:55:00,38,1,64,http://www.ripta.com/64,Saturday
57555,"""BRIDGETOWN AT 130 BRIDGETOWN""",41.49033,-71.445921,2351505,14:56:00,14:56:00,39,1,64,http://www.ripta.com/64,Saturday
57560,"""BRIDGETOWN NS WALMSLEY""",41.488291,-71.449408,2351505,14:57:00,14:57:00,40,1,64,http://www.ripta.com/64,Saturday
57565,"""RT 138 AT 61 MOORESVILLE RD""",41.494603,-71.458699,2351505,14:58:00,14:58:00,41,1,64,http://www.ripta.com/64,Saturday
1075,"""KINGSTOWN FS NORTH RD""",41.480003,-71.522949,2351505,15:06:00,15:06:00,42,1,64,http://www.ripta.com/64,Saturday
1085,"""KINGSTOWN AT 2579 KINGSTOWN RD""",41.480197,-71.524366,2351505,15:06:00,15:06:00,43,1,64,http://www.ripta.com/64,Saturday
1180,"""UPPER COLLEGE NS CAMPUS""",41.482731,-71.525703,2351505,15:06:00,15:06:00,44,1,64,http://www.ripta.com/64,Saturday
1190,"""CAMPUS AT COLLEGE OF PHARMACY""",41.483487,-71.528164,2351505,15:07:00,15:07:00,45,1,64,http://www.ripta.com/64,Saturday
1225,"""URI STUDENT UNION""",41.484315,-71.529311,2351505,15:07:00,15:07:00,46,1,64,http://www.ripta.com/64,Saturday
1155,"""LOWER COLLEGE OPP ST AUGUSTINES CHURCH""",41.481905,-71.529871,2351505,15:08:00,15:08:00,47,1,64,http://www.ripta.com/64,Saturday
72190,"""KINGSTOWN OPP GRADUATE VILLAGE APTS""",41.482201,-71.535733,2351505,15:09:00,15:09:00,48,1,64,http://www.ripta.com/64,Saturday
1175,"""KINGSTOWN FS W INDEPENDENCE""",41.482871,-71.540778,2351505,15:10:00,15:10:00,49,1,64,http://www.ripta.com/64,Saturday
50720,"""KINGSTOWN NS PLAINS""",41.482103,-71.549827,2351505,15:11:00,15:11:00,50,1,64,http://www.ripta.com/64,Saturday
1205,"""KINGSTOWN NS WAITES CORNER""",41.482979,-71.551555,2351505,15:11:00,15:11:00,51,1,64,http://www.ripta.com/64,Saturday
59750,"""KINGSTOWN AT MOBIL GAS STATION""",41.483402,-71.553139,2351505,15:12:00,15:12:00,52,1,64,http://www.ripta.com/64,Saturday
50725,"""KINGSTOWN OPP WATSON""",41.483848,-71.555632,2351505,15:12:00,15:12:00,53,1,64,http://www.ripta.com/64,Saturday
1230,"""KINGSTON RAILROAD STATION""",41.484102,-71.560243,2351505,15:13:00,15:13:00,54,1,64,http://www.ripta.com/64,Saturday
1383,"""GATEWAY CENTER AT 64 BUS BERTH""",41.491485,-71.317772,2351506,16:32:00,16:32:00,1,1,64,http://www.ripta.com/64,Saturday
1420,"""THIRD FS BRIDGE""",41.492298,-71.318642,2351506,16:33:00,16:33:00,2,1,64,http://www.ripta.com/64,Saturday
1465,"""THIRD AT WALNUT""",41.49467,-71.318955,2351506,16:33:00,16:33:00,3,1,64,http://www.ripta.com/64,Saturday
1530,"""THIRD NS LASALLE""",41.497507,-71.319305,2351506,16:34:00,16:34:00,4,1,64,http://www.ripta.com/64,Saturday
1605,"""THIRD OPP CYPRESS""",41.500429,-71.319726,2351506,16:35:00,16:35:00,5,1,64,http://www.ripta.com/64,Saturday
1645,"""THIRD AT BAYSIDE VILLAGE""",41.501716,-71.319844,2351506,16:36:00,16:36:00,6,1,64,http://www.ripta.com/64,Saturday
1715,"""THIRD OPP NAVAL HEALTH CLINIC""",41.504382,-71.320194,2351506,16:37:00,16:37:00,7,1,64,http://www.ripta.com/64,Saturday
1755,"""ADM KALBFUS AT AT ADMIRAL'S GATE""",41.506695,-71.319325,2351506,16:38:00,16:38:00,8,1,64,http://www.ripta.com/64,Saturday
1835,"""CONNELL HWAY OPP NISSAN VOLVO""",41.508102,-71.317583,2351506,16:39:00,16:39:00,9,1,64,http://www.ripta.com/64,Saturday
1895,"""NEWPORT TOWNE CENTER (STOP&SHOP)""",41.508474,-71.31643,2351506,16:39:00,16:39:00,10,1,64,http://www.ripta.com/64,Saturday
1890,"""NEWPORT TOWNE CENTER (WALMART)""",41.510625,-71.316887,2351506,16:40:00,16:40:00,11,1,64,http://www.ripta.com/64,Saturday
1870,"""NEWPORT TOWNE CENTER (LAUNDROMAT)""",41.511926,-71.317415,2351506,16:40:00,16:40:00,12,1,64,http://www.ripta.com/64,Saturday
2020,"""CONNELL HWAY NS MAPLE""",41.515053,-71.316041,2351506,16:40:00,16:40:00,13,1,64,http://www.ripta.com/64,Saturday
2090,"""CODDINGTON NS JOHN CHAFEE BLVD""",41.518131,-71.313698,2351506,16:41:00,16:41:00,14,1,64,http://www.ripta.com/64,Saturday
58145,"""CCRI (NEWPORT CAMPUS)""",41.51735,-71.31302,2351506,16:41:00,16:41:00,15,1,64,http://www.ripta.com/64,Saturday
2025,"""CONNELL OPP HILLMART""",41.515038,-71.316217,2351506,16:42:00,16:42:00,16,1,64,http://www.ripta.com/64,Saturday
1865,"""CONNELL  HWAY AT NEWPORT ADULTS VIDEO""",41.511545,-71.318059,2351506,16:42:00,16:42:00,17,1,64,http://www.ripta.com/64,Saturday
1775,"""CONNELL HWAY AT NEWPORT TIRE""",41.507682,-71.317696,2351506,16:43:00,16:43:00,18,1,64,http://www.ripta.com/64,Saturday
1575,"""CONANICUS FS KNOWLES""",41.496757,-71.367143,2351506,16:52:00,16:52:00,19,1,64,http://www.ripta.com/64,Saturday
1525,"""NARRAGANSETT FS E SHORE RD""",41.496382,-71.367405,2351506,16:52:00,16:52:00,20,1,64,http://www.ripta.com/64,Saturday
1515,"""NARRAGANSETT AT 20 NARRAGANSETT""",41.49637,-71.368745,2351506,16:52:00,16:52:00,21,1,64,http://www.ripta.com/64,Saturday
1520,"""NARRAGANSETT FS GRINNELL""",41.496315,-71.371732,2351506,16:52:00,16:52:00,22,1,64,http://www.ripta.com/64,Saturday
57520,"""NARRAGANSETT AT 92 NARRAGANSETT""",41.496233,-71.374074,2351506,16:53:00,16:53:00,23,1,64,http://www.ripta.com/64,Saturday
1565,"""NORTH NS VALLEY""",41.498233,-71.374589,2351506,16:53:00,16:53:00,24,1,64,http://www.ripta.com/64,Saturday
57525,"""NORTH OPP 79 NORTH""",41.50072,-71.374606,2351506,16:53:00,16:53:00,25,1,64,http://www.ripta.com/64,Saturday
70600,"""RT 1A & RT 138 PARK&RIDE""",41.526983,-71.425462,2351506,17:02:00,17:02:00,26,1,64,http://www.ripta.com/64,Saturday
2325,"""BOSTON NECK NS BARBERS HEIGHTS""",41.524298,-71.424082,2351506,17:02:00,17:02:00,27,1,64,http://www.ripta.com/64,Saturday
60085,"""BOSTON NECK FS SNUFF MILL""",41.522243,-71.42384,2351506,17:03:00,17:03:00,28,1,64,http://www.ripta.com/64,Saturday
2245,"""BOSTON NECK FS HOMESTEAD""",41.521254,-71.424046,2351506,17:03:00,17:03:00,29,1,64,http://www.ripta.com/64,Saturday
60090,"""BOSTON NECK OPP 2080 BOSTON NECK""",41.519246,-71.424093,2351506,17:03:00,17:03:00,30,1,64,http://www.ripta.com/64,Saturday
2065,"""BOSTON NECK OPP CHARLOTTE""",41.516748,-71.423412,2351506,17:03:00,17:03:00,31,1,64,http://www.ripta.com/64,Saturday
1880,"""BOSTON NECK FS FERRY""",41.507661,-71.425119,2351506,17:05:00,17:05:00,32,1,64,http://www.ripta.com/64,Saturday
1730,"""BOSTON NECK NS MINER""",41.505015,-71.42862,2351506,17:05:00,17:05:00,33,1,64,http://www.ripta.com/64,Saturday
1660,"""BOSTON NECK NS INDIAN TRAIL""",41.502256,-71.43213,2351506,17:06:00,17:06:00,34,1,64,http://www.ripta.com/64,Saturday
1615,"""BOSTON NECK NS RIVERDELL""",41.500993,-71.433797,2351506,17:06:00,17:06:00,35,1,64,http://www.ripta.com/64,Saturday
1545,"""BOSTON NECK NS PETTAQUAMSCUTT LAKE""",41.497967,-71.436521,2351506,17:06:00,17:06:00,36,1,64,http://www.ripta.com/64,Saturday
1450,"""BOSTON LAKE NS EDGEWATER RD""",41.494846,-71.437896,2351506,17:07:00,17:07:00,37,1,64,http://www.ripta.com/64,Saturday
1400,"""BOSTON NECK NS BRIDGETOWN""",41.492409,-71.43815,2351506,17:07:00,17:07:00,38,1,64,http://www.ripta.com/64,Saturday
57555,"""BRIDGETOWN AT 130 BRIDGETOWN""",41.49033,-71.445921,2351506,17:08:00,17:08:00,39,1,64,http://www.ripta.com/64,Saturday
57560,"""BRIDGETOWN NS WALMSLEY""",41.488291,-71.449408,2351506,17:09:00,17:09:00,40,1,64,http://www.ripta.com/64,Saturday
57565,"""RT 138 AT 61 MOORESVILLE RD""",41.494603,-71.458699,2351506,17:10:00,17:10:00,41,1,64,http://www.ripta.com/64,Saturday
1075,"""KINGSTOWN FS NORTH RD""",41.480003,-71.522949,2351506,17:18:00,17:18:00,42,1,64,http://www.ripta.com/64,Saturday
1085,"""KINGSTOWN AT 2579 KINGSTOWN RD""",41.480197,-71.524366,2351506,17:18:00,17:18:00,43,1,64,http://www.ripta.com/64,Saturday
1180,"""UPPER COLLEGE NS CAMPUS""",41.482731,-71.525703,2351506,17:18:00,17:18:00,44,1,64,http://www.ripta.com/64,Saturday
1190,"""CAMPUS AT COLLEGE OF PHARMACY""",41.483487,-71.528164,2351506,17:19:00,17:19:00,45,1,64,http://www.ripta.com/64,Saturday
1225,"""URI STUDENT UNION""",41.484315,-71.529311,2351506,17:19:00,17:19:00,46,1,64,http://www.ripta.com/64,Saturday
1155,"""LOWER COLLEGE OPP ST AUGUSTINES CHURCH""",41.481905,-71.529871,2351506,17:20:00,17:20:00,47,1,64,http://www.ripta.com/64,Saturday
72190,"""KINGSTOWN OPP GRADUATE VILLAGE APTS""",41.482201,-71.535733,2351506,17:21:00,17:21:00,48,1,64,http://www.ripta.com/64,Saturday
1175,"""KINGSTOWN FS W INDEPENDENCE""",41.482871,-71.540778,2351506,17:22:00,17:22:00,49,1,64,http://www.ripta.com/64,Saturday
50720,"""KINGSTOWN NS PLAINS""",41.482103,-71.549827,2351506,17:23:00,17:23:00,50,1,64,http://www.ripta.com/64,Saturday
1205,"""KINGSTOWN NS WAITES CORNER""",41.482979,-71.551555,2351506,17:23:00,17:23:00,51,1,64,http://www.ripta.com/64,Saturday
59750,"""KINGSTOWN AT MOBIL GAS STATION""",41.483402,-71.553139,2351506,17:24:00,17:24:00,52,1,64,http://www.ripta.com/64,Saturday
50725,"""KINGSTOWN OPP WATSON""",41.483848,-71.555632,2351506,17:24:00,17:24:00,53,1,64,http://www.ripta.com/64,Saturday
1230,"""KINGSTON RAILROAD STATION""",41.484102,-71.560243,2351506,17:25:00,17:25:00,54,1,64,http://www.ripta.com/64,Saturday
1230,"""KINGSTON RAILROAD STATION""",41.484102,-71.560243,2351507,15:20:00,15:20:00,1,0,64,http://www.ripta.com/64,Saturday
50675,"""KINGSTOWN FS WATSON""",41.483611,-71.555325,2351507,15:21:00,15:21:00,2,0,64,http://www.ripta.com/64,Saturday
50680,"""KINGSTOWN NS TLC COFFEE ROASTERS""",41.483126,-71.552351,2351507,15:21:00,15:21:00,3,0,64,http://www.ripta.com/64,Saturday
50685,"""KINGSTOWN OPP W INDEPENDENCE WAY""",41.482704,-71.540456,2351507,15:23:00,15:23:00,4,0,64,http://www.ripta.com/64,Saturday
50690,"""KINGSTOWN OPP RYAN CENTER""",41.482359,-71.538198,2351507,15:24:00,15:24:00,5,0,64,http://www.ripta.com/64,Saturday
1140,"""LOWER COLLEGE NS BAYBERRY""",41.482182,-71.529691,2351507,15:25:00,15:25:00,6,0,64,http://www.ripta.com/64,Saturday
1225,"""URI STUDENT UNION""",41.484315,-71.529311,2351507,15:26:00,15:26:00,7,0,64,http://www.ripta.com/64,Saturday
1185,"""UPPER COLLEGE FS CAMPUS""",41.482725,-71.525816,2351507,15:26:00,15:26:00,8,0,64,http://www.ripta.com/64,Saturday
1120,"""UPPER COLLEGE NS RT 138""",41.48119,-71.525551,2351507,15:27:00,15:27:00,9,0,64,http://www.ripta.com/64,Saturday
1125,"""KINGSTOWN AT GRAD VILLAGE APTS""",41.482005,-71.535882,2351507,15:29:00,15:29:00,10,0,64,http://www.ripta.com/64,Saturday
57530,"""RT 138 NS RT 1""",41.494629,-71.456956,2351507,15:35:00,15:35:00,11,0,64,http://www.ripta.com/64,Saturday
57535,"""BRIDGETOWN FS RT 1""",41.494559,-71.456021,2351507,15:35:00,15:35:00,12,0,64,http://www.ripta.com/64,Saturday
57540,"""BRIDGETOWN FS RIVERSIDE""",41.48869,-71.44662,2351507,15:37:00,15:37:00,13,0,64,http://www.ripta.com/64,Saturday
1395,"""BOSTON NECK FS S FERRY""",41.492364,-71.437984,2351507,15:38:00,15:38:00,14,0,64,http://www.ripta.com/64,Saturday
1455,"""BOSTON NECK OPP EDGEWATER""",41.494793,-71.437764,2351507,15:38:00,15:38:00,15,0,64,http://www.ripta.com/64,Saturday
1535,"""BOSTON NECK FS BANFIELD""",41.497986,-71.4363,2351507,15:38:00,15:38:00,16,0,64,http://www.ripta.com/64,Saturday
1610,"""BOSTON NECK OPP RIVERDELL""",41.500947,-71.433596,2351507,15:39:00,15:39:00,17,0,64,http://www.ripta.com/64,Saturday
1725,"""BOSTON NECK FS MINER""",41.504953,-71.428414,2351507,15:40:00,15:40:00,18,0,64,http://www.ripta.com/64,Saturday
1875,"""BOSTON NECK NS FERRY""",41.507607,-71.42496,2351507,15:40:00,15:40:00,19,0,64,http://www.ripta.com/64,Saturday
2070,"""BOSTON NECK FS CHARLOTTE""",41.516702,-71.42324,2351507,15:41:00,15:41:00,20,0,64,http://www.ripta.com/64,Saturday
58605,"""BOSTON NECK NS HIGHLAND""",41.52004,-71.423987,2351507,15:42:00,15:42:00,21,0,64,http://www.ripta.com/64,Saturday
2250,"""BOSTON NECK OPP SNUFF MILL""",41.52242,-71.423628,2351507,15:42:00,15:42:00,22,0,64,http://www.ripta.com/64,Saturday
2320,"""BOSTON NECK OPP 1865 BOSTON NECK""",41.524558,-71.423991,2351507,15:42:00,15:42:00,23,0,64,http://www.ripta.com/64,Saturday
70600,"""RT 1A & RT 138 PARK&RIDE""",41.526983,-71.425462,2351507,15:43:00,15:43:00,24,0,64,http://www.ripta.com/64,Saturday
2361,"""TASHTASSUCK FS HELM""",41.525592,-71.385276,2351507,15:47:00,15:47:00,25,0,64,http://www.ripta.com/64,Saturday
72180,"""NORTH NS WATSON""",41.498149,-71.374706,2351507,15:52:00,15:52:00,26,0,64,http://www.ripta.com/64,Saturday
57405,"""NORTH AT 83 NORTH RD""",41.50085,-71.374766,2351507,15:53:00,15:53:00,27,0,64,http://www.ripta.com/64,Saturday
1505,"""NORTH NS AT 1 NORTH RD""",41.496551,-71.374702,2351507,15:53:00,15:53:00,28,0,64,http://www.ripta.com/64,Saturday
1495,"""NARRAGANSETT FS HOWLAND""",41.496192,-71.371722,2351507,15:54:00,15:54:00,29,0,64,http://www.ripta.com/64,Saturday
57510,"""NARRAGANSETT NS GREEN""",41.496246,-71.36939,2351507,15:54:00,15:54:00,30,0,64,http://www.ripta.com/64,Saturday
1526,"""CONANICUS FS NARRAGANSETT""",41.496595,-71.367009,2351507,15:54:00,15:54:00,31,0,64,http://www.ripta.com/64,Saturday
1745,"""CONANICUS NS MT HOPE""",41.504757,-71.364472,2351507,15:55:00,15:55:00,32,0,64,http://www.ripta.com/64,Saturday
59270,"""ADM KALBFUS OPP HALSEY (WASTE MANAGEMENT)""",41.507589,-71.314548,2351507,16:05:00,16:05:00,33,0,64,http://www.ripta.com/64,Saturday
1835,"""CONNELL HWAY OPP NISSAN VOLVO""",41.508102,-71.317583,2351507,16:05:00,16:05:00,34,0,64,http://www.ripta.com/64,Saturday
1895,"""NEWPORT TOWNE CENTER (STOP&SHOP)""",41.508474,-71.31643,2351507,16:05:00,16:05:00,35,0,64,http://www.ripta.com/64,Saturday
1890,"""NEWPORT TOWNE CENTER (WALMART)""",41.510625,-71.316887,2351507,16:06:00,16:06:00,36,0,64,http://www.ripta.com/64,Saturday
1870,"""NEWPORT TOWNE CENTER (LAUNDROMAT)""",41.511926,-71.317415,2351507,16:06:00,16:06:00,37,0,64,http://www.ripta.com/64,Saturday
2020,"""CONNELL HWAY NS MAPLE""",41.515053,-71.316041,2351507,16:06:00,16:06:00,38,0,64,http://www.ripta.com/64,Saturday
2090,"""CODDINGTON NS JOHN CHAFEE BLVD""",41.518131,-71.313698,2351507,16:07:00,16:07:00,39,0,64,http://www.ripta.com/64,Saturday
58145,"""CCRI (NEWPORT CAMPUS)""",41.51735,-71.31302,2351507,16:07:00,16:07:00,40,0,64,http://www.ripta.com/64,Saturday
2025,"""CONNELL OPP HILLMART""",41.515038,-71.316217,2351507,16:08:00,16:08:00,41,0,64,http://www.ripta.com/64,Saturday
1865,"""CONNELL  HWAY AT NEWPORT ADULTS VIDEO""",41.511545,-71.318059,2351507,16:09:00,16:09:00,42,0,64,http://www.ripta.com/64,Saturday
1775,"""CONNELL HWAY AT NEWPORT TIRE""",41.507682,-71.317696,2351507,16:10:00,16:10:00,43,0,64,http://www.ripta.com/64,Saturday
57760,"""ADM KALBFUS AT ROLLING GREEN APTS""",41.506826,-71.319378,2351507,16:11:00,16:11:00,44,0,64,http://www.ripta.com/64,Saturday
1695,"""THIRD OPP DYERS GATE""",41.503582,-71.320243,2351507,16:12:00,16:12:00,45,0,64,http://www.ripta.com/64,Saturday
1650,"""THIRD OPP BAYSIDE VILLAGE""",41.501766,-71.320017,2351507,16:12:00,16:12:00,46,0,64,http://www.ripta.com/64,Saturday
1600,"""THIRD FS CYPRESS""",41.499988,-71.319747,2351507,16:13:00,16:13:00,47,0,64,http://www.ripta.com/64,Saturday
56705,"""SECOND OPP 103 SECOND""",41.498628,-71.320415,2351507,16:13:00,16:13:00,48,0,64,http://www.ripta.com/64,Saturday
56710,"""SECOND NS PINE""",41.496743,-71.320205,2351507,16:14:00,16:14:00,49,0,64,http://www.ripta.com/64,Saturday
56720,"""SECOND NS POPLAR""",41.493479,-71.319751,2351507,16:15:00,16:15:00,50,0,64,http://www.ripta.com/64,Saturday
56725,"""SECOND NS MARSH""",41.491483,-71.31948,2351507,16:15:00,16:15:00,51,0,64,http://www.ripta.com/64,Saturday
1383,"""GATEWAY CENTER AT 64 BUS BERTH""",41.491485,-71.317772,2351507,16:16:00,16:16:00,52,0,64,http://www.ripta.com/64,Saturday
1230,"""KINGSTON RAILROAD STATION""",41.484102,-71.560243,2351508,10:52:00,10:52:00,1,0,64,http://www.ripta.com/64,Saturday
50675,"""KINGSTOWN FS WATSON""",41.483611,-71.555325,2351508,10:53:00,10:53:00,2,0,64,http://www.ripta.com/64,Saturday
50680,"""KINGSTOWN NS TLC COFFEE ROASTERS""",41.483126,-71.552351,2351508,10:53:00,10:53:00,3,0,64,http://www.ripta.com/64,Saturday
50685,"""KINGSTOWN OPP W INDEPENDENCE WAY""",41.482704,-71.540456,2351508,10:55:00,10:55:00,4,0,64,http://www.ripta.com/64,Saturday
50690,"""KINGSTOWN OPP RYAN CENTER""",41.482359,-71.538198,2351508,10:56:00,10:56:00,5,0,64,http://www.ripta.com/64,Saturday
1140,"""LOWER COLLEGE NS BAYBERRY""",41.482182,-71.529691,2351508,10:57:00,10:57:00,6,0,64,http://www.ripta.com/64,Saturday
1225,"""URI STUDENT UNION""",41.484315,-71.529311,2351508,10:58:00,10:58:00,7,0,64,http://www.ripta.com/64,Saturday
1185,"""UPPER COLLEGE FS CAMPUS""",41.482725,-71.525816,2351508,10:58:00,10:58:00,8,0,64,http://www.ripta.com/64,Saturday
1120,"""UPPER COLLEGE NS RT 138""",41.48119,-71.525551,2351508,10:59:00,10:59:00,9,0,64,http://www.ripta.com/64,Saturday
1125,"""KINGSTOWN AT GRAD VILLAGE APTS""",41.482005,-71.535882,2351508,11:01:00,11:01:00,10,0,64,http://www.ripta.com/64,Saturday
57530,"""RT 138 NS RT 1""",41.494629,-71.456956,2351508,11:07:00,11:07:00,11,0,64,http://www.ripta.com/64,Saturday
57535,"""BRIDGETOWN FS RT 1""",41.494559,-71.456021,2351508,11:07:00,11:07:00,12,0,64,http://www.ripta.com/64,Saturday
57540,"""BRIDGETOWN FS RIVERSIDE""",41.48869,-71.44662,2351508,11:09:00,11:09:00,13,0,64,http://www.ripta.com/64,Saturday
1395,"""BOSTON NECK FS S FERRY""",41.492364,-71.437984,2351508,11:10:00,11:10:00,14,0,64,http://www.ripta.com/64,Saturday
1455,"""BOSTON NECK OPP EDGEWATER""",41.494793,-71.437764,2351508,11:10:00,11:10:00,15,0,64,http://www.ripta.com/64,Saturday
1535,"""BOSTON NECK FS BANFIELD""",41.497986,-71.4363,2351508,11:10:00,11:10:00,16,0,64,http://www.ripta.com/64,Saturday
1610,"""BOSTON NECK OPP RIVERDELL""",41.500947,-71.433596,2351508,11:11:00,11:11:00,17,0,64,http://www.ripta.com/64,Saturday
1725,"""BOSTON NECK FS MINER""",41.504953,-71.428414,2351508,11:12:00,11:12:00,18,0,64,http://www.ripta.com/64,Saturday
1875,"""BOSTON NECK NS FERRY""",41.507607,-71.42496,2351508,11:12:00,11:12:00,19,0,64,http://www.ripta.com/64,Saturday
2070,"""BOSTON NECK FS CHARLOTTE""",41.516702,-71.42324,2351508,11:13:00,11:13:00,20,0,64,http://www.ripta.com/64,Saturday
58605,"""BOSTON NECK NS HIGHLAND""",41.52004,-71.423987,2351508,11:14:00,11:14:00,21,0,64,http://www.ripta.com/64,Saturday
2250,"""BOSTON NECK OPP SNUFF MILL""",41.52242,-71.423628,2351508,11:14:00,11:14:00,22,0,64,http://www.ripta.com/64,Saturday
2320,"""BOSTON NECK OPP 1865 BOSTON NECK""",41.524558,-71.423991,2351508,11:14:00,11:14:00,23,0,64,http://www.ripta.com/64,Saturday
70600,"""RT 1A & RT 138 PARK&RIDE""",41.526983,-71.425462,2351508,11:15:00,11:15:00,24,0,64,http://www.ripta.com/64,Saturday
2361,"""TASHTASSUCK FS HELM""",41.525592,-71.385276,2351508,11:19:00,11:19:00,25,0,64,http://www.ripta.com/64,Saturday
72180,"""NORTH NS WATSON""",41.498149,-71.374706,2351508,11:24:00,11:24:00,26,0,64,http://www.ripta.com/64,Saturday
57405,"""NORTH AT 83 NORTH RD""",41.50085,-71.374766,2351508,11:25:00,11:25:00,27,0,64,http://www.ripta.com/64,Saturday
1505,"""NORTH NS AT 1 NORTH RD""",41.496551,-71.374702,2351508,11:25:00,11:25:00,28,0,64,http://www.ripta.com/64,Saturday
1495,"""NARRAGANSETT FS HOWLAND""",41.496192,-71.371722,2351508,11:26:00,11:26:00,29,0,64,http://www.ripta.com/64,Saturday
57510,"""NARRAGANSETT NS GREEN""",41.496246,-71.36939,2351508,11:26:00,11:26:00,30,0,64,http://www.ripta.com/64,Saturday
1526,"""CONANICUS FS NARRAGANSETT""",41.496595,-71.367009,2351508,11:26:00,11:26:00,31,0,64,http://www.ripta.com/64,Saturday
1745,"""CONANICUS NS MT HOPE""",41.504757,-71.364472,2351508,11:27:00,11:27:00,32,0,64,http://www.ripta.com/64,Saturday
59270,"""ADM KALBFUS OPP HALSEY (WASTE MANAGEMENT)""",41.507589,-71.314548,2351508,11:37:00,11:37:00,33,0,64,http://www.ripta.com/64,Saturday
1835,"""CONNELL HWAY OPP NISSAN VOLVO""",41.508102,-71.317583,2351508,11:37:00,11:37:00,34,0,64,http://www.ripta.com/64,Saturday
1895,"""NEWPORT TOWNE CENTER (STOP&SHOP)""",41.508474,-71.31643,2351508,11:37:00,11:37:00,35,0,64,http://www.ripta.com/64,Saturday
1890,"""NEWPORT TOWNE CENTER (WALMART)""",41.510625,-71.316887,2351508,11:38:00,11:38:00,36,0,64,http://www.ripta.com/64,Saturday
1870,"""NEWPORT TOWNE CENTER (LAUNDROMAT)""",41.511926,-71.317415,2351508,11:38:00,11:38:00,37,0,64,http://www.ripta.com/64,Saturday
2020,"""CONNELL HWAY NS MAPLE""",41.515053,-71.316041,2351508,11:38:00,11:38:00,38,0,64,http://www.ripta.com/64,Saturday
2090,"""CODDINGTON NS JOHN CHAFEE BLVD""",41.518131,-71.313698,2351508,11:39:00,11:39:00,39,0,64,http://www.ripta.com/64,Saturday
58145,"""CCRI (NEWPORT CAMPUS)""",41.51735,-71.31302,2351508,11:39:00,11:39:00,40,0,64,http://www.ripta.com/64,Saturday
2025,"""CONNELL OPP HILLMART""",41.515038,-71.316217,2351508,11:40:00,11:40:00,41,0,64,http://www.ripta.com/64,Saturday
1865,"""CONNELL  HWAY AT NEWPORT ADULTS VIDEO""",41.511545,-71.318059,2351508,11:41:00,11:41:00,42,0,64,http://www.ripta.com/64,Saturday
1775,"""CONNELL HWAY AT NEWPORT TIRE""",41.507682,-71.317696,2351508,11:42:00,11:42:00,43,0,64,http://www.ripta.com/64,Saturday
57760,"""ADM KALBFUS AT ROLLING GREEN APTS""",41.506826,-71.319378,2351508,11:43:00,11:43:00,44,0,64,http://www.ripta.com/64,Saturday
1695,"""THIRD OPP DYERS GATE""",41.503582,-71.320243,2351508,11:44:00,11:44:00,45,0,64,http://www.ripta.com/64,Saturday
1650,"""THIRD OPP BAYSIDE VILLAGE""",41.501766,-71.320017,2351508,11:44:00,11:44:00,46,0,64,http://www.ripta.com/64,Saturday
1600,"""THIRD FS CYPRESS""",41.499988,-71.319747,2351508,11:45:00,11:45:00,47,0,64,http://www.ripta.com/64,Saturday
56705,"""SECOND OPP 103 SECOND""",41.498628,-71.320415,2351508,11:45:00,11:45:00,48,0,64,http://www.ripta.com/64,Saturday
56710,"""SECOND NS PINE""",41.496743,-71.320205,2351508,11:46:00,11:46:00,49,0,64,http://www.ripta.com/64,Saturday
56720,"""SECOND NS POPLAR""",41.493479,-71.319751,2351508,11:47:00,11:47:00,50,0,64,http://www.ripta.com/64,Saturday
56725,"""SECOND NS MARSH""",41.491483,-71.31948,2351508,11:47:00,11:47:00,51,0,64,http://www.ripta.com/64,Saturday
1383,"""GATEWAY CENTER AT 64 BUS BERTH""",41.491485,-71.317772,2351508,11:48:00,11:48:00,52,0,64,http://www.ripta.com/64,Saturday
1230,"""KINGSTON RAILROAD STATION""",41.484102,-71.560243,2351509,13:05:00,13:05:00,1,0,64,http://www.ripta.com/64,Saturday
50675,"""KINGSTOWN FS WATSON""",41.483611,-71.555325,2351509,13:06:00,13:06:00,2,0,64,http://www.ripta.com/64,Saturday
50680,"""KINGSTOWN NS TLC COFFEE ROASTERS""",41.483126,-71.552351,2351509,13:06:00,13:06:00,3,0,64,http://www.ripta.com/64,Saturday
50685,"""KINGSTOWN OPP W INDEPENDENCE WAY""",41.482704,-71.540456,2351509,13:08:00,13:08:00,4,0,64,http://www.ripta.com/64,Saturday
50690,"""KINGSTOWN OPP RYAN CENTER""",41.482359,-71.538198,2351509,13:09:00,13:09:00,5,0,64,http://www.ripta.com/64,Saturday
1140,"""LOWER COLLEGE NS BAYBERRY""",41.482182,-71.529691,2351509,13:10:00,13:10:00,6,0,64,http://www.ripta.com/64,Saturday
1225,"""URI STUDENT UNION""",41.484315,-71.529311,2351509,13:11:00,13:11:00,7,0,64,http://www.ripta.com/64,Saturday
1185,"""UPPER COLLEGE FS CAMPUS""",41.482725,-71.525816,2351509,13:11:00,13:11:00,8,0,64,http://www.ripta.com/64,Saturday
1120,"""UPPER COLLEGE NS RT 138""",41.48119,-71.525551,2351509,13:12:00,13:12:00,9,0,64,http://www.ripta.com/64,Saturday
1125,"""KINGSTOWN AT GRAD VILLAGE APTS""",41.482005,-71.535882,2351509,13:14:00,13:14:00,10,0,64,http://www.ripta.com/64,Saturday
57530,"""RT 138 NS RT 1""",41.494629,-71.456956,2351509,13:20:00,13:20:00,11,0,64,http://www.ripta.com/64,Saturday
57535,"""BRIDGETOWN FS RT 1""",41.494559,-71.456021,2351509,13:20:00,13:20:00,12,0,64,http://www.ripta.com/64,Saturday
57540,"""BRIDGETOWN FS RIVERSIDE""",41.48869,-71.44662,2351509,13:22:00,13:22:00,13,0,64,http://www.ripta.com/64,Saturday
1395,"""BOSTON NECK FS S FERRY""",41.492364,-71.437984,2351509,13:23:00,13:23:00,14,0,64,http://www.ripta.com/64,Saturday
1455,"""BOSTON NECK OPP EDGEWATER""",41.494793,-71.437764,2351509,13:23:00,13:23:00,15,0,64,http://www.ripta.com/64,Saturday
1535,"""BOSTON NECK FS BANFIELD""",41.497986,-71.4363,2351509,13:23:00,13:23:00,16,0,64,http://www.ripta.com/64,Saturday
1610,"""BOSTON NECK OPP RIVERDELL""",41.500947,-71.433596,2351509,13:24:00,13:24:00,17,0,64,http://www.ripta.com/64,Saturday
1725,"""BOSTON NECK FS MINER""",41.504953,-71.428414,2351509,13:25:00,13:25:00,18,0,64,http://www.ripta.com/64,Saturday
1875,"""BOSTON NECK NS FERRY""",41.507607,-71.42496,2351509,13:25:00,13:25:00,19,0,64,http://www.ripta.com/64,Saturday
2070,"""BOSTON NECK FS CHARLOTTE""",41.516702,-71.42324,2351509,13:26:00,13:26:00,20,0,64,http://www.ripta.com/64,Saturday
58605,"""BOSTON NECK NS HIGHLAND""",41.52004,-71.423987,2351509,13:27:00,13:27:00,21,0,64,http://www.ripta.com/64,Saturday
2250,"""BOSTON NECK OPP SNUFF MILL""",41.52242,-71.423628,2351509,13:27:00,13:27:00,22,0,64,http://www.ripta.com/64,Saturday
2320,"""BOSTON NECK OPP 1865 BOSTON NECK""",41.524558,-71.423991,2351509,13:27:00,13:27:00,23,0,64,http://www.ripta.com/64,Saturday
70600,"""RT 1A & RT 138 PARK&RIDE""",41.526983,-71.425462,2351509,13:28:00,13:28:00,24,0,64,http://www.ripta.com/64,Saturday
2361,"""TASHTASSUCK FS HELM""",41.525592,-71.385276,2351509,13:32:00,13:32:00,25,0,64,http://www.ripta.com/64,Saturday
72180,"""NORTH NS WATSON""",41.498149,-71.374706,2351509,13:37:00,13:37:00,26,0,64,http://www.ripta.com/64,Saturday
57405,"""NORTH AT 83 NORTH RD""",41.50085,-71.374766,2351509,13:38:00,13:38:00,27,0,64,http://www.ripta.com/64,Saturday
1505,"""NORTH NS AT 1 NORTH RD""",41.496551,-71.374702,2351509,13:38:00,13:38:00,28,0,64,http://www.ripta.com/64,Saturday
1495,"""NARRAGANSETT FS HOWLAND""",41.496192,-71.371722,2351509,13:39:00,13:39:00,29,0,64,http://www.ripta.com/64,Saturday
57510,"""NARRAGANSETT NS GREEN""",41.496246,-71.36939,2351509,13:39:00,13:39:00,30,0,64,http://www.ripta.com/64,Saturday
1526,"""CONANICUS FS NARRAGANSETT""",41.496595,-71.367009,2351509,13:39:00,13:39:00,31,0,64,http://www.ripta.com/64,Saturday
1745,"""CONANICUS NS MT HOPE""",41.504757,-71.364472,2351509,13:40:00,13:40:00,32,0,64,http://www.ripta.com/64,Saturday
59270,"""ADM KALBFUS OPP HALSEY (WASTE MANAGEMENT)""",41.507589,-71.314548,2351509,13:50:00,13:50:00,33,0,64,http://www.ripta.com/64,Saturday
1835,"""CONNELL HWAY OPP NISSAN VOLVO""",41.508102,-71.317583,2351509,13:50:00,13:50:00,34,0,64,http://www.ripta.com/64,Saturday
1895,"""NEWPORT TOWNE CENTER (STOP&SHOP)""",41.508474,-71.31643,2351509,13:50:00,13:50:00,35,0,64,http://www.ripta.com/64,Saturday
1890,"""NEWPORT TOWNE CENTER (WALMART)""",41.510625,-71.316887,2351509,13:51:00,13:51:00,36,0,64,http://www.ripta.com/64,Saturday
1870,"""NEWPORT TOWNE CENTER (LAUNDROMAT)""",41.511926,-71.317415,2351509,13:51:00,13:51:00,37,0,64,http://www.ripta.com/64,Saturday
2020,"""CONNELL HWAY NS MAPLE""",41.515053,-71.316041,2351509,13:51:00,13:51:00,38,0,64,http://www.ripta.com/64,Saturday
2090,"""CODDINGTON NS JOHN CHAFEE BLVD""",41.518131,-71.313698,2351509,13:52:00,13:52:00,39,0,64,http://www.ripta.com/64,Saturday
58145,"""CCRI (NEWPORT CAMPUS)""",41.51735,-71.31302,2351509,13:52:00,13:52:00,40,0,64,http://www.ripta.com/64,Saturday
2025,"""CONNELL OPP HILLMART""",41.515038,-71.316217,2351509,13:53:00,13:53:00,41,0,64,http://www.ripta.com/64,Saturday
1865,"""CONNELL  HWAY AT NEWPORT ADULTS VIDEO""",41.511545,-71.318059,2351509,13:54:00,13:54:00,42,0,64,http://www.ripta.com/64,Saturday
1775,"""CONNELL HWAY AT NEWPORT TIRE""",41.507682,-71.317696,2351509,13:55:00,13:55:00,43,0,64,http://www.ripta.com/64,Saturday
57760,"""ADM KALBFUS AT ROLLING GREEN APTS""",41.506826,-71.319378,2351509,13:56:00,13:56:00,44,0,64,http://www.ripta.com/64,Saturday
1695,"""THIRD OPP DYERS GATE""",41.503582,-71.320243,2351509,13:57:00,13:57:00,45,0,64,http://www.ripta.com/64,Saturday
1650,"""THIRD OPP BAYSIDE VILLAGE""",41.501766,-71.320017,2351509,13:57:00,13:57:00,46,0,64,http://www.ripta.com/64,Saturday
1600,"""THIRD FS CYPRESS""",41.499988,-71.319747,2351509,13:58:00,13:58:00,47,0,64,http://www.ripta.com/64,Saturday
56705,"""SECOND OPP 103 SECOND""",41.498628,-71.320415,2351509,13:58:00,13:58:00,48,0,64,http://www.ripta.com/64,Saturday
56710,"""SECOND NS PINE""",41.496743,-71.320205,2351509,13:59:00,13:59:00,49,0,64,http://www.ripta.com/64,Saturday
56720,"""SECOND NS POPLAR""",41.493479,-71.319751,2351509,14:00:00,14:00:00,50,0,64,http://www.ripta.com/64,Saturday
56725,"""SECOND NS MARSH""",41.491483,-71.31948,2351509,14:00:00,14:00:00,51,0,64,http://www.ripta.com/64,Saturday
1383,"""GATEWAY CENTER AT 64 BUS BERTH""",41.491485,-71.317772,2351509,14:01:00,14:01:00,52,0,64,http://www.ripta.com/64,Saturday
1230,"""KINGSTON RAILROAD STATION""",41.484102,-71.560243,2351510,17:30:00,17:30:00,1,0,64,http://www.ripta.com/64,Saturday
50675,"""KINGSTOWN FS WATSON""",41.483611,-71.555325,2351510,17:31:00,17:31:00,2,0,64,http://www.ripta.com/64,Saturday
50680,"""KINGSTOWN NS TLC COFFEE ROASTERS""",41.483126,-71.552351,2351510,17:31:00,17:31:00,3,0,64,http://www.ripta.com/64,Saturday
50685,"""KINGSTOWN OPP W INDEPENDENCE WAY""",41.482704,-71.540456,2351510,17:33:00,17:33:00,4,0,64,http://www.ripta.com/64,Saturday
50690,"""KINGSTOWN OPP RYAN CENTER""",41.482359,-71.538198,2351510,17:34:00,17:34:00,5,0,64,http://www.ripta.com/64,Saturday
1140,"""LOWER COLLEGE NS BAYBERRY""",41.482182,-71.529691,2351510,17:35:00,17:35:00,6,0,64,http://www.ripta.com/64,Saturday
1225,"""URI STUDENT UNION""",41.484315,-71.529311,2351510,17:36:00,17:36:00,7,0,64,http://www.ripta.com/64,Saturday
1185,"""UPPER COLLEGE FS CAMPUS""",41.482725,-71.525816,2351510,17:36:00,17:36:00,8,0,64,http://www.ripta.com/64,Saturday
1120,"""UPPER COLLEGE NS RT 138""",41.48119,-71.525551,2351510,17:37:00,17:37:00,9,0,64,http://www.ripta.com/64,Saturday
1125,"""KINGSTOWN AT GRAD VILLAGE APTS""",41.482005,-71.535882,2351510,17:39:00,17:39:00,10,0,64,http://www.ripta.com/64,Saturday
57530,"""RT 138 NS RT 1""",41.494629,-71.456956,2351510,17:45:00,17:45:00,11,0,64,http://www.ripta.com/64,Saturday
57535,"""BRIDGETOWN FS RT 1""",41.494559,-71.456021,2351510,17:45:00,17:45:00,12,0,64,http://www.ripta.com/64,Saturday
57540,"""BRIDGETOWN FS RIVERSIDE""",41.48869,-71.44662,2351510,17:47:00,17:47:00,13,0,64,http://www.ripta.com/64,Saturday
1395,"""BOSTON NECK FS S FERRY""",41.492364,-71.437984,2351510,17:48:00,17:48:00,14,0,64,http://www.ripta.com/64,Saturday
1455,"""BOSTON NECK OPP EDGEWATER""",41.494793,-71.437764,2351510,17:48:00,17:48:00,15,0,64,http://www.ripta.com/64,Saturday
1535,"""BOSTON NECK FS BANFIELD""",41.497986,-71.4363,2351510,17:48:00,17:48:00,16,0,64,http://www.ripta.com/64,Saturday
1610,"""BOSTON NECK OPP RIVERDELL""",41.500947,-71.433596,2351510,17:49:00,17:49:00,17,0,64,http://www.ripta.com/64,Saturday
1725,"""BOSTON NECK FS MINER""",41.504953,-71.428414,2351510,17:50:00,17:50:00,18,0,64,http://www.ripta.com/64,Saturday
1875,"""BOSTON NECK NS FERRY""",41.507607,-71.42496,2351510,17:50:00,17:50:00,19,0,64,http://www.ripta.com/64,Saturday
2070,"""BOSTON NECK FS CHARLOTTE""",41.516702,-71.42324,2351510,17:51:00,17:51:00,20,0,64,http://www.ripta.com/64,Saturday
58605,"""BOSTON NECK NS HIGHLAND""",41.52004,-71.423987,2351510,17:52:00,17:52:00,21,0,64,http://www.ripta.com/64,Saturday
2250,"""BOSTON NECK OPP SNUFF MILL""",41.52242,-71.423628,2351510,17:52:00,17:52:00,22,0,64,http://www.ripta.com/64,Saturday
2320,"""BOSTON NECK OPP 1865 BOSTON NECK""",41.524558,-71.423991,2351510,17:52:00,17:52:00,23,0,64,http://www.ripta.com/64,Saturday
70600,"""RT 1A & RT 138 PARK&RIDE""",41.526983,-71.425462,2351510,17:53:00,17:53:00,24,0,64,http://www.ripta.com/64,Saturday
2361,"""TASHTASSUCK FS HELM""",41.525592,-71.385276,2351510,17:57:00,17:57:00,25,0,64,http://www.ripta.com/64,Saturday
72180,"""NORTH NS WATSON""",41.498149,-71.374706,2351510,18:02:00,18:02:00,26,0,64,http://www.ripta.com/64,Saturday
57405,"""NORTH AT 83 NORTH RD""",41.50085,-71.374766,2351510,18:03:00,18:03:00,27,0,64,http://www.ripta.com/64,Saturday
1505,"""NORTH NS AT 1 NORTH RD""",41.496551,-71.374702,2351510,18:03:00,18:03:00,28,0,64,http://www.ripta.com/64,Saturday
1495,"""NARRAGANSETT FS HOWLAND""",41.496192,-71.371722,2351510,18:04:00,18:04:00,29,0,64,http://www.ripta.com/64,Saturday
57510,"""NARRAGANSETT NS GREEN""",41.496246,-71.36939,2351510,18:04:00,18:04:00,30,0,64,http://www.ripta.com/64,Saturday
1526,"""CONANICUS FS NARRAGANSETT""",41.496595,-71.367009,2351510,18:04:00,18:04:00,31,0,64,http://www.ripta.com/64,Saturday
1745,"""CONANICUS NS MT HOPE""",41.504757,-71.364472,2351510,18:05:00,18:05:00,32,0,64,http://www.ripta.com/64,Saturday
59270,"""ADM KALBFUS OPP HALSEY (WASTE MANAGEMENT)""",41.507589,-71.314548,2351510,18:15:00,18:15:00,33,0,64,http://www.ripta.com/64,Saturday
1835,"""CONNELL HWAY OPP NISSAN VOLVO""",41.508102,-71.317583,2351510,18:15:00,18:15:00,34,0,64,http://www.ripta.com/64,Saturday
1895,"""NEWPORT TOWNE CENTER (STOP&SHOP)""",41.508474,-71.31643,2351510,18:15:00,18:15:00,35,0,64,http://www.ripta.com/64,Saturday
1890,"""NEWPORT TOWNE CENTER (WALMART)""",41.510625,-71.316887,2351510,18:16:00,18:16:00,36,0,64,http://www.ripta.com/64,Saturday
1870,"""NEWPORT TOWNE CENTER (LAUNDROMAT)""",41.511926,-71.317415,2351510,18:16:00,18:16:00,37,0,64,http://www.ripta.com/64,Saturday
2020,"""CONNELL HWAY NS MAPLE""",41.515053,-71.316041,2351510,18:16:00,18:16:00,38,0,64,http://www.ripta.com/64,Saturday
2090,"""CODDINGTON NS JOHN CHAFEE BLVD""",41.518131,-71.313698,2351510,18:17:00,18:17:00,39,0,64,http://www.ripta.com/64,Saturday
58145,"""CCRI (NEWPORT CAMPUS)""",41.51735,-71.31302,2351510,18:17:00,18:17:00,40,0,64,http://www.ripta.com/64,Saturday
2025,"""CONNELL OPP HILLMART""",41.515038,-71.316217,2351510,18:18:00,18:18:00,41,0,64,http://www.ripta.com/64,Saturday
1865,"""CONNELL  HWAY AT NEWPORT ADULTS VIDEO""",41.511545,-71.318059,2351510,18:19:00,18:19:00,42,0,64,http://www.ripta.com/64,Saturday
1775,"""CONNELL HWAY AT NEWPORT TIRE""",41.507682,-71.317696,2351510,18:20:00,18:20:00,43,0,64,http://www.ripta.com/64,Saturday
57760,"""ADM KALBFUS AT ROLLING GREEN APTS""",41.506826,-71.319378,2351510,18:21:00,18:21:00,44,0,64,http://www.ripta.com/64,Saturday
1695,"""THIRD OPP DYERS GATE""",41.503582,-71.320243,2351510,18:22:00,18:22:00,45,0,64,http://www.ripta.com/64,Saturday
1650,"""THIRD OPP BAYSIDE VILLAGE""",41.501766,-71.320017,2351510,18:22:00,18:22:00,46,0,64,http://www.ripta.com/64,Saturday
1600,"""THIRD FS CYPRESS""",41.499988,-71.319747,2351510,18:23:00,18:23:00,47,0,64,http://www.ripta.com/64,Saturday
56705,"""SECOND OPP 103 SECOND""",41.498628,-71.320415,2351510,18:23:00,18:23:00,48,0,64,http://www.ripta.com/64,Saturday
56710,"""SECOND NS PINE""",41.496743,-71.320205,2351510,18:24:00,18:24:00,49,0,64,http://www.ripta.com/64,Saturday
56720,"""SECOND NS POPLAR""",41.493479,-71.319751,2351510,18:25:00,18:25:00,50,0,64,http://www.ripta.com/64,Saturday
56725,"""SECOND NS MARSH""",41.491483,-71.31948,2351510,18:25:00,18:25:00,51,0,64,http://www.ripta.com/64,Saturday
1383,"""GATEWAY CENTER AT 64 BUS BERTH""",41.491485,-71.317772,2351510,18:26:00,18:26:00,52,0,64,http://www.ripta.com/64,Saturday
72370,"""MET SCHOOL NEWPORT""",41.51407,-71.313584,2391170,15:10:00,15:10:00,1,1,64,http://www.ripta.com/64,Weekday
2025,"""CONNELL OPP HILLMART""",41.515038,-71.316217,2391170,15:11:00,15:11:00,2,1,64,http://www.ripta.com/64,Weekday
1865,"""CONNELL  HWAY AT NEWPORT ADULTS VIDEO""",41.511545,-71.318059,2391170,15:11:00,15:11:00,3,1,64,http://www.ripta.com/64,Weekday
1775,"""CONNELL HWAY AT NEWPORT TIRE""",41.507682,-71.317696,2391170,15:12:00,15:12:00,4,1,64,http://www.ripta.com/64,Weekday
70600,"""RT 1A & RT 138 PARK&RIDE""",41.526983,-71.425462,2391170,15:30:00,15:30:00,5,1,64,http://www.ripta.com/64,Weekday
2325,"""BOSTON NECK NS BARBERS HEIGHTS""",41.524298,-71.424082,2391170,15:30:00,15:30:00,6,1,64,http://www.ripta.com/64,Weekday
60085,"""BOSTON NECK FS SNUFF MILL""",41.522243,-71.42384,2391170,15:31:00,15:31:00,7,1,64,http://www.ripta.com/64,Weekday
2245,"""BOSTON NECK FS HOMESTEAD""",41.521254,-71.424046,2391170,15:31:00,15:31:00,8,1,64,http://www.ripta.com/64,Weekday
60090,"""BOSTON NECK OPP 2080 BOSTON NECK""",41.519246,-71.424093,2391170,15:31:00,15:31:00,9,1,64,http://www.ripta.com/64,Weekday
2065,"""BOSTON NECK OPP CHARLOTTE""",41.516748,-71.423412,2391170,15:31:00,15:31:00,10,1,64,http://www.ripta.com/64,Weekday
1880,"""BOSTON NECK FS FERRY""",41.507661,-71.425119,2391170,15:33:00,15:33:00,11,1,64,http://www.ripta.com/64,Weekday
1730,"""BOSTON NECK NS MINER""",41.505015,-71.42862,2391170,15:33:00,15:33:00,12,1,64,http://www.ripta.com/64,Weekday
1660,"""BOSTON NECK NS INDIAN TRAIL""",41.502256,-71.43213,2391170,15:34:00,15:34:00,13,1,64,http://www.ripta.com/64,Weekday
1615,"""BOSTON NECK NS RIVERDELL""",41.500993,-71.433797,2391170,15:34:00,15:34:00,14,1,64,http://www.ripta.com/64,Weekday
1545,"""BOSTON NECK NS PETTAQUAMSCUTT LAKE""",41.497967,-71.436521,2391170,15:34:00,15:34:00,15,1,64,http://www.ripta.com/64,Weekday
1450,"""BOSTON LAKE NS EDGEWATER RD""",41.494846,-71.437896,2391170,15:35:00,15:35:00,16,1,64,http://www.ripta.com/64,Weekday
1400,"""BOSTON NECK NS BRIDGETOWN""",41.492409,-71.43815,2391170,15:35:00,15:35:00,17,1,64,http://www.ripta.com/64,Weekday
57555,"""BRIDGETOWN AT 130 BRIDGETOWN""",41.49033,-71.445921,2391170,15:36:00,15:36:00,18,1,64,http://www.ripta.com/64,Weekday
57560,"""BRIDGETOWN NS WALMSLEY""",41.488291,-71.449408,2391170,15:37:00,15:37:00,19,1,64,http://www.ripta.com/64,Weekday
57565,"""RT 138 AT 61 MOORESVILLE RD""",41.494603,-71.458699,2391170,15:38:00,15:38:00,20,1,64,http://www.ripta.com/64,Weekday
1075,"""KINGSTOWN FS NORTH RD""",41.480003,-71.522949,2391170,15:46:00,15:46:00,21,1,64,http://www.ripta.com/64,Weekday
1085,"""KINGSTOWN AT 2579 KINGSTOWN RD""",41.480197,-71.524366,2391170,15:46:00,15:46:00,22,1,64,http://www.ripta.com/64,Weekday
1180,"""UPPER COLLEGE NS CAMPUS""",41.482731,-71.525703,2391170,15:46:00,15:46:00,23,1,64,http://www.ripta.com/64,Weekday
1190,"""CAMPUS AT COLLEGE OF PHARMACY""",41.483487,-71.528164,2391170,15:47:00,15:47:00,24,1,64,http://www.ripta.com/64,Weekday
1225,"""URI STUDENT UNION""",41.484315,-71.529311,2391170,15:47:00,15:47:00,25,1,64,http://www.ripta.com/64,Weekday
