stop_id,stop_name,stop_lat,stop_lon,trip_id,arrival_time,departure_time,stop_sequence,direction_id,route_id,route_url,serviceid
70330,"""SAYLES FS BRIDGEWAY""",41.956493,-71.702677,2394683,06:46:00,06:46:00,1,0,9,http://www.ripta.com/9,Weekday
24995,"""MAIN FS ELM""",41.960612,-71.699877,2394683,06:47:00,06:47:00,2,0,9,http://www.ripta.com/9,Weekday
25100,"""CHAPEL OPP CHUM BLVD""",41.966934,-71.690851,2394683,06:49:00,06:49:00,3,0,9,http://www.ripta.com/9,Weekday
60155,"""CHAPEL FS RAILROAD""",41.968196,-71.688117,2394683,06:50:00,06:50:00,4,0,9,http://www.ripta.com/9,Weekday
25125,"""CHAPEL NS FOSTER""",41.967568,-71.682526,2394683,06:50:00,06:50:00,5,0,9,http://www.ripta.com/9,Weekday
25110,"""CHAPEL NS MAIN""",41.96634,-71.678843,2394683,06:51:00,06:51:00,6,0,9,http://www.ripta.com/9,Weekday
25030,"""CENTRAL AT 73 CENTRAL""",41.962265,-71.671261,2394683,06:52:00,06:52:00,7,0,9,http://www.ripta.com/9,Weekday
24985,"""CENTRAL NS CORRIE LANE""",41.958838,-71.659908,2394683,06:54:00,06:54:00,8,0,9,http://www.ripta.com/9,Weekday
51120,"""CENTRAL NS VICTORY HWY""",41.955001,-71.65204,2394683,06:55:00,06:55:00,9,0,9,http://www.ripta.com/9,Weekday
24945,"""VICTORY HWY AT 919 VICTORY HWY""",41.951837,-71.649344,2394683,06:56:00,06:56:00,10,0,9,http://www.ripta.com/9,Weekday
24875,"""VICTORY HWAY NS LAPHAM""",41.943199,-71.657526,2394683,06:57:00,06:57:00,11,0,9,http://www.ripta.com/9,Weekday
59990,"""RT 102 NS CROSS""",41.927198,-71.669337,2394683,07:00:00,07:00:00,12,0,9,http://www.ripta.com/9,Weekday
59995,"""RT 102 AT 56 RT 102""",41.921386,-71.670556,2394683,07:01:00,07:01:00,13,0,9,http://www.ripta.com/9,Weekday
51105,"""RT 102 NS RT 44""",41.916273,-71.671686,2394683,07:02:00,07:02:00,14,0,9,http://www.ripta.com/9,Weekday
24445,"""PUTNAM PIKE OPP 1109 PUTNAM PIKE""",41.910062,-71.668357,2394683,07:03:00,07:03:00,15,0,9,http://www.ripta.com/9,Weekday
24410,"""PUTNAM PIKE AT CVS PHARMACY""",41.907594,-71.666637,2394683,07:03:00,07:03:00,16,0,9,http://www.ripta.com/9,Weekday
51110,"""PUTNAM PIKE AT DUNKIN DONUTS""",41.906556,-71.660513,2394683,07:04:00,07:04:00,17,0,9,http://www.ripta.com/9,Weekday
51115,"""PUTNAM PIKE OPP HIGHLAND LAKE""",41.905391,-71.654335,2394683,07:04:00,07:04:00,18,0,9,http://www.ripta.com/9,Weekday
24320,"""PUTNAM PIKE FS LEE""",41.9051,-71.650989,2394683,07:05:00,07:05:00,19,0,9,http://www.ripta.com/9,Weekday
58385,"""PUTNAM PIKE NS TERRY LANE""",41.904888,-71.647124,2394683,07:05:00,07:05:00,20,0,9,http://www.ripta.com/9,Weekday
24310,"""PUTNAM PIKE NS PINEWOOD PARK""",41.903629,-71.635914,2394683,07:06:00,07:06:00,21,0,9,http://www.ripta.com/9,Weekday
24285,"""PUTNAM PIKE OPP GENTLEMENS FARMER""",41.897502,-71.629654,2394683,07:07:00,07:07:00,22,0,9,http://www.ripta.com/9,Weekday
24065,"""PUTNAM PIKE OPP ABSALONA HILL RD""",41.896106,-71.617496,2394683,07:08:00,07:08:00,23,0,9,http://www.ripta.com/9,Weekday
60000,"""PUTNAM PIKE AT 208 PUTNAM PIKE""",41.890302,-71.602171,2394683,07:10:00,07:10:00,24,0,9,http://www.ripta.com/9,Weekday
23590,"""PUTNAM PIKE OPP 199 PUTNAM PIKE""",41.887686,-71.59616,2394683,07:11:00,07:11:00,25,0,9,http://www.ripta.com/9,Weekday
58390,"""PUTNAM PIKE NS LAKE HARMONY DR""",41.885595,-71.587248,2394683,07:11:00,07:11:00,26,0,9,http://www.ripta.com/9,Weekday
23455,"""PUTNAM PIKE AT 66 PUTNAM PIKE""",41.884631,-71.584248,2394683,07:12:00,07:12:00,27,0,9,http://www.ripta.com/9,Weekday
22825,"""PUTNAM PIKE OPP WINDY HILL""",41.882515,-71.580512,2394683,07:12:00,07:12:00,28,0,9,http://www.ripta.com/9,Weekday
60005,"""PUTNAME PIKE AT 120 PUTNAME PIKE""",41.879105,-71.575233,2394683,07:13:00,07:13:00,29,0,9,http://www.ripta.com/9,Weekday
22795,"""PUTNAM PIKE FS W GREENVILLE""",41.877892,-71.571859,2394683,07:13:00,07:13:00,30,0,9,http://www.ripta.com/9,Weekday
58395,"""PUTNAM PIKE NS VERNON""",41.876675,-71.568805,2394683,07:13:00,07:13:00,31,0,9,http://www.ripta.com/9,Weekday
60010,"""PUTNAM PIKE AT CORY'S""",41.875868,-71.566254,2394683,07:14:00,07:14:00,32,0,9,http://www.ripta.com/9,Weekday
22485,"""PUTNAM PIKE NS ARTHUR""",41.874683,-71.562504,2394683,07:14:00,07:14:00,33,0,9,http://www.ripta.com/9,Weekday
22310,"""PUTNAM PIKE AT ST PHILLIPS SCHOOL""",41.873668,-71.558747,2394683,07:14:00,07:14:00,34,0,9,http://www.ripta.com/9,Weekday
60135,"""PUTNAM PIKE AT 590 PUTNAM PIKE""",41.87263,-71.554862,2394683,07:15:00,07:15:00,35,0,9,http://www.ripta.com/9,Weekday
22155,"""PUTNAM PIKE NS SMITH AVE""",41.871352,-71.552788,2394683,07:15:00,07:15:00,36,0,9,http://www.ripta.com/9,Weekday
22095,"""PUTNAM PIKE AT 566 PUTNAM PIKE""",41.870853,-71.54997,2394683,07:15:00,07:15:00,37,0,9,http://www.ripta.com/9,Weekday
22045,"""PUTNAM PIKE NS CRESTVIEW""",41.870336,-71.545237,2394683,07:16:00,07:16:00,38,0,9,http://www.ripta.com/9,Weekday
21995,"""PUTNAM PIKE NS MAPLECREST""",41.870201,-71.541834,2394683,07:16:00,07:16:00,39,0,9,http://www.ripta.com/9,Weekday
21965,"""PUTNAM PIKE OPP DANECROFT""",41.870086,-71.539093,2394683,07:17:00,07:17:00,40,0,9,http://www.ripta.com/9,Weekday
21940,"""PUTNAM PIKE AT 458 PUTNAM PIKE""",41.870127,-71.535354,2394683,07:17:00,07:17:00,41,0,9,http://www.ripta.com/9,Weekday
21835,"""STOP&SHOP (PUTNAM PIKE - SMITHFIELD)""",41.868633,-71.532351,2394683,07:18:00,07:18:00,42,0,9,http://www.ripta.com/9,Weekday
70800,"""COMMERCE NS PUTNAM PIKE""",41.869415,-71.534554,2394683,07:20:00,07:20:00,43,0,9,http://www.ripta.com/9,Weekday
21950,"""PUTNAM PIKE NS SANDERSON""",41.870177,-71.53166,2394683,07:20:00,07:20:00,44,0,9,http://www.ripta.com/9,Weekday
21930,"""PUTNAM PIKE OPP TACO BELL""",41.870076,-71.528222,2394683,07:21:00,07:21:00,45,0,9,http://www.ripta.com/9,Weekday
72430,"""PUTNAM PIKE OPP LEVI LANE""",41.870043,-71.522106,2394683,07:21:00,07:21:00,46,0,9,http://www.ripta.com/9,Weekday
16035,"""SABIN MIDBLOCK RI CONVENTION CTR""",41.823682,-71.416802,2394683,07:41:00,07:41:00,47,0,9,http://www.ripta.com/9,Weekday
15575,"""EMPIRE OPP WESTMINSTER""",41.821,-71.415397,2394683,07:42:00,07:42:00,48,0,9,http://www.ripta.com/9,Weekday
15880,"""WEYBOSSET OPP EDDY""",41.822625,-71.41138,2394683,07:44:00,07:44:00,49,0,9,http://www.ripta.com/9,Weekday
16385,"""WEYBOSSET NS POST OFFICE CT""",41.824554,-71.409645,2394683,07:46:00,07:46:00,50,0,9,http://www.ripta.com/9,Weekday
16720,"""KENNEDY PLAZA (STOP X)""",41.825999,-71.412244,2394683,07:48:00,07:48:00,51,0,9,http://www.ripta.com/9,Weekday
70330,"""SAYLES FS BRIDGEWAY""",41.956493,-71.702677,2394684,07:17:00,07:17:00,1,0,9,http://www.ripta.com/9,Weekday
24995,"""MAIN FS ELM""",41.960612,-71.699877,2394684,07:18:00,07:18:00,2,0,9,http://www.ripta.com/9,Weekday
25100,"""CHAPEL OPP CHUM BLVD""",41.966934,-71.690851,2394684,07:20:00,07:20:00,3,0,9,http://www.ripta.com/9,Weekday
60155,"""CHAPEL FS RAILROAD""",41.968196,-71.688117,2394684,07:21:00,07:21:00,4,0,9,http://www.ripta.com/9,Weekday
25125,"""CHAPEL NS FOSTER""",41.967568,-71.682526,2394684,07:21:00,07:21:00,5,0,9,http://www.ripta.com/9,Weekday
25110,"""CHAPEL NS MAIN""",41.96634,-71.678843,2394684,07:22:00,07:22:00,6,0,9,http://www.ripta.com/9,Weekday
25030,"""CENTRAL AT 73 CENTRAL""",41.962265,-71.671261,2394684,07:23:00,07:23:00,7,0,9,http://www.ripta.com/9,Weekday
24985,"""CENTRAL NS CORRIE LANE""",41.958838,-71.659908,2394684,07:25:00,07:25:00,8,0,9,http://www.ripta.com/9,Weekday
51120,"""CENTRAL NS VICTORY HWY""",41.955001,-71.65204,2394684,07:26:00,07:26:00,9,0,9,http://www.ripta.com/9,Weekday
24945,"""VICTORY HWY AT 919 VICTORY HWY""",41.951837,-71.649344,2394684,07:27:00,07:27:00,10,0,9,http://www.ripta.com/9,Weekday
24875,"""VICTORY HWAY NS LAPHAM""",41.943199,-71.657526,2394684,07:28:00,07:28:00,11,0,9,http://www.ripta.com/9,Weekday
59990,"""RT 102 NS CROSS""",41.927198,-71.669337,2394684,07:31:00,07:31:00,12,0,9,http://www.ripta.com/9,Weekday
59995,"""RT 102 AT 56 RT 102""",41.921386,-71.670556,2394684,07:32:00,07:32:00,13,0,9,http://www.ripta.com/9,Weekday
51105,"""RT 102 NS RT 44""",41.916273,-71.671686,2394684,07:33:00,07:33:00,14,0,9,http://www.ripta.com/9,Weekday
24445,"""PUTNAM PIKE OPP 1109 PUTNAM PIKE""",41.910062,-71.668357,2394684,07:34:00,07:34:00,15,0,9,http://www.ripta.com/9,Weekday
24410,"""PUTNAM PIKE AT CVS PHARMACY""",41.907594,-71.666637,2394684,07:34:00,07:34:00,16,0,9,http://www.ripta.com/9,Weekday
51110,"""PUTNAM PIKE AT DUNKIN DONUTS""",41.906556,-71.660513,2394684,07:35:00,07:35:00,17,0,9,http://www.ripta.com/9,Weekday
51115,"""PUTNAM PIKE OPP HIGHLAND LAKE""",41.905391,-71.654335,2394684,07:35:00,07:35:00,18,0,9,http://www.ripta.com/9,Weekday
24320,"""PUTNAM PIKE FS LEE""",41.9051,-71.650989,2394684,07:36:00,07:36:00,19,0,9,http://www.ripta.com/9,Weekday
58385,"""PUTNAM PIKE NS TERRY LANE""",41.904888,-71.647124,2394684,07:36:00,07:36:00,20,0,9,http://www.ripta.com/9,Weekday
24310,"""PUTNAM PIKE NS PINEWOOD PARK""",41.903629,-71.635914,2394684,07:37:00,07:37:00,21,0,9,http://www.ripta.com/9,Weekday
24285,"""PUTNAM PIKE OPP GENTLEMENS FARMER""",41.897502,-71.629654,2394684,07:38:00,07:38:00,22,0,9,http://www.ripta.com/9,Weekday
24065,"""PUTNAM PIKE OPP ABSALONA HILL RD""",41.896106,-71.617496,2394684,07:39:00,07:39:00,23,0,9,http://www.ripta.com/9,Weekday
60000,"""PUTNAM PIKE AT 208 PUTNAM PIKE""",41.890302,-71.602171,2394684,07:41:00,07:41:00,24,0,9,http://www.ripta.com/9,Weekday
23590,"""PUTNAM PIKE OPP 199 PUTNAM PIKE""",41.887686,-71.59616,2394684,07:42:00,07:42:00,25,0,9,http://www.ripta.com/9,Weekday
58390,"""PUTNAM PIKE NS LAKE HARMONY DR""",41.885595,-71.587248,2394684,07:42:00,07:42:00,26,0,9,http://www.ripta.com/9,Weekday
23455,"""PUTNAM PIKE AT 66 PUTNAM PIKE""",41.884631,-71.584248,2394684,07:43:00,07:43:00,27,0,9,http://www.ripta.com/9,Weekday
22825,"""PUTNAM PIKE OPP WINDY HILL""",41.882515,-71.580512,2394684,07:43:00,07:43:00,28,0,9,http://www.ripta.com/9,Weekday
60005,"""PUTNAME PIKE AT 120 PUTNAME PIKE""",41.879105,-71.575233,2394684,07:44:00,07:44:00,29,0,9,http://www.ripta.com/9,Weekday
22795,"""PUTNAM PIKE FS W GREENVILLE""",41.877892,-71.571859,2394684,07:44:00,07:44:00,30,0,9,http://www.ripta.com/9,Weekday
58395,"""PUTNAM PIKE NS VERNON""",41.876675,-71.568805,2394684,07:44:00,07:44:00,31,0,9,http://www.ripta.com/9,Weekday
60010,"""PUTNAM PIKE AT CORY'S""",41.875868,-71.566254,2394684,07:45:00,07:45:00,32,0,9,http://www.ripta.com/9,Weekday
22485,"""PUTNAM PIKE NS ARTHUR""",41.874683,-71.562504,2394684,07:45:00,07:45:00,33,0,9,http://www.ripta.com/9,Weekday
22310,"""PUTNAM PIKE AT ST PHILLIPS SCHOOL""",41.873668,-71.558747,2394684,07:45:00,07:45:00,34,0,9,http://www.ripta.com/9,Weekday
60135,"""PUTNAM PIKE AT 590 PUTNAM PIKE""",41.87263,-71.554862,2394684,07:46:00,07:46:00,35,0,9,http://www.ripta.com/9,Weekday
22155,"""PUTNAM PIKE NS SMITH AVE""",41.871352,-71.552788,2394684,07:46:00,07:46:00,36,0,9,http://www.ripta.com/9,Weekday
22095,"""PUTNAM PIKE AT 566 PUTNAM PIKE""",41.870853,-71.54997,2394684,07:46:00,07:46:00,37,0,9,http://www.ripta.com/9,Weekday
22045,"""PUTNAM PIKE NS CRESTVIEW""",41.870336,-71.545237,2394684,07:47:00,07:47:00,38,0,9,http://www.ripta.com/9,Weekday
21995,"""PUTNAM PIKE NS MAPLECREST""",41.870201,-71.541834,2394684,07:47:00,07:47:00,39,0,9,http://www.ripta.com/9,Weekday
21965,"""PUTNAM PIKE OPP DANECROFT""",41.870086,-71.539093,2394684,07:48:00,07:48:00,40,0,9,http://www.ripta.com/9,Weekday
21940,"""PUTNAM PIKE AT 458 PUTNAM PIKE""",41.870127,-71.535354,2394684,07:48:00,07:48:00,41,0,9,http://www.ripta.com/9,Weekday
21835,"""STOP&SHOP (PUTNAM PIKE - SMITHFIELD)""",41.868633,-71.532351,2394684,07:49:00,07:49:00,42,0,9,http://www.ripta.com/9,Weekday
70800,"""COMMERCE NS PUTNAM PIKE""",41.869415,-71.534554,2394684,07:51:00,07:51:00,43,0,9,http://www.ripta.com/9,Weekday
21950,"""PUTNAM PIKE NS SANDERSON""",41.870177,-71.53166,2394684,07:51:00,07:51:00,44,0,9,http://www.ripta.com/9,Weekday
21930,"""PUTNAM PIKE OPP TACO BELL""",41.870076,-71.528222,2394684,07:52:00,07:52:00,45,0,9,http://www.ripta.com/9,Weekday
72430,"""PUTNAM PIKE OPP LEVI LANE""",41.870043,-71.522106,2394684,07:52:00,07:52:00,46,0,9,http://www.ripta.com/9,Weekday
16035,"""SABIN MIDBLOCK RI CONVENTION CTR""",41.823682,-71.416802,2394684,08:12:00,08:12:00,47,0,9,http://www.ripta.com/9,Weekday
15575,"""EMPIRE OPP WESTMINSTER""",41.821,-71.415397,2394684,08:13:00,08:13:00,48,0,9,http://www.ripta.com/9,Weekday
15880,"""WEYBOSSET OPP EDDY""",41.822625,-71.41138,2394684,08:15:00,08:15:00,49,0,9,http://www.ripta.com/9,Weekday
16385,"""WEYBOSSET NS POST OFFICE CT""",41.824554,-71.409645,2394684,08:17:00,08:17:00,50,0,9,http://www.ripta.com/9,Weekday
16720,"""KENNEDY PLAZA (STOP X)""",41.825999,-71.412244,2394684,08:19:00,08:19:00,51,0,9,http://www.ripta.com/9,Weekday
70330,"""SAYLES FS BRIDGEWAY""",41.956493,-71.702677,2394685,09:00:00,09:00:00,1,0,9,http://www.ripta.com/9,Weekday
24995,"""MAIN FS ELM""",41.960612,-71.699877,2394685,09:01:00,09:01:00,2,0,9,http://www.ripta.com/9,Weekday
25100,"""CHAPEL OPP CHUM BLVD""",41.966934,-71.690851,2394685,09:03:00,09:03:00,3,0,9,http://www.ripta.com/9,Weekday
60155,"""CHAPEL FS RAILROAD""",41.968196,-71.688117,2394685,09:04:00,09:04:00,4,0,9,http://www.ripta.com/9,Weekday
25125,"""CHAPEL NS FOSTER""",41.967568,-71.682526,2394685,09:04:00,09:04:00,5,0,9,http://www.ripta.com/9,Weekday
25110,"""CHAPEL NS MAIN""",41.96634,-71.678843,2394685,09:05:00,09:05:00,6,0,9,http://www.ripta.com/9,Weekday
25030,"""CENTRAL AT 73 CENTRAL""",41.962265,-71.671261,2394685,09:06:00,09:06:00,7,0,9,http://www.ripta.com/9,Weekday
24985,"""CENTRAL NS CORRIE LANE""",41.958838,-71.659908,2394685,09:08:00,09:08:00,8,0,9,http://www.ripta.com/9,Weekday
51120,"""CENTRAL NS VICTORY HWY""",41.955001,-71.65204,2394685,09:09:00,09:09:00,9,0,9,http://www.ripta.com/9,Weekday
24945,"""VICTORY HWY AT 919 VICTORY HWY""",41.951837,-71.649344,2394685,09:10:00,09:10:00,10,0,9,http://www.ripta.com/9,Weekday
24875,"""VICTORY HWAY NS LAPHAM""",41.943199,-71.657526,2394685,09:11:00,09:11:00,11,0,9,http://www.ripta.com/9,Weekday
59990,"""RT 102 NS CROSS""",41.927198,-71.669337,2394685,09:14:00,09:14:00,12,0,9,http://www.ripta.com/9,Weekday
59995,"""RT 102 AT 56 RT 102""",41.921386,-71.670556,2394685,09:15:00,09:15:00,13,0,9,http://www.ripta.com/9,Weekday
51105,"""RT 102 NS RT 44""",41.916273,-71.671686,2394685,09:16:00,09:16:00,14,0,9,http://www.ripta.com/9,Weekday
24445,"""PUTNAM PIKE OPP 1109 PUTNAM PIKE""",41.910062,-71.668357,2394685,09:17:00,09:17:00,15,0,9,http://www.ripta.com/9,Weekday
24410,"""PUTNAM PIKE AT CVS PHARMACY""",41.907594,-71.666637,2394685,09:17:00,09:17:00,16,0,9,http://www.ripta.com/9,Weekday
51110,"""PUTNAM PIKE AT DUNKIN DONUTS""",41.906556,-71.660513,2394685,09:18:00,09:18:00,17,0,9,http://www.ripta.com/9,Weekday
51115,"""PUTNAM PIKE OPP HIGHLAND LAKE""",41.905391,-71.654335,2394685,09:18:00,09:18:00,18,0,9,http://www.ripta.com/9,Weekday
24320,"""PUTNAM PIKE FS LEE""",41.9051,-71.650989,2394685,09:19:00,09:19:00,19,0,9,http://www.ripta.com/9,Weekday
58385,"""PUTNAM PIKE NS TERRY LANE""",41.904888,-71.647124,2394685,09:19:00,09:19:00,20,0,9,http://www.ripta.com/9,Weekday
24310,"""PUTNAM PIKE NS PINEWOOD PARK""",41.903629,-71.635914,2394685,09:20:00,09:20:00,21,0,9,http://www.ripta.com/9,Weekday
24285,"""PUTNAM PIKE OPP GENTLEMENS FARMER""",41.897502,-71.629654,2394685,09:21:00,09:21:00,22,0,9,http://www.ripta.com/9,Weekday
24065,"""PUTNAM PIKE OPP ABSALONA HILL RD""",41.896106,-71.617496,2394685,09:22:00,09:22:00,23,0,9,http://www.ripta.com/9,Weekday
60000,"""PUTNAM PIKE AT 208 PUTNAM PIKE""",41.890302,-71.602171,2394685,09:24:00,09:24:00,24,0,9,http://www.ripta.com/9,Weekday
23590,"""PUTNAM PIKE OPP 199 PUTNAM PIKE""",41.887686,-71.59616,2394685,09:25:00,09:25:00,25,0,9,http://www.ripta.com/9,Weekday
58390,"""PUTNAM PIKE NS LAKE HARMONY DR""",41.885595,-71.587248,2394685,09:25:00,09:25:00,26,0,9,http://www.ripta.com/9,Weekday
23455,"""PUTNAM PIKE AT 66 PUTNAM PIKE""",41.884631,-71.584248,2394685,09:26:00,09:26:00,27,0,9,http://www.ripta.com/9,Weekday
22825,"""PUTNAM PIKE OPP WINDY HILL""",41.882515,-71.580512,2394685,09:26:00,09:26:00,28,0,9,http://www.ripta.com/9,Weekday
60005,"""PUTNAME PIKE AT 120 PUTNAME PIKE""",41.879105,-71.575233,2394685,09:27:00,09:27:00,29,0,9,http://www.ripta.com/9,Weekday
22795,"""PUTNAM PIKE FS W GREENVILLE""",41.877892,-71.571859,2394685,09:27:00,09:27:00,30,0,9,http://www.ripta.com/9,Weekday
58395,"""PUTNAM PIKE NS VERNON""",41.876675,-71.568805,2394685,09:27:00,09:27:00,31,0,9,http://www.ripta.com/9,Weekday
60010,"""PUTNAM PIKE AT CORY'S""",41.875868,-71.566254,2394685,09:28:00,09:28:00,32,0,9,http://www.ripta.com/9,Weekday
22485,"""PUTNAM PIKE NS ARTHUR""",41.874683,-71.562504,2394685,09:28:00,09:28:00,33,0,9,http://www.ripta.com/9,Weekday
22310,"""PUTNAM PIKE AT ST PHILLIPS SCHOOL""",41.873668,-71.558747,2394685,09:28:00,09:28:00,34,0,9,http://www.ripta.com/9,Weekday
60135,"""PUTNAM PIKE AT 590 PUTNAM PIKE""",41.87263,-71.554862,2394685,09:29:00,09:29:00,35,0,9,http://www.ripta.com/9,Weekday
22155,"""PUTNAM PIKE NS SMITH AVE""",41.871352,-71.552788,2394685,09:29:00,09:29:00,36,0,9,http://www.ripta.com/9,Weekday
22095,"""PUTNAM PIKE AT 566 PUTNAM PIKE""",41.870853,-71.54997,2394685,09:29:00,09:29:00,37,0,9,http://www.ripta.com/9,Weekday
22045,"""PUTNAM PIKE NS CRESTVIEW""",41.870336,-71.545237,2394685,09:30:00,09:30:00,38,0,9,http://www.ripta.com/9,Weekday
21995,"""PUTNAM PIKE NS MAPLECREST""",41.870201,-71.541834,2394685,09:30:00,09:30:00,39,0,9,http://www.ripta.com/9,Weekday
21965,"""PUTNAM PIKE OPP DANECROFT""",41.870086,-71.539093,2394685,09:31:00,09:31:00,40,0,9,http://www.ripta.com/9,Weekday
21940,"""PUTNAM PIKE AT 458 PUTNAM PIKE""",41.870127,-71.535354,2394685,09:31:00,09:31:00,41,0,9,http://www.ripta.com/9,Weekday
21835,"""STOP&SHOP (PUTNAM PIKE - SMITHFIELD)""",41.868633,-71.532351,2394685,09:32:00,09:32:00,42,0,9,http://www.ripta.com/9,Weekday
70800,"""COMMERCE NS PUTNAM PIKE""",41.869415,-71.534554,2394685,09:34:00,09:34:00,43,0,9,http://www.ripta.com/9,Weekday
21950,"""PUTNAM PIKE NS SANDERSON""",41.870177,-71.53166,2394685,09:34:00,09:34:00,44,0,9,http://www.ripta.com/9,Weekday
21930,"""PUTNAM PIKE OPP TACO BELL""",41.870076,-71.528222,2394685,09:35:00,09:35:00,45,0,9,http://www.ripta.com/9,Weekday
72430,"""PUTNAM PIKE OPP LEVI LANE""",41.870043,-71.522106,2394685,09:35:00,09:35:00,46,0,9,http://www.ripta.com/9,Weekday
16035,"""SABIN MIDBLOCK RI CONVENTION CTR""",41.823682,-71.416802,2394685,09:55:00,09:55:00,47,0,9,http://www.ripta.com/9,Weekday
15575,"""EMPIRE OPP WESTMINSTER""",41.821,-71.415397,2394685,09:56:00,09:56:00,48,0,9,http://www.ripta.com/9,Weekday
15880,"""WEYBOSSET OPP EDDY""",41.822625,-71.41138,2394685,09:58:00,09:58:00,49,0,9,http://www.ripta.com/9,Weekday
16385,"""WEYBOSSET NS POST OFFICE CT""",41.824554,-71.409645,2394685,10:00:00,10:00:00,50,0,9,http://www.ripta.com/9,Weekday
16720,"""KENNEDY PLAZA (STOP X)""",41.825999,-71.412244,2394685,10:02:00,10:02:00,51,0,9,http://www.ripta.com/9,Weekday
70330,"""SAYLES FS BRIDGEWAY""",41.956493,-71.702677,2394686,15:00:00,15:00:00,1,0,9,http://www.ripta.com/9,Weekday
24995,"""MAIN FS ELM""",41.960612,-71.699877,2394686,15:01:00,15:01:00,2,0,9,http://www.ripta.com/9,Weekday
25100,"""CHAPEL OPP CHUM BLVD""",41.966934,-71.690851,2394686,15:03:00,15:03:00,3,0,9,http://www.ripta.com/9,Weekday
60155,"""CHAPEL FS RAILROAD""",41.968196,-71.688117,2394686,15:04:00,15:04:00,4,0,9,http://www.ripta.com/9,Weekday
25125,"""CHAPEL NS FOSTER""",41.967568,-71.682526,2394686,15:04:00,15:04:00,5,0,9,http://www.ripta.com/9,Weekday
25110,"""CHAPEL NS MAIN""",41.96634,-71.678843,2394686,15:05:00,15:05:00,6,0,9,http://www.ripta.com/9,Weekday
25030,"""CENTRAL AT 73 CENTRAL""",41.962265,-71.671261,2394686,15:06:00,15:06:00,7,0,9,http://www.ripta.com/9,Weekday
24985,"""CENTRAL NS CORRIE LANE""",41.958838,-71.659908,2394686,15:08:00,15:08:00,8,0,9,http://www.ripta.com/9,Weekday
51120,"""CENTRAL NS VICTORY HWY""",41.955001,-71.65204,2394686,15:09:00,15:09:00,9,0,9,http://www.ripta.com/9,Weekday
24945,"""VICTORY HWY AT 919 VICTORY HWY""",41.951837,-71.649344,2394686,15:10:00,15:10:00,10,0,9,http://www.ripta.com/9,Weekday
24875,"""VICTORY HWAY NS LAPHAM""",41.943199,-71.657526,2394686,15:11:00,15:11:00,11,0,9,http://www.ripta.com/9,Weekday
59990,"""RT 102 NS CROSS""",41.927198,-71.669337,2394686,15:14:00,15:14:00,12,0,9,http://www.ripta.com/9,Weekday
59995,"""RT 102 AT 56 RT 102""",41.921386,-71.670556,2394686,15:15:00,15:15:00,13,0,9,http://www.ripta.com/9,Weekday
51105,"""RT 102 NS RT 44""",41.916273,-71.671686,2394686,15:16:00,15:16:00,14,0,9,http://www.ripta.com/9,Weekday
24445,"""PUTNAM PIKE OPP 1109 PUTNAM PIKE""",41.910062,-71.668357,2394686,15:17:00,15:17:00,15,0,9,http://www.ripta.com/9,Weekday
24410,"""PUTNAM PIKE AT CVS PHARMACY""",41.907594,-71.666637,2394686,15:17:00,15:17:00,16,0,9,http://www.ripta.com/9,Weekday
51110,"""PUTNAM PIKE AT DUNKIN DONUTS""",41.906556,-71.660513,2394686,15:18:00,15:18:00,17,0,9,http://www.ripta.com/9,Weekday
51115,"""PUTNAM PIKE OPP HIGHLAND LAKE""",41.905391,-71.654335,2394686,15:18:00,15:18:00,18,0,9,http://www.ripta.com/9,Weekday
24320,"""PUTNAM PIKE FS LEE""",41.9051,-71.650989,2394686,15:19:00,15:19:00,19,0,9,http://www.ripta.com/9,Weekday
58385,"""PUTNAM PIKE NS TERRY LANE""",41.904888,-71.647124,2394686,15:19:00,15:19:00,20,0,9,http://www.ripta.com/9,Weekday
24310,"""PUTNAM PIKE NS PINEWOOD PARK""",41.903629,-71.635914,2394686,15:20:00,15:20:00,21,0,9,http://www.ripta.com/9,Weekday
24285,"""PUTNAM PIKE OPP GENTLEMENS FARMER""",41.897502,-71.629654,2394686,15:21:00,15:21:00,22,0,9,http://www.ripta.com/9,Weekday
24065,"""PUTNAM PIKE OPP ABSALONA HILL RD""",41.896106,-71.617496,2394686,15:22:00,15:22:00,23,0,9,http://www.ripta.com/9,Weekday
60000,"""PUTNAM PIKE AT 208 PUTNAM PIKE""",41.890302,-71.602171,2394686,15:24:00,15:24:00,24,0,9,http://www.ripta.com/9,Weekday
23590,"""PUTNAM PIKE OPP 199 PUTNAM PIKE""",41.887686,-71.59616,2394686,15:25:00,15:25:00,25,0,9,http://www.ripta.com/9,Weekday
58390,"""PUTNAM PIKE NS LAKE HARMONY DR""",41.885595,-71.587248,2394686,15:25:00,15:25:00,26,0,9,http://www.ripta.com/9,Weekday
23455,"""PUTNAM PIKE AT 66 PUTNAM PIKE""",41.884631,-71.584248,2394686,15:26:00,15:26:00,27,0,9,http://www.ripta.com/9,Weekday
22825,"""PUTNAM PIKE OPP WINDY HILL""",41.882515,-71.580512,2394686,15:26:00,15:26:00,28,0,9,http://www.ripta.com/9,Weekday
60005,"""PUTNAME PIKE AT 120 PUTNAME PIKE""",41.879105,-71.575233,2394686,15:27:00,15:27:00,29,0,9,http://www.ripta.com/9,Weekday
22795,"""PUTNAM PIKE FS W GREENVILLE""",41.877892,-71.571859,2394686,15:27:00,15:27:00,30,0,9,http://www.ripta.com/9,Weekday
58395,"""PUTNAM PIKE NS VERNON""",41.876675,-71.568805,2394686,15:27:00,15:27:00,31,0,9,http://www.ripta.com/9,Weekday
60010,"""PUTNAM PIKE AT CORY'S""",41.875868,-71.566254,2394686,15:28:00,15:28:00,32,0,9,http://www.ripta.com/9,Weekday
22485,"""PUTNAM PIKE NS ARTHUR""",41.874683,-71.562504,2394686,15:28:00,15:28:00,33,0,9,http://www.ripta.com/9,Weekday
22310,"""PUTNAM PIKE AT ST PHILLIPS SCHOOL""",41.873668,-71.558747,2394686,15:28:00,15:28:00,34,0,9,http://www.ripta.com/9,Weekday
60135,"""PUTNAM PIKE AT 590 PUTNAM PIKE""",41.87263,-71.554862,2394686,15:29:00,15:29:00,35,0,9,http://www.ripta.com/9,Weekday
22155,"""PUTNAM PIKE NS SMITH AVE""",41.871352,-71.552788,2394686,15:29:00,15:29:00,36,0,9,http://www.ripta.com/9,Weekday
22095,"""PUTNAM PIKE AT 566 PUTNAM PIKE""",41.870853,-71.54997,2394686,15:29:00,15:29:00,37,0,9,http://www.ripta.com/9,Weekday
22045,"""PUTNAM PIKE NS CRESTVIEW""",41.870336,-71.545237,2394686,15:30:00,15:30:00,38,0,9,http://www.ripta.com/9,Weekday
21995,"""PUTNAM PIKE NS MAPLECREST""",41.870201,-71.541834,2394686,15:30:00,15:30:00,39,0,9,http://www.ripta.com/9,Weekday
21965,"""PUTNAM PIKE OPP DANECROFT""",41.870086,-71.539093,2394686,15:31:00,15:31:00,40,0,9,http://www.ripta.com/9,Weekday
21940,"""PUTNAM PIKE AT 458 PUTNAM PIKE""",41.870127,-71.535354,2394686,15:31:00,15:31:00,41,0,9,http://www.ripta.com/9,Weekday
21835,"""STOP&SHOP (PUTNAM PIKE - SMITHFIELD)""",41.868633,-71.532351,2394686,15:32:00,15:32:00,42,0,9,http://www.ripta.com/9,Weekday
70800,"""COMMERCE NS PUTNAM PIKE""",41.869415,-71.534554,2394686,15:34:00,15:34:00,43,0,9,http://www.ripta.com/9,Weekday
21950,"""PUTNAM PIKE NS SANDERSON""",41.870177,-71.53166,2394686,15:34:00,15:34:00,44,0,9,http://www.ripta.com/9,Weekday
21930,"""PUTNAM PIKE OPP TACO BELL""",41.870076,-71.528222,2394686,15:35:00,15:35:00,45,0,9,http://www.ripta.com/9,Weekday
72430,"""PUTNAM PIKE OPP LEVI LANE""",41.870043,-71.522106,2394686,15:35:00,15:35:00,46,0,9,http://www.ripta.com/9,Weekday
16035,"""SABIN MIDBLOCK RI CONVENTION CTR""",41.823682,-71.416802,2394686,15:55:00,15:55:00,47,0,9,http://www.ripta.com/9,Weekday
15575,"""EMPIRE OPP WESTMINSTER""",41.821,-71.415397,2394686,15:56:00,15:56:00,48,0,9,http://www.ripta.com/9,Weekday
15880,"""WEYBOSSET OPP EDDY""",41.822625,-71.41138,2394686,15:58:00,15:58:00,49,0,9,http://www.ripta.com/9,Weekday
16385,"""WEYBOSSET NS POST OFFICE CT""",41.824554,-71.409645,2394686,16:00:00,16:00:00,50,0,9,http://www.ripta.com/9,Weekday
16720,"""KENNEDY PLAZA (STOP X)""",41.825999,-71.412244,2394686,16:02:00,16:02:00,51,0,9,http://www.ripta.com/9,Weekday
70330,"""SAYLES FS BRIDGEWAY""",41.956493,-71.702677,2394687,17:25:00,17:25:00,1,0,9,http://www.ripta.com/9,Weekday
24995,"""MAIN FS ELM""",41.960612,-71.699877,2394687,17:26:00,17:26:00,2,0,9,http://www.ripta.com/9,Weekday
25100,"""CHAPEL OPP CHUM BLVD""",41.966934,-71.690851,2394687,17:28:00,17:28:00,3,0,9,http://www.ripta.com/9,Weekday
60155,"""CHAPEL FS RAILROAD""",41.968196,-71.688117,2394687,17:29:00,17:29:00,4,0,9,http://www.ripta.com/9,Weekday
25125,"""CHAPEL NS FOSTER""",41.967568,-71.682526,2394687,17:29:00,17:29:00,5,0,9,http://www.ripta.com/9,Weekday
25110,"""CHAPEL NS MAIN""",41.96634,-71.678843,2394687,17:30:00,17:30:00,6,0,9,http://www.ripta.com/9,Weekday
25030,"""CENTRAL AT 73 CENTRAL""",41.962265,-71.671261,2394687,17:31:00,17:31:00,7,0,9,http://www.ripta.com/9,Weekday
24985,"""CENTRAL NS CORRIE LANE""",41.958838,-71.659908,2394687,17:33:00,17:33:00,8,0,9,http://www.ripta.com/9,Weekday
51120,"""CENTRAL NS VICTORY HWY""",41.955001,-71.65204,2394687,17:34:00,17:34:00,9,0,9,http://www.ripta.com/9,Weekday
24945,"""VICTORY HWY AT 919 VICTORY HWY""",41.951837,-71.649344,2394687,17:35:00,17:35:00,10,0,9,http://www.ripta.com/9,Weekday
24875,"""VICTORY HWAY NS LAPHAM""",41.943199,-71.657526,2394687,17:36:00,17:36:00,11,0,9,http://www.ripta.com/9,Weekday
59990,"""RT 102 NS CROSS""",41.927198,-71.669337,2394687,17:39:00,17:39:00,12,0,9,http://www.ripta.com/9,Weekday
59995,"""RT 102 AT 56 RT 102""",41.921386,-71.670556,2394687,17:40:00,17:40:00,13,0,9,http://www.ripta.com/9,Weekday
51105,"""RT 102 NS RT 44""",41.916273,-71.671686,2394687,17:41:00,17:41:00,14,0,9,http://www.ripta.com/9,Weekday
24445,"""PUTNAM PIKE OPP 1109 PUTNAM PIKE""",41.910062,-71.668357,2394687,17:42:00,17:42:00,15,0,9,http://www.ripta.com/9,Weekday
24410,"""PUTNAM PIKE AT CVS PHARMACY""",41.907594,-71.666637,2394687,17:42:00,17:42:00,16,0,9,http://www.ripta.com/9,Weekday
51110,"""PUTNAM PIKE AT DUNKIN DONUTS""",41.906556,-71.660513,2394687,17:43:00,17:43:00,17,0,9,http://www.ripta.com/9,Weekday
51115,"""PUTNAM PIKE OPP HIGHLAND LAKE""",41.905391,-71.654335,2394687,17:43:00,17:43:00,18,0,9,http://www.ripta.com/9,Weekday
24320,"""PUTNAM PIKE FS LEE""",41.9051,-71.650989,2394687,17:44:00,17:44:00,19,0,9,http://www.ripta.com/9,Weekday
58385,"""PUTNAM PIKE NS TERRY LANE""",41.904888,-71.647124,2394687,17:44:00,17:44:00,20,0,9,http://www.ripta.com/9,Weekday
24310,"""PUTNAM PIKE NS PINEWOOD PARK""",41.903629,-71.635914,2394687,17:45:00,17:45:00,21,0,9,http://www.ripta.com/9,Weekday
24285,"""PUTNAM PIKE OPP GENTLEMENS FARMER""",41.897502,-71.629654,2394687,17:46:00,17:46:00,22,0,9,http://www.ripta.com/9,Weekday
24065,"""PUTNAM PIKE OPP ABSALONA HILL RD""",41.896106,-71.617496,2394687,17:47:00,17:47:00,23,0,9,http://www.ripta.com/9,Weekday
60000,"""PUTNAM PIKE AT 208 PUTNAM PIKE""",41.890302,-71.602171,2394687,17:49:00,17:49:00,24,0,9,http://www.ripta.com/9,Weekday
23590,"""PUTNAM PIKE OPP 199 PUTNAM PIKE""",41.887686,-71.59616,2394687,17:50:00,17:50:00,25,0,9,http://www.ripta.com/9,Weekday
58390,"""PUTNAM PIKE NS LAKE HARMONY DR""",41.885595,-71.587248,2394687,17:50:00,17:50:00,26,0,9,http://www.ripta.com/9,Weekday
23455,"""PUTNAM PIKE AT 66 PUTNAM PIKE""",41.884631,-71.584248,2394687,17:51:00,17:51:00,27,0,9,http://www.ripta.com/9,Weekday
22825,"""PUTNAM PIKE OPP WINDY HILL""",41.882515,-71.580512,2394687,17:51:00,17:51:00,28,0,9,http://www.ripta.com/9,Weekday
60005,"""PUTNAME PIKE AT 120 PUTNAME PIKE""",41.879105,-71.575233,2394687,17:52:00,17:52:00,29,0,9,http://www.ripta.com/9,Weekday
22795,"""PUTNAM PIKE FS W GREENVILLE""",41.877892,-71.571859,2394687,17:52:00,17:52:00,30,0,9,http://www.ripta.com/9,Weekday
58395,"""PUTNAM PIKE NS VERNON""",41.876675,-71.568805,2394687,17:52:00,17:52:00,31,0,9,http://www.ripta.com/9,Weekday
60010,"""PUTNAM PIKE AT CORY'S""",41.875868,-71.566254,2394687,17:53:00,17:53:00,32,0,9,http://www.ripta.com/9,Weekday
22485,"""PUTNAM PIKE NS ARTHUR""",41.874683,-71.562504,2394687,17:53:00,17:53:00,33,0,9,http://www.ripta.com/9,Weekday
22310,"""PUTNAM PIKE AT ST PHILLIPS SCHOOL""",41.873668,-71.558747,2394687,17:53:00,17:53:00,34,0,9,http://www.ripta.com/9,Weekday
60135,"""PUTNAM PIKE AT 590 PUTNAM PIKE""",41.87263,-71.554862,2394687,17:54:00,17:54:00,35,0,9,http://www.ripta.com/9,Weekday
22155,"""PUTNAM PIKE NS SMITH AVE""",41.871352,-71.552788,2394687,17:54:00,17:54:00,36,0,9,http://www.ripta.com/9,Weekday
22095,"""PUTNAM PIKE AT 566 PUTNAM PIKE""",41.870853,-71.54997,2394687,17:54:00,17:54:00,37,0,9,http://www.ripta.com/9,Weekday
22045,"""PUTNAM PIKE NS CRESTVIEW""",41.870336,-71.545237,2394687,17:55:00,17:55:00,38,0,9,http://www.ripta.com/9,Weekday
21995,"""PUTNAM PIKE NS MAPLECREST""",41.870201,-71.541834,2394687,17:55:00,17:55:00,39,0,9,http://www.ripta.com/9,Weekday
21965,"""PUTNAM PIKE OPP DANECROFT""",41.870086,-71.539093,2394687,17:56:00,17:56:00,40,0,9,http://www.ripta.com/9,Weekday
21940,"""PUTNAM PIKE AT 458 PUTNAM PIKE""",41.870127,-71.535354,2394687,17:56:00,17:56:00,41,0,9,http://www.ripta.com/9,Weekday
21835,"""STOP&SHOP (PUTNAM PIKE - SMITHFIELD)""",41.868633,-71.532351,2394687,17:57:00,17:57:00,42,0,9,http://www.ripta.com/9,Weekday
70800,"""COMMERCE NS PUTNAM PIKE""",41.869415,-71.534554,2394687,17:59:00,17:59:00,43,0,9,http://www.ripta.com/9,Weekday
21950,"""PUTNAM PIKE NS SANDERSON""",41.870177,-71.53166,2394687,17:59:00,17:59:00,44,0,9,http://www.ripta.com/9,Weekday
21930,"""PUTNAM PIKE OPP TACO BELL""",41.870076,-71.528222,2394687,18:00:00,18:00:00,45,0,9,http://www.ripta.com/9,Weekday
72430,"""PUTNAM PIKE OPP LEVI LANE""",41.870043,-71.522106,2394687,18:00:00,18:00:00,46,0,9,http://www.ripta.com/9,Weekday
16035,"""SABIN MIDBLOCK RI CONVENTION CTR""",41.823682,-71.416802,2394687,18:20:00,18:20:00,47,0,9,http://www.ripta.com/9,Weekday
15575,"""EMPIRE OPP WESTMINSTER""",41.821,-71.415397,2394687,18:21:00,18:21:00,48,0,9,http://www.ripta.com/9,Weekday
15880,"""WEYBOSSET OPP EDDY""",41.822625,-71.41138,2394687,18:23:00,18:23:00,49,0,9,http://www.ripta.com/9,Weekday
16385,"""WEYBOSSET NS POST OFFICE CT""",41.824554,-71.409645,2394687,18:25:00,18:25:00,50,0,9,http://www.ripta.com/9,Weekday
16720,"""KENNEDY PLAZA (STOP X)""",41.825999,-71.412244,2394687,18:27:00,18:27:00,51,0,9,http://www.ripta.com/9,Weekday
16035,"""SABIN MIDBLOCK RI CONVENTION CTR""",41.823682,-71.416802,2394688,06:05:00,06:05:00,1,1,9,http://www.ripta.com/9,Weekday
15575,"""EMPIRE OPP WESTMINSTER""",41.821,-71.415397,2394688,06:06:00,06:06:00,2,1,9,http://www.ripta.com/9,Weekday
15880,"""WEYBOSSET OPP EDDY""",41.822625,-71.41138,2394688,06:08:00,06:08:00,3,1,9,http://www.ripta.com/9,Weekday
16385,"""WEYBOSSET NS POST OFFICE CT""",41.824554,-71.409645,2394688,06:10:00,06:10:00,4,1,9,http://www.ripta.com/9,Weekday
16720,"""KENNEDY PLAZA (STOP X)""",41.825999,-71.412244,2394688,06:12:00,06:12:00,5,1,9,http://www.ripta.com/9,Weekday
22040,"""PUTNAM PIKE AT APPLE VALLEY MALL""",41.870358,-71.529326,2394688,06:31:00,06:31:00,6,1,9,http://www.ripta.com/9,Weekday
22030,"""PUTNAM PIKE FS SANDERSON""",41.8703,-71.531431,2394688,06:31:00,06:31:00,7,1,9,http://www.ripta.com/9,Weekday
21835,"""STOP&SHOP (PUTNAM PIKE - SMITHFIELD)""",41.868633,-71.532351,2394688,06:32:00,06:32:00,8,1,9,http://www.ripta.com/9,Weekday
70800,"""COMMERCE NS PUTNAM PIKE""",41.869415,-71.534554,2394688,06:34:00,06:34:00,9,1,9,http://www.ripta.com/9,Weekday
22005,"""PUTNAM PIKE OPP 458 PUTNAM PIKE""",41.870292,-71.534791,2394688,06:34:00,06:34:00,10,1,9,http://www.ripta.com/9,Weekday
22020,"""PUTNAM PIKE OPP MAPLECREST""",41.870316,-71.54171,2394688,06:35:00,06:35:00,11,1,9,http://www.ripta.com/9,Weekday
22150,"""PUTNAM PIKE NS PLEASANT VIEW""",41.870961,-71.549715,2394688,06:37:00,06:37:00,12,1,9,http://www.ripta.com/9,Weekday
22170,"""PUTNAM PIKE AT 595 PUTNAM PIKE""",41.871426,-71.552353,2394688,06:37:00,06:37:00,13,1,9,http://www.ripta.com/9,Weekday
51125,"""PUTNAM PIKE FS AUSTIN""",41.872687,-71.55481,2394688,06:37:00,06:37:00,14,1,9,http://www.ripta.com/9,Weekday
22320,"""PUTNAM PIKE OPP ST PHILLIPS SCHOOL""",41.873744,-71.558677,2394688,06:38:00,06:38:00,15,1,9,http://www.ripta.com/9,Weekday
22505,"""PUTNAM PIKE OPP ARTHUR""",41.874687,-71.562163,2394688,06:38:00,06:38:00,16,1,9,http://www.ripta.com/9,Weekday
58315,"""PUTNAM PIKE OPP 668 PUTNAM PIKE""",41.875902,-71.566021,2394688,06:38:00,06:38:00,17,1,9,http://www.ripta.com/9,Weekday
58320,"""PUTNAM PIKE AT 711 PUTNAM PIKE""",41.87664,-71.568604,2394688,06:39:00,06:39:00,18,1,9,http://www.ripta.com/9,Weekday
22810,"""PUTNAM PIKE NS W GREENVILLE""",41.877571,-71.570921,2394688,06:39:00,06:39:00,19,1,9,http://www.ripta.com/9,Weekday
60140,"""PUTNAM PIKE OPP 781 PUTNAM PIKE""",41.878917,-71.574405,2394688,06:39:00,06:39:00,20,1,9,http://www.ripta.com/9,Weekday
22840,"""PUTNAM PIKE NS 735 PUTNAM PIKE""",41.880603,-71.577826,2394688,06:39:00,06:39:00,21,1,9,http://www.ripta.com/9,Weekday
60145,"""PUTNAM PIKE AT POWDER MILL CREAMERY""",41.881989,-71.57946,2394688,06:40:00,06:40:00,22,1,9,http://www.ripta.com/9,Weekday
23490,"""PUTNAM PIKE OPP LAKESIDE MOTEL""",41.884828,-71.584426,2394688,06:40:00,06:40:00,23,1,9,http://www.ripta.com/9,Weekday
23650,"""PUTNAM PIKE AT 185 PUTNAM PIKE""",41.887603,-71.595583,2394688,06:41:00,06:41:00,24,1,9,http://www.ripta.com/9,Weekday
23765,"""PUTNAM PIKE AT HARMONY MARKET PLACE""",41.895079,-71.612363,2394688,06:43:00,06:43:00,25,1,9,http://www.ripta.com/9,Weekday
24040,"""PUTNAM PIKE NS ABSALONA HILL RD""",41.896207,-71.617391,2394688,06:43:00,06:43:00,26,1,9,http://www.ripta.com/9,Weekday
24060,"""PUTNAM PIKE NS GENTLEMAN FARMER""",41.897236,-71.629107,2394688,06:45:00,06:45:00,27,1,9,http://www.ripta.com/9,Weekday
24295,"""PUTNAM PIKE OPP PINEWOOD PARK""",41.904951,-71.647324,2394688,06:47:00,06:47:00,28,1,9,http://www.ripta.com/9,Weekday
24330,"""PUTNAM PIKE AT 895 PUTNAM PIKE""",41.905213,-71.651517,2394688,06:47:00,06:47:00,29,1,9,http://www.ripta.com/9,Weekday
51140,"""PUTNAM PIKE FS HIGHLAND LAKE""",41.905499,-71.654512,2394688,06:47:00,06:47:00,30,1,9,http://www.ripta.com/9,Weekday
58325,"""PUTNAM PIKE OPP DUNKIN DONUTS""",41.906576,-71.660221,2394688,06:48:00,06:48:00,31,1,9,http://www.ripta.com/9,Weekday
24430,"""PUTNAM PIKE FS CHESTNUT HILL""",41.908684,-71.667703,2394688,06:49:00,06:49:00,32,1,9,http://www.ripta.com/9,Weekday
58330,"""PUTNAM PIKE OPP RADIO TOWER""",41.910059,-71.668163,2394688,06:49:00,06:49:00,33,1,9,http://www.ripta.com/9,Weekday
24440,"""PUTNAM PIKE FS DOUGLAS HOOK""",41.912789,-71.669082,2394688,06:49:00,06:49:00,34,1,9,http://www.ripta.com/9,Weekday
51145,"""RT 102 FS RT 44""",41.916165,-71.671487,2394688,06:50:00,06:50:00,35,1,9,http://www.ripta.com/9,Weekday
51095,"""RT 102 OPP PINE MEADOW""",41.921284,-71.670493,2394688,06:50:00,06:50:00,36,1,9,http://www.ripta.com/9,Weekday
60150,"""RT 102 OPP CROSS""",41.926548,-71.669426,2394688,06:51:00,06:51:00,37,1,9,http://www.ripta.com/9,Weekday
24840,"""LAPHAM FARM NS VICTORY""",41.942859,-71.658163,2394688,06:54:00,06:54:00,38,1,9,http://www.ripta.com/9,Weekday
58335,"""VICTORY HWY AT 545 VICTORY HWY""",41.944144,-71.655121,2394688,06:54:00,06:54:00,39,1,9,http://www.ripta.com/9,Weekday
24870,"""VICTORY HWAY NS SANDHILL""",41.947761,-71.648949,2394688,06:55:00,06:55:00,40,1,9,http://www.ripta.com/9,Weekday
58340,"""VICTORY HWY AT 849 VICTORY HWY""",41.949892,-71.648367,2394688,06:55:00,06:55:00,41,1,9,http://www.ripta.com/9,Weekday
58345,"""VICTORY HWY OPP 908 VICTORY HWY""",41.951463,-71.649122,2394688,06:56:00,06:56:00,42,1,9,http://www.ripta.com/9,Weekday
58350,"""CENTRAL AT 520 CENTRAL""",41.957761,-71.656284,2394688,06:57:00,06:57:00,43,1,9,http://www.ripta.com/9,Weekday
24990,"""CENTRAL NS CORRIE LANE""",41.958644,-71.65894,2394688,06:57:00,06:57:00,44,1,9,http://www.ripta.com/9,Weekday
25035,"""CENTRAL FS LYNNE LN""",41.961143,-71.66346,2394688,06:58:00,06:58:00,45,1,9,http://www.ripta.com/9,Weekday
58360,"""MAIN NS CHAPEL""",41.96592,-71.676945,2394688,07:01:00,07:01:00,46,1,9,http://www.ripta.com/9,Weekday
25085,"""CHAPEL FS MAIN ST""",41.96673,-71.678861,2394688,07:01:00,07:01:00,47,1,9,http://www.ripta.com/9,Weekday
58365,"""CHAPEL AT SUNOCO""",41.968535,-71.687459,2394688,07:03:00,07:03:00,48,1,9,http://www.ripta.com/9,Weekday
25102,"""CHAPEL OPP 67 CHAPEL""",41.966879,-71.691109,2394688,07:03:00,07:03:00,49,1,9,http://www.ripta.com/9,Weekday
25010,"""MAIN OPP ELM""",41.960348,-71.700104,2394688,07:05:00,07:05:00,50,1,9,http://www.ripta.com/9,Weekday
58370,"""MAIN OPP ALBEE""",41.958762,-71.701371,2394688,07:05:00,07:05:00,51,1,9,http://www.ripta.com/9,Weekday
24972,"""BRIDGEWAY NS SAYLES""",41.95712,-71.70219,2394688,07:06:00,07:06:00,52,1,9,http://www.ripta.com/9,Weekday
70330,"""SAYLES FS BRIDGEWAY""",41.956493,-71.702677,2394688,07:06:00,07:06:00,53,1,9,http://www.ripta.com/9,Weekday
16035,"""SABIN MIDBLOCK RI CONVENTION CTR""",41.823682,-71.416802,2394689,07:50:00,07:50:00,1,1,9,http://www.ripta.com/9,Weekday
15575,"""EMPIRE OPP WESTMINSTER""",41.821,-71.415397,2394689,07:51:00,07:51:00,2,1,9,http://www.ripta.com/9,Weekday
15880,"""WEYBOSSET OPP EDDY""",41.822625,-71.41138,2394689,07:53:00,07:53:00,3,1,9,http://www.ripta.com/9,Weekday
16385,"""WEYBOSSET NS POST OFFICE CT""",41.824554,-71.409645,2394689,07:55:00,07:55:00,4,1,9,http://www.ripta.com/9,Weekday
16720,"""KENNEDY PLAZA (STOP X)""",41.825999,-71.412244,2394689,07:57:00,07:57:00,5,1,9,http://www.ripta.com/9,Weekday
22040,"""PUTNAM PIKE AT APPLE VALLEY MALL""",41.870358,-71.529326,2394689,08:16:00,08:16:00,6,1,9,http://www.ripta.com/9,Weekday
22030,"""PUTNAM PIKE FS SANDERSON""",41.8703,-71.531431,2394689,08:16:00,08:16:00,7,1,9,http://www.ripta.com/9,Weekday
21835,"""STOP&SHOP (PUTNAM PIKE - SMITHFIELD)""",41.868633,-71.532351,2394689,08:17:00,08:17:00,8,1,9,http://www.ripta.com/9,Weekday
70800,"""COMMERCE NS PUTNAM PIKE""",41.869415,-71.534554,2394689,08:19:00,08:19:00,9,1,9,http://www.ripta.com/9,Weekday
22005,"""PUTNAM PIKE OPP 458 PUTNAM PIKE""",41.870292,-71.534791,2394689,08:19:00,08:19:00,10,1,9,http://www.ripta.com/9,Weekday
22020,"""PUTNAM PIKE OPP MAPLECREST""",41.870316,-71.54171,2394689,08:20:00,08:20:00,11,1,9,http://www.ripta.com/9,Weekday
22150,"""PUTNAM PIKE NS PLEASANT VIEW""",41.870961,-71.549715,2394689,08:22:00,08:22:00,12,1,9,http://www.ripta.com/9,Weekday
22170,"""PUTNAM PIKE AT 595 PUTNAM PIKE""",41.871426,-71.552353,2394689,08:22:00,08:22:00,13,1,9,http://www.ripta.com/9,Weekday
51125,"""PUTNAM PIKE FS AUSTIN""",41.872687,-71.55481,2394689,08:22:00,08:22:00,14,1,9,http://www.ripta.com/9,Weekday
22320,"""PUTNAM PIKE OPP ST PHILLIPS SCHOOL""",41.873744,-71.558677,2394689,08:23:00,08:23:00,15,1,9,http://www.ripta.com/9,Weekday
22505,"""PUTNAM PIKE OPP ARTHUR""",41.874687,-71.562163,2394689,08:23:00,08:23:00,16,1,9,http://www.ripta.com/9,Weekday
58315,"""PUTNAM PIKE OPP 668 PUTNAM PIKE""",41.875902,-71.566021,2394689,08:23:00,08:23:00,17,1,9,http://www.ripta.com/9,Weekday
58320,"""PUTNAM PIKE AT 711 PUTNAM PIKE""",41.87664,-71.568604,2394689,08:24:00,08:24:00,18,1,9,http://www.ripta.com/9,Weekday
22810,"""PUTNAM PIKE NS W GREENVILLE""",41.877571,-71.570921,2394689,08:24:00,08:24:00,19,1,9,http://www.ripta.com/9,Weekday
60140,"""PUTNAM PIKE OPP 781 PUTNAM PIKE""",41.878917,-71.574405,2394689,08:24:00,08:24:00,20,1,9,http://www.ripta.com/9,Weekday
22840,"""PUTNAM PIKE NS 735 PUTNAM PIKE""",41.880603,-71.577826,2394689,08:24:00,08:24:00,21,1,9,http://www.ripta.com/9,Weekday
60145,"""PUTNAM PIKE AT POWDER MILL CREAMERY""",41.881989,-71.57946,2394689,08:25:00,08:25:00,22,1,9,http://www.ripta.com/9,Weekday
23490,"""PUTNAM PIKE OPP LAKESIDE MOTEL""",41.884828,-71.584426,2394689,08:25:00,08:25:00,23,1,9,http://www.ripta.com/9,Weekday
23650,"""PUTNAM PIKE AT 185 PUTNAM PIKE""",41.887603,-71.595583,2394689,08:26:00,08:26:00,24,1,9,http://www.ripta.com/9,Weekday
23765,"""PUTNAM PIKE AT HARMONY MARKET PLACE""",41.895079,-71.612363,2394689,08:28:00,08:28:00,25,1,9,http://www.ripta.com/9,Weekday
24040,"""PUTNAM PIKE NS ABSALONA HILL RD""",41.896207,-71.617391,2394689,08:28:00,08:28:00,26,1,9,http://www.ripta.com/9,Weekday
24060,"""PUTNAM PIKE NS GENTLEMAN FARMER""",41.897236,-71.629107,2394689,08:30:00,08:30:00,27,1,9,http://www.ripta.com/9,Weekday
24295,"""PUTNAM PIKE OPP PINEWOOD PARK""",41.904951,-71.647324,2394689,08:32:00,08:32:00,28,1,9,http://www.ripta.com/9,Weekday
24330,"""PUTNAM PIKE AT 895 PUTNAM PIKE""",41.905213,-71.651517,2394689,08:32:00,08:32:00,29,1,9,http://www.ripta.com/9,Weekday
51140,"""PUTNAM PIKE FS HIGHLAND LAKE""",41.905499,-71.654512,2394689,08:32:00,08:32:00,30,1,9,http://www.ripta.com/9,Weekday
58325,"""PUTNAM PIKE OPP DUNKIN DONUTS""",41.906576,-71.660221,2394689,08:33:00,08:33:00,31,1,9,http://www.ripta.com/9,Weekday
24430,"""PUTNAM PIKE FS CHESTNUT HILL""",41.908684,-71.667703,2394689,08:34:00,08:34:00,32,1,9,http://www.ripta.com/9,Weekday
58330,"""PUTNAM PIKE OPP RADIO TOWER""",41.910059,-71.668163,2394689,08:34:00,08:34:00,33,1,9,http://www.ripta.com/9,Weekday
24440,"""PUTNAM PIKE FS DOUGLAS HOOK""",41.912789,-71.669082,2394689,08:34:00,08:34:00,34,1,9,http://www.ripta.com/9,Weekday
51145,"""RT 102 FS RT 44""",41.916165,-71.671487,2394689,08:35:00,08:35:00,35,1,9,http://www.ripta.com/9,Weekday
51095,"""RT 102 OPP PINE MEADOW""",41.921284,-71.670493,2394689,08:35:00,08:35:00,36,1,9,http://www.ripta.com/9,Weekday
60150,"""RT 102 OPP CROSS""",41.926548,-71.669426,2394689,08:36:00,08:36:00,37,1,9,http://www.ripta.com/9,Weekday
24840,"""LAPHAM FARM NS VICTORY""",41.942859,-71.658163,2394689,08:39:00,08:39:00,38,1,9,http://www.ripta.com/9,Weekday
58335,"""VICTORY HWY AT 545 VICTORY HWY""",41.944144,-71.655121,2394689,08:39:00,08:39:00,39,1,9,http://www.ripta.com/9,Weekday
24870,"""VICTORY HWAY NS SANDHILL""",41.947761,-71.648949,2394689,08:40:00,08:40:00,40,1,9,http://www.ripta.com/9,Weekday
58340,"""VICTORY HWY AT 849 VICTORY HWY""",41.949892,-71.648367,2394689,08:40:00,08:40:00,41,1,9,http://www.ripta.com/9,Weekday
58345,"""VICTORY HWY OPP 908 VICTORY HWY""",41.951463,-71.649122,2394689,08:41:00,08:41:00,42,1,9,http://www.ripta.com/9,Weekday
58350,"""CENTRAL AT 520 CENTRAL""",41.957761,-71.656284,2394689,08:42:00,08:42:00,43,1,9,http://www.ripta.com/9,Weekday
24990,"""CENTRAL NS CORRIE LANE""",41.958644,-71.65894,2394689,08:42:00,08:42:00,44,1,9,http://www.ripta.com/9,Weekday
25035,"""CENTRAL FS LYNNE LN""",41.961143,-71.66346,2394689,08:43:00,08:43:00,45,1,9,http://www.ripta.com/9,Weekday
58360,"""MAIN NS CHAPEL""",41.96592,-71.676945,2394689,08:46:00,08:46:00,46,1,9,http://www.ripta.com/9,Weekday
25085,"""CHAPEL FS MAIN ST""",41.96673,-71.678861,2394689,08:46:00,08:46:00,47,1,9,http://www.ripta.com/9,Weekday
58365,"""CHAPEL AT SUNOCO""",41.968535,-71.687459,2394689,08:48:00,08:48:00,48,1,9,http://www.ripta.com/9,Weekday
25102,"""CHAPEL OPP 67 CHAPEL""",41.966879,-71.691109,2394689,08:48:00,08:48:00,49,1,9,http://www.ripta.com/9,Weekday
25010,"""MAIN OPP ELM""",41.960348,-71.700104,2394689,08:50:00,08:50:00,50,1,9,http://www.ripta.com/9,Weekday
58370,"""MAIN OPP ALBEE""",41.958762,-71.701371,2394689,08:50:00,08:50:00,51,1,9,http://www.ripta.com/9,Weekday
24972,"""BRIDGEWAY NS SAYLES""",41.95712,-71.70219,2394689,08:51:00,08:51:00,52,1,9,http://www.ripta.com/9,Weekday
70330,"""SAYLES FS BRIDGEWAY""",41.956493,-71.702677,2394689,08:51:00,08:51:00,53,1,9,http://www.ripta.com/9,Weekday
16035,"""SABIN MIDBLOCK RI CONVENTION CTR""",41.823682,-71.416802,2394690,13:40:00,13:40:00,1,1,9,http://www.ripta.com/9,Weekday
15575,"""EMPIRE OPP WESTMINSTER""",41.821,-71.415397,2394690,13:41:00,13:41:00,2,1,9,http://www.ripta.com/9,Weekday
15880,"""WEYBOSSET OPP EDDY""",41.822625,-71.41138,2394690,13:43:00,13:43:00,3,1,9,http://www.ripta.com/9,Weekday
16385,"""WEYBOSSET NS POST OFFICE CT""",41.824554,-71.409645,2394690,13:45:00,13:45:00,4,1,9,http://www.ripta.com/9,Weekday
16720,"""KENNEDY PLAZA (STOP X)""",41.825999,-71.412244,2394690,13:47:00,13:47:00,5,1,9,http://www.ripta.com/9,Weekday
22040,"""PUTNAM PIKE AT APPLE VALLEY MALL""",41.870358,-71.529326,2394690,14:08:00,14:08:00,6,1,9,http://www.ripta.com/9,Weekday
22030,"""PUTNAM PIKE FS SANDERSON""",41.8703,-71.531431,2394690,14:08:00,14:08:00,7,1,9,http://www.ripta.com/9,Weekday
21835,"""STOP&SHOP (PUTNAM PIKE - SMITHFIELD)""",41.868633,-71.532351,2394690,14:09:00,14:09:00,8,1,9,http://www.ripta.com/9,Weekday
70800,"""COMMERCE NS PUTNAM PIKE""",41.869415,-71.534554,2394690,14:11:00,14:11:00,9,1,9,http://www.ripta.com/9,Weekday
22005,"""PUTNAM PIKE OPP 458 PUTNAM PIKE""",41.870292,-71.534791,2394690,14:11:00,14:11:00,10,1,9,http://www.ripta.com/9,Weekday
22020,"""PUTNAM PIKE OPP MAPLECREST""",41.870316,-71.54171,2394690,14:12:00,14:12:00,11,1,9,http://www.ripta.com/9,Weekday
22150,"""PUTNAM PIKE NS PLEASANT VIEW""",41.870961,-71.549715,2394690,14:14:00,14:14:00,12,1,9,http://www.ripta.com/9,Weekday
22170,"""PUTNAM PIKE AT 595 PUTNAM PIKE""",41.871426,-71.552353,2394690,14:14:00,14:14:00,13,1,9,http://www.ripta.com/9,Weekday
51125,"""PUTNAM PIKE FS AUSTIN""",41.872687,-71.55481,2394690,14:14:00,14:14:00,14,1,9,http://www.ripta.com/9,Weekday
22320,"""PUTNAM PIKE OPP ST PHILLIPS SCHOOL""",41.873744,-71.558677,2394690,14:15:00,14:15:00,15,1,9,http://www.ripta.com/9,Weekday
22505,"""PUTNAM PIKE OPP ARTHUR""",41.874687,-71.562163,2394690,14:15:00,14:15:00,16,1,9,http://www.ripta.com/9,Weekday
58315,"""PUTNAM PIKE OPP 668 PUTNAM PIKE""",41.875902,-71.566021,2394690,14:15:00,14:15:00,17,1,9,http://www.ripta.com/9,Weekday
58320,"""PUTNAM PIKE AT 711 PUTNAM PIKE""",41.87664,-71.568604,2394690,14:16:00,14:16:00,18,1,9,http://www.ripta.com/9,Weekday
22810,"""PUTNAM PIKE NS W GREENVILLE""",41.877571,-71.570921,2394690,14:16:00,14:16:00,19,1,9,http://www.ripta.com/9,Weekday
60140,"""PUTNAM PIKE OPP 781 PUTNAM PIKE""",41.878917,-71.574405,2394690,14:16:00,14:16:00,20,1,9,http://www.ripta.com/9,Weekday
22840,"""PUTNAM PIKE NS 735 PUTNAM PIKE""",41.880603,-71.577826,2394690,14:16:00,14:16:00,21,1,9,http://www.ripta.com/9,Weekday
60145,"""PUTNAM PIKE AT POWDER MILL CREAMERY""",41.881989,-71.57946,2394690,14:17:00,14:17:00,22,1,9,http://www.ripta.com/9,Weekday
23490,"""PUTNAM PIKE OPP LAKESIDE MOTEL""",41.884828,-71.584426,2394690,14:17:00,14:17:00,23,1,9,http://www.ripta.com/9,Weekday
23650,"""PUTNAM PIKE AT 185 PUTNAM PIKE""",41.887603,-71.595583,2394690,14:18:00,14:18:00,24,1,9,http://www.ripta.com/9,Weekday
23765,"""PUTNAM PIKE AT HARMONY MARKET PLACE""",41.895079,-71.612363,2394690,14:20:00,14:20:00,25,1,9,http://www.ripta.com/9,Weekday
24040,"""PUTNAM PIKE NS ABSALONA HILL RD""",41.896207,-71.617391,2394690,14:20:00,14:20:00,26,1,9,http://www.ripta.com/9,Weekday
24060,"""PUTNAM PIKE NS GENTLEMAN FARMER""",41.897236,-71.629107,2394690,14:22:00,14:22:00,27,1,9,http://www.ripta.com/9,Weekday
24295,"""PUTNAM PIKE OPP PINEWOOD PARK""",41.904951,-71.647324,2394690,14:24:00,14:24:00,28,1,9,http://www.ripta.com/9,Weekday
24330,"""PUTNAM PIKE AT 895 PUTNAM PIKE""",41.905213,-71.651517,2394690,14:24:00,14:24:00,29,1,9,http://www.ripta.com/9,Weekday
51140,"""PUTNAM PIKE FS HIGHLAND LAKE""",41.905499,-71.654512,2394690,14:24:00,14:24:00,30,1,9,http://www.ripta.com/9,Weekday
58325,"""PUTNAM PIKE OPP DUNKIN DONUTS""",41.906576,-71.660221,2394690,14:25:00,14:25:00,31,1,9,http://www.ripta.com/9,Weekday
24430,"""PUTNAM PIKE FS CHESTNUT HILL""",41.908684,-71.667703,2394690,14:26:00,14:26:00,32,1,9,http://www.ripta.com/9,Weekday
58330,"""PUTNAM PIKE OPP RADIO TOWER""",41.910059,-71.668163,2394690,14:26:00,14:26:00,33,1,9,http://www.ripta.com/9,Weekday
24440,"""PUTNAM PIKE FS DOUGLAS HOOK""",41.912789,-71.669082,2394690,14:26:00,14:26:00,34,1,9,http://www.ripta.com/9,Weekday
51145,"""RT 102 FS RT 44""",41.916165,-71.671487,2394690,14:27:00,14:27:00,35,1,9,http://www.ripta.com/9,Weekday
51095,"""RT 102 OPP PINE MEADOW""",41.921284,-71.670493,2394690,14:27:00,14:27:00,36,1,9,http://www.ripta.com/9,Weekday
60150,"""RT 102 OPP CROSS""",41.926548,-71.669426,2394690,14:28:00,14:28:00,37,1,9,http://www.ripta.com/9,Weekday
24840,"""LAPHAM FARM NS VICTORY""",41.942859,-71.658163,2394690,14:31:00,14:31:00,38,1,9,http://www.ripta.com/9,Weekday
58335,"""VICTORY HWY AT 545 VICTORY HWY""",41.944144,-71.655121,2394690,14:31:00,14:31:00,39,1,9,http://www.ripta.com/9,Weekday
24870,"""VICTORY HWAY NS SANDHILL""",41.947761,-71.648949,2394690,14:32:00,14:32:00,40,1,9,http://www.ripta.com/9,Weekday
58340,"""VICTORY HWY AT 849 VICTORY HWY""",41.949892,-71.648367,2394690,14:32:00,14:32:00,41,1,9,http://www.ripta.com/9,Weekday
58345,"""VICTORY HWY OPP 908 VICTORY HWY""",41.951463,-71.649122,2394690,14:33:00,14:33:00,42,1,9,http://www.ripta.com/9,Weekday
58350,"""CENTRAL AT 520 CENTRAL""",41.957761,-71.656284,2394690,14:34:00,14:34:00,43,1,9,http://www.ripta.com/9,Weekday
24990,"""CENTRAL NS CORRIE LANE""",41.958644,-71.65894,2394690,14:34:00,14:34:00,44,1,9,http://www.ripta.com/9,Weekday
25035,"""CENTRAL FS LYNNE LN""",41.961143,-71.66346,2394690,14:35:00,14:35:00,45,1,9,http://www.ripta.com/9,Weekday
58360,"""MAIN NS CHAPEL""",41.96592,-71.676945,2394690,14:38:00,14:38:00,46,1,9,http://www.ripta.com/9,Weekday
25085,"""CHAPEL FS MAIN ST""",41.96673,-71.678861,2394690,14:38:00,14:38:00,47,1,9,http://www.ripta.com/9,Weekday
58365,"""CHAPEL AT SUNOCO""",41.968535,-71.687459,2394690,14:40:00,14:40:00,48,1,9,http://www.ripta.com/9,Weekday
25102,"""CHAPEL OPP 67 CHAPEL""",41.966879,-71.691109,2394690,14:40:00,14:40:00,49,1,9,http://www.ripta.com/9,Weekday
25010,"""MAIN OPP ELM""",41.960348,-71.700104,2394690,14:42:00,14:42:00,50,1,9,http://www.ripta.com/9,Weekday
58370,"""MAIN OPP ALBEE""",41.958762,-71.701371,2394690,14:42:00,14:42:00,51,1,9,http://www.ripta.com/9,Weekday
24972,"""BRIDGEWAY NS SAYLES""",41.95712,-71.70219,2394690,14:43:00,14:43:00,52,1,9,http://www.ripta.com/9,Weekday
70330,"""SAYLES FS BRIDGEWAY""",41.956493,-71.702677,2394690,14:43:00,14:43:00,53,1,9,http://www.ripta.com/9,Weekday
16035,"""SABIN MIDBLOCK RI CONVENTION CTR""",41.823682,-71.416802,2394691,16:08:00,16:08:00,1,1,9,http://www.ripta.com/9,Weekday
15575,"""EMPIRE OPP WESTMINSTER""",41.821,-71.415397,2394691,16:09:00,16:09:00,2,1,9,http://www.ripta.com/9,Weekday
15880,"""WEYBOSSET OPP EDDY""",41.822625,-71.41138,2394691,16:11:00,16:11:00,3,1,9,http://www.ripta.com/9,Weekday
16385,"""WEYBOSSET NS POST OFFICE CT""",41.824554,-71.409645,2394691,16:13:00,16:13:00,4,1,9,http://www.ripta.com/9,Weekday
16720,"""KENNEDY PLAZA (STOP X)""",41.825999,-71.412244,2394691,16:15:00,16:15:00,5,1,9,http://www.ripta.com/9,Weekday
22040,"""PUTNAM PIKE AT APPLE VALLEY MALL""",41.870358,-71.529326,2394691,16:36:00,16:36:00,6,1,9,http://www.ripta.com/9,Weekday
22030,"""PUTNAM PIKE FS SANDERSON""",41.8703,-71.531431,2394691,16:36:00,16:36:00,7,1,9,http://www.ripta.com/9,Weekday
21835,"""STOP&SHOP (PUTNAM PIKE - SMITHFIELD)""",41.868633,-71.532351,2394691,16:37:00,16:37:00,8,1,9,http://www.ripta.com/9,Weekday
70800,"""COMMERCE NS PUTNAM PIKE""",41.869415,-71.534554,2394691,16:39:00,16:39:00,9,1,9,http://www.ripta.com/9,Weekday
22005,"""PUTNAM PIKE OPP 458 PUTNAM PIKE""",41.870292,-71.534791,2394691,16:39:00,16:39:00,10,1,9,http://www.ripta.com/9,Weekday
22020,"""PUTNAM PIKE OPP MAPLECREST""",41.870316,-71.54171,2394691,16:40:00,16:40:00,11,1,9,http://www.ripta.com/9,Weekday
22150,"""PUTNAM PIKE NS PLEASANT VIEW""",41.870961,-71.549715,2394691,16:42:00,16:42:00,12,1,9,http://www.ripta.com/9,Weekday
22170,"""PUTNAM PIKE AT 595 PUTNAM PIKE""",41.871426,-71.552353,2394691,16:42:00,16:42:00,13,1,9,http://www.ripta.com/9,Weekday
51125,"""PUTNAM PIKE FS AUSTIN""",41.872687,-71.55481,2394691,16:42:00,16:42:00,14,1,9,http://www.ripta.com/9,Weekday
22320,"""PUTNAM PIKE OPP ST PHILLIPS SCHOOL""",41.873744,-71.558677,2394691,16:43:00,16:43:00,15,1,9,http://www.ripta.com/9,Weekday
22505,"""PUTNAM PIKE OPP ARTHUR""",41.874687,-71.562163,2394691,16:43:00,16:43:00,16,1,9,http://www.ripta.com/9,Weekday
58315,"""PUTNAM PIKE OPP 668 PUTNAM PIKE""",41.875902,-71.566021,2394691,16:43:00,16:43:00,17,1,9,http://www.ripta.com/9,Weekday
58320,"""PUTNAM PIKE AT 711 PUTNAM PIKE""",41.87664,-71.568604,2394691,16:44:00,16:44:00,18,1,9,http://www.ripta.com/9,Weekday
22810,"""PUTNAM PIKE NS W GREENVILLE""",41.877571,-71.570921,2394691,16:44:00,16:44:00,19,1,9,http://www.ripta.com/9,Weekday
60140,"""PUTNAM PIKE OPP 781 PUTNAM PIKE""",41.878917,-71.574405,2394691,16:44:00,16:44:00,20,1,9,http://www.ripta.com/9,Weekday
22840,"""PUTNAM PIKE NS 735 PUTNAM PIKE""",41.880603,-71.577826,2394691,16:44:00,16:44:00,21,1,9,http://www.ripta.com/9,Weekday
60145,"""PUTNAM PIKE AT POWDER MILL CREAMERY""",41.881989,-71.57946,2394691,16:45:00,16:45:00,22,1,9,http://www.ripta.com/9,Weekday
23490,"""PUTNAM PIKE OPP LAKESIDE MOTEL""",41.884828,-71.584426,2394691,16:45:00,16:45:00,23,1,9,http://www.ripta.com/9,Weekday
23650,"""PUTNAM PIKE AT 185 PUTNAM PIKE""",41.887603,-71.595583,2394691,16:46:00,16:46:00,24,1,9,http://www.ripta.com/9,Weekday
23765,"""PUTNAM PIKE AT HARMONY MARKET PLACE""",41.895079,-71.612363,2394691,16:48:00,16:48:00,25,1,9,http://www.ripta.com/9,Weekday
24040,"""PUTNAM PIKE NS ABSALONA HILL RD""",41.896207,-71.617391,2394691,16:48:00,16:48:00,26,1,9,http://www.ripta.com/9,Weekday
24060,"""PUTNAM PIKE NS GENTLEMAN FARMER""",41.897236,-71.629107,2394691,16:50:00,16:50:00,27,1,9,http://www.ripta.com/9,Weekday
24295,"""PUTNAM PIKE OPP PINEWOOD PARK""",41.904951,-71.647324,2394691,16:52:00,16:52:00,28,1,9,http://www.ripta.com/9,Weekday
24330,"""PUTNAM PIKE AT 895 PUTNAM PIKE""",41.905213,-71.651517,2394691,16:52:00,16:52:00,29,1,9,http://www.ripta.com/9,Weekday
51140,"""PUTNAM PIKE FS HIGHLAND LAKE""",41.905499,-71.654512,2394691,16:52:00,16:52:00,30,1,9,http://www.ripta.com/9,Weekday
58325,"""PUTNAM PIKE OPP DUNKIN DONUTS""",41.906576,-71.660221,2394691,16:53:00,16:53:00,31,1,9,http://www.ripta.com/9,Weekday
24430,"""PUTNAM PIKE FS CHESTNUT HILL""",41.908684,-71.667703,2394691,16:54:00,16:54:00,32,1,9,http://www.ripta.com/9,Weekday
58330,"""PUTNAM PIKE OPP RADIO TOWER""",41.910059,-71.668163,2394691,16:54:00,16:54:00,33,1,9,http://www.ripta.com/9,Weekday
24440,"""PUTNAM PIKE FS DOUGLAS HOOK""",41.912789,-71.669082,2394691,16:54:00,16:54:00,34,1,9,http://www.ripta.com/9,Weekday
51145,"""RT 102 FS RT 44""",41.916165,-71.671487,2394691,16:55:00,16:55:00,35,1,9,http://www.ripta.com/9,Weekday
51095,"""RT 102 OPP PINE MEADOW""",41.921284,-71.670493,2394691,16:55:00,16:55:00,36,1,9,http://www.ripta.com/9,Weekday
60150,"""RT 102 OPP CROSS""",41.926548,-71.669426,2394691,16:56:00,16:56:00,37,1,9,http://www.ripta.com/9,Weekday
24840,"""LAPHAM FARM NS VICTORY""",41.942859,-71.658163,2394691,16:59:00,16:59:00,38,1,9,http://www.ripta.com/9,Weekday
58335,"""VICTORY HWY AT 545 VICTORY HWY""",41.944144,-71.655121,2394691,16:59:00,16:59:00,39,1,9,http://www.ripta.com/9,Weekday
24870,"""VICTORY HWAY NS SANDHILL""",41.947761,-71.648949,2394691,17:00:00,17:00:00,40,1,9,http://www.ripta.com/9,Weekday
58340,"""VICTORY HWY AT 849 VICTORY HWY""",41.949892,-71.648367,2394691,17:00:00,17:00:00,41,1,9,http://www.ripta.com/9,Weekday
58345,"""VICTORY HWY OPP 908 VICTORY HWY""",41.951463,-71.649122,2394691,17:01:00,17:01:00,42,1,9,http://www.ripta.com/9,Weekday
58350,"""CENTRAL AT 520 CENTRAL""",41.957761,-71.656284,2394691,17:02:00,17:02:00,43,1,9,http://www.ripta.com/9,Weekday
24990,"""CENTRAL NS CORRIE LANE""",41.958644,-71.65894,2394691,17:02:00,17:02:00,44,1,9,http://www.ripta.com/9,Weekday
25035,"""CENTRAL FS LYNNE LN""",41.961143,-71.66346,2394691,17:03:00,17:03:00,45,1,9,http://www.ripta.com/9,Weekday
58360,"""MAIN NS CHAPEL""",41.96592,-71.676945,2394691,17:06:00,17:06:00,46,1,9,http://www.ripta.com/9,Weekday
25085,"""CHAPEL FS MAIN ST""",41.96673,-71.678861,2394691,17:06:00,17:06:00,47,1,9,http://www.ripta.com/9,Weekday
58365,"""CHAPEL AT SUNOCO""",41.968535,-71.687459,2394691,17:08:00,17:08:00,48,1,9,http://www.ripta.com/9,Weekday
25102,"""CHAPEL OPP 67 CHAPEL""",41.966879,-71.691109,2394691,17:08:00,17:08:00,49,1,9,http://www.ripta.com/9,Weekday
25010,"""MAIN OPP ELM""",41.960348,-71.700104,2394691,17:10:00,17:10:00,50,1,9,http://www.ripta.com/9,Weekday
58370,"""MAIN OPP ALBEE""",41.958762,-71.701371,2394691,17:10:00,17:10:00,51,1,9,http://www.ripta.com/9,Weekday
24972,"""BRIDGEWAY NS SAYLES""",41.95712,-71.70219,2394691,17:11:00,17:11:00,52,1,9,http://www.ripta.com/9,Weekday
70330,"""SAYLES FS BRIDGEWAY""",41.956493,-71.702677,2394691,17:11:00,17:11:00,53,1,9,http://www.ripta.com/9,Weekday
16035,"""SABIN MIDBLOCK RI CONVENTION CTR""",41.823682,-71.416802,2394692,17:08:00,17:08:00,1,1,9,http://www.ripta.com/9,Weekday
15575,"""EMPIRE OPP WESTMINSTER""",41.821,-71.415397,2394692,17:09:00,17:09:00,2,1,9,http://www.ripta.com/9,Weekday
15880,"""WEYBOSSET OPP EDDY""",41.822625,-71.41138,2394692,17:11:00,17:11:00,3,1,9,http://www.ripta.com/9,Weekday
16385,"""WEYBOSSET NS POST OFFICE CT""",41.824554,-71.409645,2394692,17:13:00,17:13:00,4,1,9,http://www.ripta.com/9,Weekday
16720,"""KENNEDY PLAZA (STOP X)""",41.825999,-71.412244,2394692,17:15:00,17:15:00,5,1,9,http://www.ripta.com/9,Weekday
22040,"""PUTNAM PIKE AT APPLE VALLEY MALL""",41.870358,-71.529326,2394692,17:36:00,17:36:00,6,1,9,http://www.ripta.com/9,Weekday
22030,"""PUTNAM PIKE FS SANDERSON""",41.8703,-71.531431,2394692,17:36:00,17:36:00,7,1,9,http://www.ripta.com/9,Weekday
21835,"""STOP&SHOP (PUTNAM PIKE - SMITHFIELD)""",41.868633,-71.532351,2394692,17:37:00,17:37:00,8,1,9,http://www.ripta.com/9,Weekday
70800,"""COMMERCE NS PUTNAM PIKE""",41.869415,-71.534554,2394692,17:39:00,17:39:00,9,1,9,http://www.ripta.com/9,Weekday
22005,"""PUTNAM PIKE OPP 458 PUTNAM PIKE""",41.870292,-71.534791,2394692,17:39:00,17:39:00,10,1,9,http://www.ripta.com/9,Weekday
22020,"""PUTNAM PIKE OPP MAPLECREST""",41.870316,-71.54171,2394692,17:40:00,17:40:00,11,1,9,http://www.ripta.com/9,Weekday
22150,"""PUTNAM PIKE NS PLEASANT VIEW""",41.870961,-71.549715,2394692,17:42:00,17:42:00,12,1,9,http://www.ripta.com/9,Weekday
22170,"""PUTNAM PIKE AT 595 PUTNAM PIKE""",41.871426,-71.552353,2394692,17:42:00,17:42:00,13,1,9,http://www.ripta.com/9,Weekday
51125,"""PUTNAM PIKE FS AUSTIN""",41.872687,-71.55481,2394692,17:42:00,17:42:00,14,1,9,http://www.ripta.com/9,Weekday
22320,"""PUTNAM PIKE OPP ST PHILLIPS SCHOOL""",41.873744,-71.558677,2394692,17:43:00,17:43:00,15,1,9,http://www.ripta.com/9,Weekday
22505,"""PUTNAM PIKE OPP ARTHUR""",41.874687,-71.562163,2394692,17:43:00,17:43:00,16,1,9,http://www.ripta.com/9,Weekday
58315,"""PUTNAM PIKE OPP 668 PUTNAM PIKE""",41.875902,-71.566021,2394692,17:43:00,17:43:00,17,1,9,http://www.ripta.com/9,Weekday
58320,"""PUTNAM PIKE AT 711 PUTNAM PIKE""",41.87664,-71.568604,2394692,17:44:00,17:44:00,18,1,9,http://www.ripta.com/9,Weekday
22810,"""PUTNAM PIKE NS W GREENVILLE""",41.877571,-71.570921,2394692,17:44:00,17:44:00,19,1,9,http://www.ripta.com/9,Weekday
60140,"""PUTNAM PIKE OPP 781 PUTNAM PIKE""",41.878917,-71.574405,2394692,17:44:00,17:44:00,20,1,9,http://www.ripta.com/9,Weekday
22840,"""PUTNAM PIKE NS 735 PUTNAM PIKE""",41.880603,-71.577826,2394692,17:44:00,17:44:00,21,1,9,http://www.ripta.com/9,Weekday
60145,"""PUTNAM PIKE AT POWDER MILL CREAMERY""",41.881989,-71.57946,2394692,17:45:00,17:45:00,22,1,9,http://www.ripta.com/9,Weekday
23490,"""PUTNAM PIKE OPP LAKESIDE MOTEL""",41.884828,-71.584426,2394692,17:45:00,17:45:00,23,1,9,http://www.ripta.com/9,Weekday
23650,"""PUTNAM PIKE AT 185 PUTNAM PIKE""",41.887603,-71.595583,2394692,17:46:00,17:46:00,24,1,9,http://www.ripta.com/9,Weekday
23765,"""PUTNAM PIKE AT HARMONY MARKET PLACE""",41.895079,-71.612363,2394692,17:48:00,17:48:00,25,1,9,http://www.ripta.com/9,Weekday
24040,"""PUTNAM PIKE NS ABSALONA HILL RD""",41.896207,-71.617391,2394692,17:48:00,17:48:00,26,1,9,http://www.ripta.com/9,Weekday
24060,"""PUTNAM PIKE NS GENTLEMAN FARMER""",41.897236,-71.629107,2394692,17:50:00,17:50:00,27,1,9,http://www.ripta.com/9,Weekday
24295,"""PUTNAM PIKE OPP PINEWOOD PARK""",41.904951,-71.647324,2394692,17:52:00,17:52:00,28,1,9,http://www.ripta.com/9,Weekday
24330,"""PUTNAM PIKE AT 895 PUTNAM PIKE""",41.905213,-71.651517,2394692,17:52:00,17:52:00,29,1,9,http://www.ripta.com/9,Weekday
51140,"""PUTNAM PIKE FS HIGHLAND LAKE""",41.905499,-71.654512,2394692,17:52:00,17:52:00,30,1,9,http://www.ripta.com/9,Weekday
58325,"""PUTNAM PIKE OPP DUNKIN DONUTS""",41.906576,-71.660221,2394692,17:53:00,17:53:00,31,1,9,http://www.ripta.com/9,Weekday
24430,"""PUTNAM PIKE FS CHESTNUT HILL""",41.908684,-71.667703,2394692,17:54:00,17:54:00,32,1,9,http://www.ripta.com/9,Weekday
58330,"""PUTNAM PIKE OPP RADIO TOWER""",41.910059,-71.668163,2394692,17:54:00,17:54:00,33,1,9,http://www.ripta.com/9,Weekday
24440,"""PUTNAM PIKE FS DOUGLAS HOOK""",41.912789,-71.669082,2394692,17:54:00,17:54:00,34,1,9,http://www.ripta.com/9,Weekday
51145,"""RT 102 FS RT 44""",41.916165,-71.671487,2394692,17:55:00,17:55:00,35,1,9,http://www.ripta.com/9,Weekday
51095,"""RT 102 OPP PINE MEADOW""",41.921284,-71.670493,2394692,17:55:00,17:55:00,36,1,9,http://www.ripta.com/9,Weekday
60150,"""RT 102 OPP CROSS""",41.926548,-71.669426,2394692,17:56:00,17:56:00,37,1,9,http://www.ripta.com/9,Weekday
24840,"""LAPHAM FARM NS VICTORY""",41.942859,-71.658163,2394692,17:59:00,17:59:00,38,1,9,http://www.ripta.com/9,Weekday
58335,"""VICTORY HWY AT 545 VICTORY HWY""",41.944144,-71.655121,2394692,17:59:00,17:59:00,39,1,9,http://www.ripta.com/9,Weekday
24870,"""VICTORY HWAY NS SANDHILL""",41.947761,-71.648949,2394692,18:00:00,18:00:00,40,1,9,http://www.ripta.com/9,Weekday
58340,"""VICTORY HWY AT 849 VICTORY HWY""",41.949892,-71.648367,2394692,18:00:00,18:00:00,41,1,9,http://www.ripta.com/9,Weekday
58345,"""VICTORY HWY OPP 908 VICTORY HWY""",41.951463,-71.649122,2394692,18:01:00,18:01:00,42,1,9,http://www.ripta.com/9,Weekday
58350,"""CENTRAL AT 520 CENTRAL""",41.957761,-71.656284,2394692,18:02:00,18:02:00,43,1,9,http://www.ripta.com/9,Weekday
24990,"""CENTRAL NS CORRIE LANE""",41.958644,-71.65894,2394692,18:02:00,18:02:00,44,1,9,http://www.ripta.com/9,Weekday
25035,"""CENTRAL FS LYNNE LN""",41.961143,-71.66346,2394692,18:03:00,18:03:00,45,1,9,http://www.ripta.com/9,Weekday
58360,"""MAIN NS CHAPEL""",41.96592,-71.676945,2394692,18:06:00,18:06:00,46,1,9,http://www.ripta.com/9,Weekday
25085,"""CHAPEL FS MAIN ST""",41.96673,-71.678861,2394692,18:06:00,18:06:00,47,1,9,http://www.ripta.com/9,Weekday
58365,"""CHAPEL AT SUNOCO""",41.968535,-71.687459,2394692,18:08:00,18:08:00,48,1,9,http://www.ripta.com/9,Weekday
25102,"""CHAPEL OPP 67 CHAPEL""",41.966879,-71.691109,2394692,18:08:00,18:08:00,49,1,9,http://www.ripta.com/9,Weekday
25010,"""MAIN OPP ELM""",41.960348,-71.700104,2394692,18:10:00,18:10:00,50,1,9,http://www.ripta.com/9,Weekday
58370,"""MAIN OPP ALBEE""",41.958762,-71.701371,2394692,18:10:00,18:10:00,51,1,9,http://www.ripta.com/9,Weekday
24972,"""BRIDGEWAY NS SAYLES""",41.95712,-71.70219,2394692,18:11:00,18:11:00,52,1,9,http://www.ripta.com/9,Weekday
70330,"""SAYLES FS BRIDGEWAY""",41.956493,-71.702677,2394692,18:11:00,18:11:00,53,1,9,http://www.ripta.com/9,Weekday
16035,"""SABIN MIDBLOCK RI CONVENTION CTR""",41.823682,-71.416802,2396222,16:38:00,16:38:00,1,1,9,http://www.ripta.com/9,Weekday
15575,"""EMPIRE OPP WESTMINSTER""",41.821,-71.415397,2396222,16:39:00,16:39:00,2,1,9,http://www.ripta.com/9,Weekday
15880,"""WEYBOSSET OPP EDDY""",41.822625,-71.41138,2396222,16:41:00,16:41:00,3,1,9,http://www.ripta.com/9,Weekday
16385,"""WEYBOSSET NS POST OFFICE CT""",41.824554,-71.409645,2396222,16:43:00,16:43:00,4,1,9,http://www.ripta.com/9,Weekday
16720,"""KENNEDY PLAZA (STOP X)""",41.825999,-71.412244,2396222,16:45:00,16:45:00,5,1,9,http://www.ripta.com/9,Weekday
22040,"""PUTNAM PIKE AT APPLE VALLEY MALL""",41.870358,-71.529326,2396222,17:06:00,17:06:00,6,1,9,http://www.ripta.com/9,Weekday
22030,"""PUTNAM PIKE FS SANDERSON""",41.8703,-71.531431,2396222,17:06:00,17:06:00,7,1,9,http://www.ripta.com/9,Weekday
21835,"""STOP&SHOP (PUTNAM PIKE - SMITHFIELD)""",41.868633,-71.532351,2396222,17:07:00,17:07:00,8,1,9,http://www.ripta.com/9,Weekday
70800,"""COMMERCE NS PUTNAM PIKE""",41.869415,-71.534554,2396222,17:09:00,17:09:00,9,1,9,http://www.ripta.com/9,Weekday
22005,"""PUTNAM PIKE OPP 458 PUTNAM PIKE""",41.870292,-71.534791,2396222,17:09:00,17:09:00,10,1,9,http://www.ripta.com/9,Weekday
22020,"""PUTNAM PIKE OPP MAPLECREST""",41.870316,-71.54171,2396222,17:10:00,17:10:00,11,1,9,http://www.ripta.com/9,Weekday
22150,"""PUTNAM PIKE NS PLEASANT VIEW""",41.870961,-71.549715,2396222,17:12:00,17:12:00,12,1,9,http://www.ripta.com/9,Weekday
22170,"""PUTNAM PIKE AT 595 PUTNAM PIKE""",41.871426,-71.552353,2396222,17:12:00,17:12:00,13,1,9,http://www.ripta.com/9,Weekday
51125,"""PUTNAM PIKE FS AUSTIN""",41.872687,-71.55481,2396222,17:12:00,17:12:00,14,1,9,http://www.ripta.com/9,Weekday
22320,"""PUTNAM PIKE OPP ST PHILLIPS SCHOOL""",41.873744,-71.558677,2396222,17:13:00,17:13:00,15,1,9,http://www.ripta.com/9,Weekday
22505,"""PUTNAM PIKE OPP ARTHUR""",41.874687,-71.562163,2396222,17:13:00,17:13:00,16,1,9,http://www.ripta.com/9,Weekday
58315,"""PUTNAM PIKE OPP 668 PUTNAM PIKE""",41.875902,-71.566021,2396222,17:13:00,17:13:00,17,1,9,http://www.ripta.com/9,Weekday
58320,"""PUTNAM PIKE AT 711 PUTNAM PIKE""",41.87664,-71.568604,2396222,17:14:00,17:14:00,18,1,9,http://www.ripta.com/9,Weekday
22810,"""PUTNAM PIKE NS W GREENVILLE""",41.877571,-71.570921,2396222,17:14:00,17:14:00,19,1,9,http://www.ripta.com/9,Weekday
60140,"""PUTNAM PIKE OPP 781 PUTNAM PIKE""",41.878917,-71.574405,2396222,17:14:00,17:14:00,20,1,9,http://www.ripta.com/9,Weekday
22840,"""PUTNAM PIKE NS 735 PUTNAM PIKE""",41.880603,-71.577826,2396222,17:14:00,17:14:00,21,1,9,http://www.ripta.com/9,Weekday
60145,"""PUTNAM PIKE AT POWDER MILL CREAMERY""",41.881989,-71.57946,2396222,17:15:00,17:15:00,22,1,9,http://www.ripta.com/9,Weekday
23490,"""PUTNAM PIKE OPP LAKESIDE MOTEL""",41.884828,-71.584426,2396222,17:15:00,17:15:00,23,1,9,http://www.ripta.com/9,Weekday
23650,"""PUTNAM PIKE AT 185 PUTNAM PIKE""",41.887603,-71.595583,2396222,17:16:00,17:16:00,24,1,9,http://www.ripta.com/9,Weekday
23765,"""PUTNAM PIKE AT HARMONY MARKET PLACE""",41.895079,-71.612363,2396222,17:18:00,17:18:00,25,1,9,http://www.ripta.com/9,Weekday
24040,"""PUTNAM PIKE NS ABSALONA HILL RD""",41.896207,-71.617391,2396222,17:18:00,17:18:00,26,1,9,http://www.ripta.com/9,Weekday
24060,"""PUTNAM PIKE NS GENTLEMAN FARMER""",41.897236,-71.629107,2396222,17:20:00,17:20:00,27,1,9,http://www.ripta.com/9,Weekday
24295,"""PUTNAM PIKE OPP PINEWOOD PARK""",41.904951,-71.647324,2396222,17:22:00,17:22:00,28,1,9,http://www.ripta.com/9,Weekday
24330,"""PUTNAM PIKE AT 895 PUTNAM PIKE""",41.905213,-71.651517,2396222,17:22:00,17:22:00,29,1,9,http://www.ripta.com/9,Weekday
51140,"""PUTNAM PIKE FS HIGHLAND LAKE""",41.905499,-71.654512,2396222,17:22:00,17:22:00,30,1,9,http://www.ripta.com/9,Weekday
58325,"""PUTNAM PIKE OPP DUNKIN DONUTS""",41.906576,-71.660221,2396222,17:23:00,17:23:00,31,1,9,http://www.ripta.com/9,Weekday
24430,"""PUTNAM PIKE FS CHESTNUT HILL""",41.908684,-71.667703,2396222,17:24:00,17:24:00,32,1,9,http://www.ripta.com/9,Weekday
58330,"""PUTNAM PIKE OPP RADIO TOWER""",41.910059,-71.668163,2396222,17:24:00,17:24:00,33,1,9,http://www.ripta.com/9,Weekday
24440,"""PUTNAM PIKE FS DOUGLAS HOOK""",41.912789,-71.669082,2396222,17:24:00,17:24:00,34,1,9,http://www.ripta.com/9,Weekday
51145,"""RT 102 FS RT 44""",41.916165,-71.671487,2396222,17:25:00,17:25:00,35,1,9,http://www.ripta.com/9,Weekday
51095,"""RT 102 OPP PINE MEADOW""",41.921284,-71.670493,2396222,17:25:00,17:25:00,36,1,9,http://www.ripta.com/9,Weekday
60150,"""RT 102 OPP CROSS""",41.926548,-71.669426,2396222,17:26:00,17:26:00,37,1,9,http://www.ripta.com/9,Weekday
24840,"""LAPHAM FARM NS VICTORY""",41.942859,-71.658163,2396222,17:29:00,17:29:00,38,1,9,http://www.ripta.com/9,Weekday
58335,"""VICTORY HWY AT 545 VICTORY HWY""",41.944144,-71.655121,2396222,17:29:00,17:29:00,39,1,9,http://www.ripta.com/9,Weekday
24870,"""VICTORY HWAY NS SANDHILL""",41.947761,-71.648949,2396222,17:30:00,17:30:00,40,1,9,http://www.ripta.com/9,Weekday
58340,"""VICTORY HWY AT 849 VICTORY HWY""",41.949892,-71.648367,2396222,17:30:00,17:30:00,41,1,9,http://www.ripta.com/9,Weekday
58345,"""VICTORY HWY OPP 908 VICTORY HWY""",41.951463,-71.649122,2396222,17:31:00,17:31:00,42,1,9,http://www.ripta.com/9,Weekday
58350,"""CENTRAL AT 520 CENTRAL""",41.957761,-71.656284,2396222,17:32:00,17:32:00,43,1,9,http://www.ripta.com/9,Weekday
24990,"""CENTRAL NS CORRIE LANE""",41.958644,-71.65894,2396222,17:32:00,17:32:00,44,1,9,http://www.ripta.com/9,Weekday
25035,"""CENTRAL FS LYNNE LN""",41.961143,-71.66346,2396222,17:33:00,17:33:00,45,1,9,http://www.ripta.com/9,Weekday
58360,"""MAIN NS CHAPEL""",41.96592,-71.676945,2396222,17:36:00,17:36:00,46,1,9,http://www.ripta.com/9,Weekday
25085,"""CHAPEL FS MAIN ST""",41.96673,-71.678861,2396222,17:36:00,17:36:00,47,1,9,http://www.ripta.com/9,Weekday
58365,"""CHAPEL AT SUNOCO""",41.968535,-71.687459,2396222,17:38:00,17:38:00,48,1,9,http://www.ripta.com/9,Weekday
25102,"""CHAPEL OPP 67 CHAPEL""",41.966879,-71.691109,2396222,17:38:00,17:38:00,49,1,9,http://www.ripta.com/9,Weekday
25010,"""MAIN OPP ELM""",41.960348,-71.700104,2396222,17:40:00,17:40:00,50,1,9,http://www.ripta.com/9,Weekday
58370,"""MAIN OPP ALBEE""",41.958762,-71.701371,2396222,17:40:00,17:40:00,51,1,9,http://www.ripta.com/9,Weekday
24972,"""BRIDGEWAY NS SAYLES""",41.95712,-71.70219,2396222,17:41:00,17:41:00,52,1,9,http://www.ripta.com/9,Weekday
70330,"""SAYLES FS BRIDGEWAY""",41.956493,-71.702677,2396222,17:41:00,17:41:00,53,1,9,http://www.ripta.com/9,Weekday
