stop_id,stop_name,stop_lat,stop_lon,trip_id,arrival_time,departure_time,stop_sequence,direction_id,route_id,route_url,serviceid
16035,"""SABIN MIDBLOCK RI CONVENTION CTR""",41.823682,-71.416802,2394670,06:00:00,06:00:00,1,1,8,http://www.ripta.com/8,Weekday
15575,"""EMPIRE OPP WESTMINSTER""",41.821,-71.415397,2394670,06:01:00,06:01:00,2,1,8,http://www.ripta.com/8,Weekday
15880,"""WEYBOSSET OPP EDDY""",41.822625,-71.41138,2394670,06:03:00,06:03:00,3,1,8,http://www.ripta.com/8,Weekday
16385,"""WEYBOSSET NS POST OFFICE CT""",41.824554,-71.409645,2394670,06:05:00,06:05:00,4,1,8,http://www.ripta.com/8,Weekday
16720,"""KENNEDY PLAZA (STOP X)""",41.825999,-71.412244,2394670,06:07:00,06:07:00,5,1,8,http://www.ripta.com/8,Weekday
72305,"""JEFFERSON BLVD NS CYPRESS""",41.755179,-71.438239,2394670,06:21:00,06:21:00,6,1,8,http://www.ripta.com/8,Weekday
8770,"""JEFFERSON BLVD NS CYPRESS""",41.752742,-71.435568,2394670,06:21:00,06:21:00,7,1,8,http://www.ripta.com/8,Weekday
59960,"""JEFFERSON BLVD AT 51 JEFFERSON BLVD""",41.751614,-71.435008,2394670,06:21:00,06:21:00,8,1,8,http://www.ripta.com/8,Weekday
8710,"""JEFFERSON BLVD NS CHESTNUT""",41.75085,-71.435047,2394670,06:21:00,06:21:00,9,1,8,http://www.ripta.com/8,Weekday
8610,"""JEFFERSON BLVD NS MAPLE""",41.748899,-71.43576,2394670,06:22:00,06:22:00,10,1,8,http://www.ripta.com/8,Weekday
8365,"""JEFFERSON BLVD OPP 100 JEFFERSON BLVD""",41.745985,-71.436824,2394670,06:23:00,06:23:00,11,1,8,http://www.ripta.com/8,Weekday
8230,"""JEFFERSON BLVD FS LINCOLN""",41.742723,-71.437983,2394670,06:23:00,06:23:00,12,1,8,http://www.ripta.com/8,Weekday
8145,"""JEFFERSON BLVD AT 245 JEFFERSON BLVD""",41.741113,-71.438565,2394670,06:24:00,06:24:00,13,1,8,http://www.ripta.com/8,Weekday
8105,"""JEFFERSON BLVD NS VERMONT""",41.73985,-71.439109,2394670,06:24:00,06:24:00,14,1,8,http://www.ripta.com/8,Weekday
8035,"""JEFFERSON BLVD FS BAY STATE AVE""",41.738297,-71.439628,2394670,06:24:00,06:24:00,15,1,8,http://www.ripta.com/8,Weekday
7925,"""JEFFERSON BLVD FS SERVICE AVE""",41.736482,-71.440274,2394670,06:25:00,06:25:00,16,1,8,http://www.ripta.com/8,Weekday
7860,"""JEFFERSON BLVD AT 443 JEFFERSON BLVD""",41.735387,-71.440718,2394670,06:25:00,06:25:00,17,1,8,http://www.ripta.com/8,Weekday
7690,"""JEFFERSON BLVD AT 555 JEFFERSON BLVD""",41.732704,-71.441609,2394670,06:25:00,06:25:00,18,1,8,http://www.ripta.com/8,Weekday
7600,"""JEFFERSON BLVD NS QUIMBY""",41.731359,-71.442128,2394670,06:26:00,06:26:00,19,1,8,http://www.ripta.com/8,Weekday
7430,"""JEFFERSON BLVD FS THURBER""",41.728409,-71.443196,2394670,06:26:00,06:26:00,20,1,8,http://www.ripta.com/8,Weekday
7385,"""JEFFERSON BLVD AT LEVITON MFG""",41.727256,-71.443624,2394670,06:27:00,06:27:00,21,1,8,http://www.ripta.com/8,Weekday
7235,"""JEFFERSON BLVD NS BROWNELL""",41.72485,-71.444538,2394670,06:27:00,06:27:00,22,1,8,http://www.ripta.com/8,Weekday
7025,"""JEFFERSON BLVD OPP 1000 JEFFERSON BLVD""",41.721344,-71.445834,2394670,06:28:00,06:28:00,23,1,8,http://www.ripta.com/8,Weekday
6885,"""JEFFERSON BLVD FS WILLIAMSBURG""",41.719553,-71.446465,2394670,06:28:00,06:28:00,24,1,8,http://www.ripta.com/8,Weekday
6750,"""JEFFERSON BLVD OPP THRIFT STORE""",41.717416,-71.447132,2394670,06:29:00,06:29:00,25,1,8,http://www.ripta.com/8,Weekday
58290,"""JEFFERSON BLVD NS ECHO""",41.715019,-71.447807,2394670,06:29:00,06:29:00,26,1,8,http://www.ripta.com/8,Weekday
6360,"""JEFFERSON BLVD FS ECHO""",41.713408,-71.448385,2394670,06:30:00,06:30:00,27,1,8,http://www.ripta.com/8,Weekday
6205,"""JEFFERSON BLVD NS GILLMORE""",41.712329,-71.448791,2394670,06:30:00,06:30:00,28,1,8,http://www.ripta.com/8,Weekday
6100,"""MAIN AVE NS GORHAM""",41.710862,-71.444294,2394670,06:31:00,06:31:00,29,1,8,http://www.ripta.com/8,Weekday
6030,"""MAIN AVE NS GERTRUDE""",41.710531,-71.441963,2394670,06:31:00,06:31:00,30,1,8,http://www.ripta.com/8,Weekday
6010,"""MAIN AVE NS GROVELAND""",41.710375,-71.440749,2394670,06:32:00,06:32:00,31,1,8,http://www.ripta.com/8,Weekday
6340,"""STRAWBERRY FIELD NS CARNEY""",41.713774,-71.43112,2394670,06:34:00,06:34:00,32,1,8,http://www.ripta.com/8,Weekday
6300,"""STRAWBERRY FIELD FS BURGESS""",41.712933,-71.429532,2394670,06:34:00,06:34:00,33,1,8,http://www.ripta.com/8,Weekday
58295,"""STRAWBERRY FIELD FS EVERGLADE""",41.71199,-71.427855,2394670,06:35:00,06:35:00,34,1,8,http://www.ripta.com/8,Weekday
5835,"""STRAWBERRY FIELD NS LAKE""",41.707206,-71.419311,2394670,06:36:00,06:36:00,35,1,8,http://www.ripta.com/8,Weekday
5760,"""STRAWBERRY FIELD FS ELMORE""",41.70628,-71.418246,2394670,06:37:00,06:37:00,36,1,8,http://www.ripta.com/8,Weekday
5690,"""WEST SHORE AT DUNKIN DONUTS""",41.705048,-71.418987,2394670,06:37:00,06:37:00,37,1,8,http://www.ripta.com/8,Weekday
5595,"""WEST SHORE FS MOCASSIN""",41.703761,-71.42154,2394670,06:38:00,06:38:00,38,1,8,http://www.ripta.com/8,Weekday
5570,"""WEST SHORE FS WHITE""",41.70325,-71.42484,2394670,06:38:00,06:38:00,39,1,8,http://www.ripta.com/8,Weekday
5530,"""WEST SHORE FS MODENA""",41.702867,-71.427365,2394670,06:39:00,06:39:00,40,1,8,http://www.ripta.com/8,Weekday
5495,"""WEST SHORE AT BANK OF RI""",41.702633,-71.428779,2394670,06:39:00,06:39:00,41,1,8,http://www.ripta.com/8,Weekday
58300,"""BUTTONWOODS FS WEST SHORE""",41.701628,-71.43048,2394670,06:40:00,06:40:00,42,1,8,http://www.ripta.com/8,Weekday
5175,"""BUTTONWOODS FS NOYLES""",41.698982,-71.429546,2394670,06:41:00,06:41:00,43,1,8,http://www.ripta.com/8,Weekday
5095,"""BUTTONWOODS OPP KEELEY""",41.697632,-71.42881,2394670,06:41:00,06:41:00,44,1,8,http://www.ripta.com/8,Weekday
5025,"""BUTTONWOODS FS LONG""",41.696307,-71.4281,2394670,06:41:00,06:41:00,45,1,8,http://www.ripta.com/8,Weekday
4975,"""BUTTONWOODS AT 417 BUTTONWOODS""",41.695325,-71.427557,2394670,06:42:00,06:42:00,46,1,8,http://www.ripta.com/8,Weekday
4915,"""BUTTONWOODS AT BUTTONWOODS TERRACE PLAZA""",41.695186,-71.427334,2394670,06:42:00,06:42:00,47,1,8,http://www.ripta.com/8,Weekday
16035,"""SABIN MIDBLOCK RI CONVENTION CTR""",41.823682,-71.416802,2394671,06:30:00,06:30:00,1,1,8,http://www.ripta.com/8,Weekday
15575,"""EMPIRE OPP WESTMINSTER""",41.821,-71.415397,2394671,06:31:00,06:31:00,2,1,8,http://www.ripta.com/8,Weekday
15880,"""WEYBOSSET OPP EDDY""",41.822625,-71.41138,2394671,06:33:00,06:33:00,3,1,8,http://www.ripta.com/8,Weekday
16385,"""WEYBOSSET NS POST OFFICE CT""",41.824554,-71.409645,2394671,06:35:00,06:35:00,4,1,8,http://www.ripta.com/8,Weekday
16720,"""KENNEDY PLAZA (STOP X)""",41.825999,-71.412244,2394671,06:37:00,06:37:00,5,1,8,http://www.ripta.com/8,Weekday
72305,"""JEFFERSON BLVD NS CYPRESS""",41.755179,-71.438239,2394671,06:51:00,06:51:00,6,1,8,http://www.ripta.com/8,Weekday
8770,"""JEFFERSON BLVD NS CYPRESS""",41.752742,-71.435568,2394671,06:51:00,06:51:00,7,1,8,http://www.ripta.com/8,Weekday
59960,"""JEFFERSON BLVD AT 51 JEFFERSON BLVD""",41.751614,-71.435008,2394671,06:51:00,06:51:00,8,1,8,http://www.ripta.com/8,Weekday
8710,"""JEFFERSON BLVD NS CHESTNUT""",41.75085,-71.435047,2394671,06:51:00,06:51:00,9,1,8,http://www.ripta.com/8,Weekday
8610,"""JEFFERSON BLVD NS MAPLE""",41.748899,-71.43576,2394671,06:52:00,06:52:00,10,1,8,http://www.ripta.com/8,Weekday
8365,"""JEFFERSON BLVD OPP 100 JEFFERSON BLVD""",41.745985,-71.436824,2394671,06:53:00,06:53:00,11,1,8,http://www.ripta.com/8,Weekday
8230,"""JEFFERSON BLVD FS LINCOLN""",41.742723,-71.437983,2394671,06:53:00,06:53:00,12,1,8,http://www.ripta.com/8,Weekday
8145,"""JEFFERSON BLVD AT 245 JEFFERSON BLVD""",41.741113,-71.438565,2394671,06:54:00,06:54:00,13,1,8,http://www.ripta.com/8,Weekday
8105,"""JEFFERSON BLVD NS VERMONT""",41.73985,-71.439109,2394671,06:54:00,06:54:00,14,1,8,http://www.ripta.com/8,Weekday
8035,"""JEFFERSON BLVD FS BAY STATE AVE""",41.738297,-71.439628,2394671,06:54:00,06:54:00,15,1,8,http://www.ripta.com/8,Weekday
7925,"""JEFFERSON BLVD FS SERVICE AVE""",41.736482,-71.440274,2394671,06:55:00,06:55:00,16,1,8,http://www.ripta.com/8,Weekday
7860,"""JEFFERSON BLVD AT 443 JEFFERSON BLVD""",41.735387,-71.440718,2394671,06:55:00,06:55:00,17,1,8,http://www.ripta.com/8,Weekday
7690,"""JEFFERSON BLVD AT 555 JEFFERSON BLVD""",41.732704,-71.441609,2394671,06:55:00,06:55:00,18,1,8,http://www.ripta.com/8,Weekday
7600,"""JEFFERSON BLVD NS QUIMBY""",41.731359,-71.442128,2394671,06:56:00,06:56:00,19,1,8,http://www.ripta.com/8,Weekday
7430,"""JEFFERSON BLVD FS THURBER""",41.728409,-71.443196,2394671,06:56:00,06:56:00,20,1,8,http://www.ripta.com/8,Weekday
7385,"""JEFFERSON BLVD AT LEVITON MFG""",41.727256,-71.443624,2394671,06:57:00,06:57:00,21,1,8,http://www.ripta.com/8,Weekday
7235,"""JEFFERSON BLVD NS BROWNELL""",41.72485,-71.444538,2394671,06:57:00,06:57:00,22,1,8,http://www.ripta.com/8,Weekday
7025,"""JEFFERSON BLVD OPP 1000 JEFFERSON BLVD""",41.721344,-71.445834,2394671,06:58:00,06:58:00,23,1,8,http://www.ripta.com/8,Weekday
6885,"""JEFFERSON BLVD FS WILLIAMSBURG""",41.719553,-71.446465,2394671,06:58:00,06:58:00,24,1,8,http://www.ripta.com/8,Weekday
6750,"""JEFFERSON BLVD OPP THRIFT STORE""",41.717416,-71.447132,2394671,06:59:00,06:59:00,25,1,8,http://www.ripta.com/8,Weekday
58290,"""JEFFERSON BLVD NS ECHO""",41.715019,-71.447807,2394671,06:59:00,06:59:00,26,1,8,http://www.ripta.com/8,Weekday
6360,"""JEFFERSON BLVD FS ECHO""",41.713408,-71.448385,2394671,07:00:00,07:00:00,27,1,8,http://www.ripta.com/8,Weekday
6205,"""JEFFERSON BLVD NS GILLMORE""",41.712329,-71.448791,2394671,07:00:00,07:00:00,28,1,8,http://www.ripta.com/8,Weekday
6100,"""MAIN AVE NS GORHAM""",41.710862,-71.444294,2394671,07:01:00,07:01:00,29,1,8,http://www.ripta.com/8,Weekday
6030,"""MAIN AVE NS GERTRUDE""",41.710531,-71.441963,2394671,07:01:00,07:01:00,30,1,8,http://www.ripta.com/8,Weekday
6010,"""MAIN AVE NS GROVELAND""",41.710375,-71.440749,2394671,07:02:00,07:02:00,31,1,8,http://www.ripta.com/8,Weekday
6340,"""STRAWBERRY FIELD NS CARNEY""",41.713774,-71.43112,2394671,07:04:00,07:04:00,32,1,8,http://www.ripta.com/8,Weekday
6300,"""STRAWBERRY FIELD FS BURGESS""",41.712933,-71.429532,2394671,07:04:00,07:04:00,33,1,8,http://www.ripta.com/8,Weekday
58295,"""STRAWBERRY FIELD FS EVERGLADE""",41.71199,-71.427855,2394671,07:05:00,07:05:00,34,1,8,http://www.ripta.com/8,Weekday
5835,"""STRAWBERRY FIELD NS LAKE""",41.707206,-71.419311,2394671,07:06:00,07:06:00,35,1,8,http://www.ripta.com/8,Weekday
5760,"""STRAWBERRY FIELD FS ELMORE""",41.70628,-71.418246,2394671,07:07:00,07:07:00,36,1,8,http://www.ripta.com/8,Weekday
5690,"""WEST SHORE AT DUNKIN DONUTS""",41.705048,-71.418987,2394671,07:07:00,07:07:00,37,1,8,http://www.ripta.com/8,Weekday
5595,"""WEST SHORE FS MOCASSIN""",41.703761,-71.42154,2394671,07:08:00,07:08:00,38,1,8,http://www.ripta.com/8,Weekday
5570,"""WEST SHORE FS WHITE""",41.70325,-71.42484,2394671,07:08:00,07:08:00,39,1,8,http://www.ripta.com/8,Weekday
5530,"""WEST SHORE FS MODENA""",41.702867,-71.427365,2394671,07:09:00,07:09:00,40,1,8,http://www.ripta.com/8,Weekday
5495,"""WEST SHORE AT BANK OF RI""",41.702633,-71.428779,2394671,07:09:00,07:09:00,41,1,8,http://www.ripta.com/8,Weekday
58300,"""BUTTONWOODS FS WEST SHORE""",41.701628,-71.43048,2394671,07:10:00,07:10:00,42,1,8,http://www.ripta.com/8,Weekday
5175,"""BUTTONWOODS FS NOYLES""",41.698982,-71.429546,2394671,07:11:00,07:11:00,43,1,8,http://www.ripta.com/8,Weekday
5095,"""BUTTONWOODS OPP KEELEY""",41.697632,-71.42881,2394671,07:11:00,07:11:00,44,1,8,http://www.ripta.com/8,Weekday
5025,"""BUTTONWOODS FS LONG""",41.696307,-71.4281,2394671,07:11:00,07:11:00,45,1,8,http://www.ripta.com/8,Weekday
4975,"""BUTTONWOODS AT 417 BUTTONWOODS""",41.695325,-71.427557,2394671,07:12:00,07:12:00,46,1,8,http://www.ripta.com/8,Weekday
4915,"""BUTTONWOODS AT BUTTONWOODS TERRACE PLAZA""",41.695186,-71.427334,2394671,07:12:00,07:12:00,47,1,8,http://www.ripta.com/8,Weekday
16035,"""SABIN MIDBLOCK RI CONVENTION CTR""",41.823682,-71.416802,2394672,16:50:00,16:50:00,1,1,8,http://www.ripta.com/8,Weekday
15575,"""EMPIRE OPP WESTMINSTER""",41.821,-71.415397,2394672,16:51:00,16:51:00,2,1,8,http://www.ripta.com/8,Weekday
15880,"""WEYBOSSET OPP EDDY""",41.822625,-71.41138,2394672,16:53:00,16:53:00,3,1,8,http://www.ripta.com/8,Weekday
16385,"""WEYBOSSET NS POST OFFICE CT""",41.824554,-71.409645,2394672,16:55:00,16:55:00,4,1,8,http://www.ripta.com/8,Weekday
16720,"""KENNEDY PLAZA (STOP X)""",41.825999,-71.412244,2394672,16:57:00,16:57:00,5,1,8,http://www.ripta.com/8,Weekday
72305,"""JEFFERSON BLVD NS CYPRESS""",41.755179,-71.438239,2394672,17:11:00,17:11:00,6,1,8,http://www.ripta.com/8,Weekday
8770,"""JEFFERSON BLVD NS CYPRESS""",41.752742,-71.435568,2394672,17:11:00,17:11:00,7,1,8,http://www.ripta.com/8,Weekday
59960,"""JEFFERSON BLVD AT 51 JEFFERSON BLVD""",41.751614,-71.435008,2394672,17:11:00,17:11:00,8,1,8,http://www.ripta.com/8,Weekday
8710,"""JEFFERSON BLVD NS CHESTNUT""",41.75085,-71.435047,2394672,17:11:00,17:11:00,9,1,8,http://www.ripta.com/8,Weekday
8610,"""JEFFERSON BLVD NS MAPLE""",41.748899,-71.43576,2394672,17:12:00,17:12:00,10,1,8,http://www.ripta.com/8,Weekday
8365,"""JEFFERSON BLVD OPP 100 JEFFERSON BLVD""",41.745985,-71.436824,2394672,17:13:00,17:13:00,11,1,8,http://www.ripta.com/8,Weekday
8230,"""JEFFERSON BLVD FS LINCOLN""",41.742723,-71.437983,2394672,17:13:00,17:13:00,12,1,8,http://www.ripta.com/8,Weekday
8145,"""JEFFERSON BLVD AT 245 JEFFERSON BLVD""",41.741113,-71.438565,2394672,17:14:00,17:14:00,13,1,8,http://www.ripta.com/8,Weekday
8105,"""JEFFERSON BLVD NS VERMONT""",41.73985,-71.439109,2394672,17:14:00,17:14:00,14,1,8,http://www.ripta.com/8,Weekday
8035,"""JEFFERSON BLVD FS BAY STATE AVE""",41.738297,-71.439628,2394672,17:14:00,17:14:00,15,1,8,http://www.ripta.com/8,Weekday
7925,"""JEFFERSON BLVD FS SERVICE AVE""",41.736482,-71.440274,2394672,17:15:00,17:15:00,16,1,8,http://www.ripta.com/8,Weekday
7860,"""JEFFERSON BLVD AT 443 JEFFERSON BLVD""",41.735387,-71.440718,2394672,17:15:00,17:15:00,17,1,8,http://www.ripta.com/8,Weekday
7690,"""JEFFERSON BLVD AT 555 JEFFERSON BLVD""",41.732704,-71.441609,2394672,17:15:00,17:15:00,18,1,8,http://www.ripta.com/8,Weekday
7600,"""JEFFERSON BLVD NS QUIMBY""",41.731359,-71.442128,2394672,17:16:00,17:16:00,19,1,8,http://www.ripta.com/8,Weekday
7430,"""JEFFERSON BLVD FS THURBER""",41.728409,-71.443196,2394672,17:16:00,17:16:00,20,1,8,http://www.ripta.com/8,Weekday
7385,"""JEFFERSON BLVD AT LEVITON MFG""",41.727256,-71.443624,2394672,17:17:00,17:17:00,21,1,8,http://www.ripta.com/8,Weekday
7235,"""JEFFERSON BLVD NS BROWNELL""",41.72485,-71.444538,2394672,17:17:00,17:17:00,22,1,8,http://www.ripta.com/8,Weekday
7025,"""JEFFERSON BLVD OPP 1000 JEFFERSON BLVD""",41.721344,-71.445834,2394672,17:18:00,17:18:00,23,1,8,http://www.ripta.com/8,Weekday
6885,"""JEFFERSON BLVD FS WILLIAMSBURG""",41.719553,-71.446465,2394672,17:18:00,17:18:00,24,1,8,http://www.ripta.com/8,Weekday
6750,"""JEFFERSON BLVD OPP THRIFT STORE""",41.717416,-71.447132,2394672,17:19:00,17:19:00,25,1,8,http://www.ripta.com/8,Weekday
58290,"""JEFFERSON BLVD NS ECHO""",41.715019,-71.447807,2394672,17:19:00,17:19:00,26,1,8,http://www.ripta.com/8,Weekday
6360,"""JEFFERSON BLVD FS ECHO""",41.713408,-71.448385,2394672,17:20:00,17:20:00,27,1,8,http://www.ripta.com/8,Weekday
6205,"""JEFFERSON BLVD NS GILLMORE""",41.712329,-71.448791,2394672,17:20:00,17:20:00,28,1,8,http://www.ripta.com/8,Weekday
6100,"""MAIN AVE NS GORHAM""",41.710862,-71.444294,2394672,17:21:00,17:21:00,29,1,8,http://www.ripta.com/8,Weekday
6030,"""MAIN AVE NS GERTRUDE""",41.710531,-71.441963,2394672,17:21:00,17:21:00,30,1,8,http://www.ripta.com/8,Weekday
6010,"""MAIN AVE NS GROVELAND""",41.710375,-71.440749,2394672,17:22:00,17:22:00,31,1,8,http://www.ripta.com/8,Weekday
6340,"""STRAWBERRY FIELD NS CARNEY""",41.713774,-71.43112,2394672,17:24:00,17:24:00,32,1,8,http://www.ripta.com/8,Weekday
6300,"""STRAWBERRY FIELD FS BURGESS""",41.712933,-71.429532,2394672,17:24:00,17:24:00,33,1,8,http://www.ripta.com/8,Weekday
58295,"""STRAWBERRY FIELD FS EVERGLADE""",41.71199,-71.427855,2394672,17:25:00,17:25:00,34,1,8,http://www.ripta.com/8,Weekday
5835,"""STRAWBERRY FIELD NS LAKE""",41.707206,-71.419311,2394672,17:26:00,17:26:00,35,1,8,http://www.ripta.com/8,Weekday
5760,"""STRAWBERRY FIELD FS ELMORE""",41.70628,-71.418246,2394672,17:27:00,17:27:00,36,1,8,http://www.ripta.com/8,Weekday
5690,"""WEST SHORE AT DUNKIN DONUTS""",41.705048,-71.418987,2394672,17:27:00,17:27:00,37,1,8,http://www.ripta.com/8,Weekday
5595,"""WEST SHORE FS MOCASSIN""",41.703761,-71.42154,2394672,17:28:00,17:28:00,38,1,8,http://www.ripta.com/8,Weekday
5570,"""WEST SHORE FS WHITE""",41.70325,-71.42484,2394672,17:28:00,17:28:00,39,1,8,http://www.ripta.com/8,Weekday
5530,"""WEST SHORE FS MODENA""",41.702867,-71.427365,2394672,17:29:00,17:29:00,40,1,8,http://www.ripta.com/8,Weekday
5495,"""WEST SHORE AT BANK OF RI""",41.702633,-71.428779,2394672,17:29:00,17:29:00,41,1,8,http://www.ripta.com/8,Weekday
58300,"""BUTTONWOODS FS WEST SHORE""",41.701628,-71.43048,2394672,17:30:00,17:30:00,42,1,8,http://www.ripta.com/8,Weekday
5175,"""BUTTONWOODS FS NOYLES""",41.698982,-71.429546,2394672,17:31:00,17:31:00,43,1,8,http://www.ripta.com/8,Weekday
5095,"""BUTTONWOODS OPP KEELEY""",41.697632,-71.42881,2394672,17:31:00,17:31:00,44,1,8,http://www.ripta.com/8,Weekday
5025,"""BUTTONWOODS FS LONG""",41.696307,-71.4281,2394672,17:31:00,17:31:00,45,1,8,http://www.ripta.com/8,Weekday
4975,"""BUTTONWOODS AT 417 BUTTONWOODS""",41.695325,-71.427557,2394672,17:32:00,17:32:00,46,1,8,http://www.ripta.com/8,Weekday
4915,"""BUTTONWOODS AT BUTTONWOODS TERRACE PLAZA""",41.695186,-71.427334,2394672,17:32:00,17:32:00,47,1,8,http://www.ripta.com/8,Weekday
16035,"""SABIN MIDBLOCK RI CONVENTION CTR""",41.823682,-71.416802,2394673,17:15:00,17:15:00,1,1,8,http://www.ripta.com/8,Weekday
15575,"""EMPIRE OPP WESTMINSTER""",41.821,-71.415397,2394673,17:16:00,17:16:00,2,1,8,http://www.ripta.com/8,Weekday
15880,"""WEYBOSSET OPP EDDY""",41.822625,-71.41138,2394673,17:18:00,17:18:00,3,1,8,http://www.ripta.com/8,Weekday
16385,"""WEYBOSSET NS POST OFFICE CT""",41.824554,-71.409645,2394673,17:20:00,17:20:00,4,1,8,http://www.ripta.com/8,Weekday
16720,"""KENNEDY PLAZA (STOP X)""",41.825999,-71.412244,2394673,17:22:00,17:22:00,5,1,8,http://www.ripta.com/8,Weekday
72305,"""JEFFERSON BLVD NS CYPRESS""",41.755179,-71.438239,2394673,17:36:00,17:36:00,6,1,8,http://www.ripta.com/8,Weekday
8770,"""JEFFERSON BLVD NS CYPRESS""",41.752742,-71.435568,2394673,17:36:00,17:36:00,7,1,8,http://www.ripta.com/8,Weekday
59960,"""JEFFERSON BLVD AT 51 JEFFERSON BLVD""",41.751614,-71.435008,2394673,17:36:00,17:36:00,8,1,8,http://www.ripta.com/8,Weekday
8710,"""JEFFERSON BLVD NS CHESTNUT""",41.75085,-71.435047,2394673,17:36:00,17:36:00,9,1,8,http://www.ripta.com/8,Weekday
8610,"""JEFFERSON BLVD NS MAPLE""",41.748899,-71.43576,2394673,17:37:00,17:37:00,10,1,8,http://www.ripta.com/8,Weekday
8365,"""JEFFERSON BLVD OPP 100 JEFFERSON BLVD""",41.745985,-71.436824,2394673,17:38:00,17:38:00,11,1,8,http://www.ripta.com/8,Weekday
8230,"""JEFFERSON BLVD FS LINCOLN""",41.742723,-71.437983,2394673,17:38:00,17:38:00,12,1,8,http://www.ripta.com/8,Weekday
8145,"""JEFFERSON BLVD AT 245 JEFFERSON BLVD""",41.741113,-71.438565,2394673,17:39:00,17:39:00,13,1,8,http://www.ripta.com/8,Weekday
8105,"""JEFFERSON BLVD NS VERMONT""",41.73985,-71.439109,2394673,17:39:00,17:39:00,14,1,8,http://www.ripta.com/8,Weekday
8035,"""JEFFERSON BLVD FS BAY STATE AVE""",41.738297,-71.439628,2394673,17:39:00,17:39:00,15,1,8,http://www.ripta.com/8,Weekday
7925,"""JEFFERSON BLVD FS SERVICE AVE""",41.736482,-71.440274,2394673,17:40:00,17:40:00,16,1,8,http://www.ripta.com/8,Weekday
7860,"""JEFFERSON BLVD AT 443 JEFFERSON BLVD""",41.735387,-71.440718,2394673,17:40:00,17:40:00,17,1,8,http://www.ripta.com/8,Weekday
7690,"""JEFFERSON BLVD AT 555 JEFFERSON BLVD""",41.732704,-71.441609,2394673,17:40:00,17:40:00,18,1,8,http://www.ripta.com/8,Weekday
7600,"""JEFFERSON BLVD NS QUIMBY""",41.731359,-71.442128,2394673,17:41:00,17:41:00,19,1,8,http://www.ripta.com/8,Weekday
7430,"""JEFFERSON BLVD FS THURBER""",41.728409,-71.443196,2394673,17:41:00,17:41:00,20,1,8,http://www.ripta.com/8,Weekday
7385,"""JEFFERSON BLVD AT LEVITON MFG""",41.727256,-71.443624,2394673,17:42:00,17:42:00,21,1,8,http://www.ripta.com/8,Weekday
7235,"""JEFFERSON BLVD NS BROWNELL""",41.72485,-71.444538,2394673,17:42:00,17:42:00,22,1,8,http://www.ripta.com/8,Weekday
7025,"""JEFFERSON BLVD OPP 1000 JEFFERSON BLVD""",41.721344,-71.445834,2394673,17:43:00,17:43:00,23,1,8,http://www.ripta.com/8,Weekday
6885,"""JEFFERSON BLVD FS WILLIAMSBURG""",41.719553,-71.446465,2394673,17:43:00,17:43:00,24,1,8,http://www.ripta.com/8,Weekday
6750,"""JEFFERSON BLVD OPP THRIFT STORE""",41.717416,-71.447132,2394673,17:44:00,17:44:00,25,1,8,http://www.ripta.com/8,Weekday
58290,"""JEFFERSON BLVD NS ECHO""",41.715019,-71.447807,2394673,17:44:00,17:44:00,26,1,8,http://www.ripta.com/8,Weekday
6360,"""JEFFERSON BLVD FS ECHO""",41.713408,-71.448385,2394673,17:45:00,17:45:00,27,1,8,http://www.ripta.com/8,Weekday
6205,"""JEFFERSON BLVD NS GILLMORE""",41.712329,-71.448791,2394673,17:45:00,17:45:00,28,1,8,http://www.ripta.com/8,Weekday
6100,"""MAIN AVE NS GORHAM""",41.710862,-71.444294,2394673,17:46:00,17:46:00,29,1,8,http://www.ripta.com/8,Weekday
6030,"""MAIN AVE NS GERTRUDE""",41.710531,-71.441963,2394673,17:46:00,17:46:00,30,1,8,http://www.ripta.com/8,Weekday
6010,"""MAIN AVE NS GROVELAND""",41.710375,-71.440749,2394673,17:47:00,17:47:00,31,1,8,http://www.ripta.com/8,Weekday
6340,"""STRAWBERRY FIELD NS CARNEY""",41.713774,-71.43112,2394673,17:49:00,17:49:00,32,1,8,http://www.ripta.com/8,Weekday
6300,"""STRAWBERRY FIELD FS BURGESS""",41.712933,-71.429532,2394673,17:49:00,17:49:00,33,1,8,http://www.ripta.com/8,Weekday
58295,"""STRAWBERRY FIELD FS EVERGLADE""",41.71199,-71.427855,2394673,17:50:00,17:50:00,34,1,8,http://www.ripta.com/8,Weekday
5835,"""STRAWBERRY FIELD NS LAKE""",41.707206,-71.419311,2394673,17:51:00,17:51:00,35,1,8,http://www.ripta.com/8,Weekday
5760,"""STRAWBERRY FIELD FS ELMORE""",41.70628,-71.418246,2394673,17:52:00,17:52:00,36,1,8,http://www.ripta.com/8,Weekday
5690,"""WEST SHORE AT DUNKIN DONUTS""",41.705048,-71.418987,2394673,17:52:00,17:52:00,37,1,8,http://www.ripta.com/8,Weekday
5595,"""WEST SHORE FS MOCASSIN""",41.703761,-71.42154,2394673,17:53:00,17:53:00,38,1,8,http://www.ripta.com/8,Weekday
5570,"""WEST SHORE FS WHITE""",41.70325,-71.42484,2394673,17:53:00,17:53:00,39,1,8,http://www.ripta.com/8,Weekday
5530,"""WEST SHORE FS MODENA""",41.702867,-71.427365,2394673,17:54:00,17:54:00,40,1,8,http://www.ripta.com/8,Weekday
5495,"""WEST SHORE AT BANK OF RI""",41.702633,-71.428779,2394673,17:54:00,17:54:00,41,1,8,http://www.ripta.com/8,Weekday
58300,"""BUTTONWOODS FS WEST SHORE""",41.701628,-71.43048,2394673,17:55:00,17:55:00,42,1,8,http://www.ripta.com/8,Weekday
5175,"""BUTTONWOODS FS NOYLES""",41.698982,-71.429546,2394673,17:56:00,17:56:00,43,1,8,http://www.ripta.com/8,Weekday
5095,"""BUTTONWOODS OPP KEELEY""",41.697632,-71.42881,2394673,17:56:00,17:56:00,44,1,8,http://www.ripta.com/8,Weekday
5025,"""BUTTONWOODS FS LONG""",41.696307,-71.4281,2394673,17:56:00,17:56:00,45,1,8,http://www.ripta.com/8,Weekday
4975,"""BUTTONWOODS AT 417 BUTTONWOODS""",41.695325,-71.427557,2394673,17:57:00,17:57:00,46,1,8,http://www.ripta.com/8,Weekday
4915,"""BUTTONWOODS AT BUTTONWOODS TERRACE PLAZA""",41.695186,-71.427334,2394673,17:57:00,17:57:00,47,1,8,http://www.ripta.com/8,Weekday
4915,"""BUTTONWOODS AT BUTTONWOODS TERRACE PLAZA""",41.695186,-71.427334,2394674,06:50:00,06:50:00,1,0,8,http://www.ripta.com/8,Weekday
5080,"""BUTTONWOODS NS KEELEY""",41.697346,-71.428494,2394674,06:51:00,06:51:00,2,0,8,http://www.ripta.com/8,Weekday
5350,"""BUTTONWOODS NS WEST SHORE""",41.701012,-71.430173,2394674,06:52:00,06:52:00,3,0,8,http://www.ripta.com/8,Weekday
5510,"""WEST SHORE FS MYSTIC""",41.702789,-71.427156,2394674,06:53:00,06:53:00,4,0,8,http://www.ripta.com/8,Weekday
5545,"""WEST SHORE FS KERRILYN""",41.703012,-71.425852,2394674,06:53:00,06:53:00,5,0,8,http://www.ripta.com/8,Weekday
5580,"""WEST SHORE NS SUNNY COVE""",41.703449,-71.423023,2394674,06:54:00,06:54:00,6,0,8,http://www.ripta.com/8,Weekday
5670,"""WEST SHORE AT NEWPORT CREAMERY""",41.704704,-71.419202,2394674,06:55:00,06:55:00,7,0,8,http://www.ripta.com/8,Weekday
5765,"""ALFRED AT WHARF SEAFOOD""",41.706591,-71.417437,2394674,06:56:00,06:56:00,8,0,8,http://www.ripta.com/8,Weekday
5830,"""STRAWBERRY FIELD OPP TURNER""",41.707386,-71.419417,2394674,06:56:00,06:56:00,9,0,8,http://www.ripta.com/8,Weekday
5950,"""STRAWBERRY FIELD NS HANOVER""",41.709197,-71.422599,2394674,06:57:00,06:57:00,10,0,8,http://www.ripta.com/8,Weekday
6040,"""STRAWBERRY FIELD NS ENDICOTT""",41.710519,-71.425012,2394674,06:57:00,06:57:00,11,0,8,http://www.ripta.com/8,Weekday
6165,"""STRAWBERRY FIELD OPP INMAN""",41.711727,-71.427162,2394674,06:58:00,06:58:00,12,0,8,http://www.ripta.com/8,Weekday
6285,"""STRAWBERRY FIELD AT 333 STRAWBERRY FIELD""",41.712949,-71.429346,2394674,06:58:00,06:58:00,13,0,8,http://www.ripta.com/8,Weekday
6015,"""MAIN AVE OPP GROVELAND""",41.710357,-71.440121,2394674,07:00:00,07:00:00,14,0,8,http://www.ripta.com/8,Weekday
6055,"""MAIN AVE NS EARL""",41.710651,-71.441921,2394674,07:01:00,07:01:00,15,0,8,http://www.ripta.com/8,Weekday
6095,"""MAIN AVE NS MORSE""",41.711023,-71.444632,2394674,07:01:00,07:01:00,16,0,8,http://www.ripta.com/8,Weekday
6220,"""JEFFERSON BLVD OPP GILLMORE""",41.7121,-71.44871,2394674,07:02:00,07:02:00,17,0,8,http://www.ripta.com/8,Weekday
6370,"""JEFFERSON BLVD OPP ECHO""",41.71384,-71.448069,2394674,07:02:00,07:02:00,18,0,8,http://www.ripta.com/8,Weekday
6755,"""JEFFERSON BLVD AT BAKERY OUTLET""",41.716901,-71.447028,2394674,07:03:00,07:03:00,19,0,8,http://www.ripta.com/8,Weekday
7365,"""JEFFERSON BLVD OPP 931 JEFFERSON BLVD""",41.720883,-71.445794,2394674,07:04:00,07:04:00,20,0,8,http://www.ripta.com/8,Weekday
59035,"""JEFFERSON BLVD AT TRAIN STATION""",41.727592,-71.44334,2394674,07:05:00,07:05:00,21,0,8,http://www.ripta.com/8,Weekday
7570,"""JEFFERSON BLVD OPP 639 JEFFERSON BLVD""",41.73053,-71.442304,2394674,07:06:00,07:06:00,22,0,8,http://www.ripta.com/8,Weekday
7680,"""JEFFERSON BLVD OPP 555 JEFFERSON BLVD""",41.732582,-71.441581,2394674,07:07:00,07:07:00,23,0,8,http://www.ripta.com/8,Weekday
7795,"""JEFFERSON BLVD OPP CITIZENS BANK""",41.734326,-71.440943,2394674,07:07:00,07:07:00,24,0,8,http://www.ripta.com/8,Weekday
7950,"""JEFFERSON BLVD AT 380 JEFFERSON BLVD""",41.73692,-71.439999,2394674,07:08:00,07:08:00,25,0,8,http://www.ripta.com/8,Weekday
8025,"""JEFFERSON BLVD OPP BAY STATE AVE""",41.738203,-71.439529,2394674,07:08:00,07:08:00,26,0,8,http://www.ripta.com/8,Weekday
8085,"""JEFFERSON BLVD OPP 303 JEFFERSON BLVD""",41.73923,-71.439126,2394674,07:08:00,07:08:00,27,0,8,http://www.ripta.com/8,Weekday
8135,"""JEFFERSON BLVD AT 222 JEFFERSON BLVD""",41.740972,-71.438469,2394674,07:08:00,07:08:00,28,0,8,http://www.ripta.com/8,Weekday
8225,"""JEFFERSON BLVD OPP LINCOLN""",41.743314,-71.437656,2394674,07:09:00,07:09:00,29,0,8,http://www.ripta.com/8,Weekday
8345,"""JEFFERSON BLVD AT 100 JEFFERSON BLVD""",41.745755,-71.436699,2394674,07:09:00,07:09:00,30,0,8,http://www.ripta.com/8,Weekday
8635,"""JEFFERSON BLVD FS SARGENT""",41.749018,-71.435583,2394674,07:10:00,07:10:00,31,0,8,http://www.ripta.com/8,Weekday
8745,"""JEFFERSON BLVD FS CHESTNUT""",41.750595,-71.434989,2394674,07:11:00,07:11:00,32,0,8,http://www.ripta.com/8,Weekday
8820,"""JEFFERSON BLVD NS JEFFERSON PARK RD""",41.752645,-71.435241,2394674,07:11:00,07:11:00,33,0,8,http://www.ripta.com/8,Weekday
16035,"""SABIN MIDBLOCK RI CONVENTION CTR""",41.823682,-71.416802,2394674,07:27:00,07:27:00,34,0,8,http://www.ripta.com/8,Weekday
15575,"""EMPIRE OPP WESTMINSTER""",41.821,-71.415397,2394674,07:28:00,07:28:00,35,0,8,http://www.ripta.com/8,Weekday
15880,"""WEYBOSSET OPP EDDY""",41.822625,-71.41138,2394674,07:30:00,07:30:00,36,0,8,http://www.ripta.com/8,Weekday
16385,"""WEYBOSSET NS POST OFFICE CT""",41.824554,-71.409645,2394674,07:32:00,07:32:00,37,0,8,http://www.ripta.com/8,Weekday
16720,"""KENNEDY PLAZA (STOP X)""",41.825999,-71.412244,2394674,07:34:00,07:34:00,38,0,8,http://www.ripta.com/8,Weekday
4915,"""BUTTONWOODS AT BUTTONWOODS TERRACE PLAZA""",41.695186,-71.427334,2394675,07:20:00,07:20:00,1,0,8,http://www.ripta.com/8,Weekday
5080,"""BUTTONWOODS NS KEELEY""",41.697346,-71.428494,2394675,07:21:00,07:21:00,2,0,8,http://www.ripta.com/8,Weekday
5350,"""BUTTONWOODS NS WEST SHORE""",41.701012,-71.430173,2394675,07:22:00,07:22:00,3,0,8,http://www.ripta.com/8,Weekday
5510,"""WEST SHORE FS MYSTIC""",41.702789,-71.427156,2394675,07:23:00,07:23:00,4,0,8,http://www.ripta.com/8,Weekday
5545,"""WEST SHORE FS KERRILYN""",41.703012,-71.425852,2394675,07:23:00,07:23:00,5,0,8,http://www.ripta.com/8,Weekday
5580,"""WEST SHORE NS SUNNY COVE""",41.703449,-71.423023,2394675,07:24:00,07:24:00,6,0,8,http://www.ripta.com/8,Weekday
5670,"""WEST SHORE AT NEWPORT CREAMERY""",41.704704,-71.419202,2394675,07:25:00,07:25:00,7,0,8,http://www.ripta.com/8,Weekday
5765,"""ALFRED AT WHARF SEAFOOD""",41.706591,-71.417437,2394675,07:26:00,07:26:00,8,0,8,http://www.ripta.com/8,Weekday
5830,"""STRAWBERRY FIELD OPP TURNER""",41.707386,-71.419417,2394675,07:26:00,07:26:00,9,0,8,http://www.ripta.com/8,Weekday
5950,"""STRAWBERRY FIELD NS HANOVER""",41.709197,-71.422599,2394675,07:27:00,07:27:00,10,0,8,http://www.ripta.com/8,Weekday
6040,"""STRAWBERRY FIELD NS ENDICOTT""",41.710519,-71.425012,2394675,07:27:00,07:27:00,11,0,8,http://www.ripta.com/8,Weekday
6165,"""STRAWBERRY FIELD OPP INMAN""",41.711727,-71.427162,2394675,07:28:00,07:28:00,12,0,8,http://www.ripta.com/8,Weekday
6285,"""STRAWBERRY FIELD AT 333 STRAWBERRY FIELD""",41.712949,-71.429346,2394675,07:28:00,07:28:00,13,0,8,http://www.ripta.com/8,Weekday
6015,"""MAIN AVE OPP GROVELAND""",41.710357,-71.440121,2394675,07:30:00,07:30:00,14,0,8,http://www.ripta.com/8,Weekday
6055,"""MAIN AVE NS EARL""",41.710651,-71.441921,2394675,07:31:00,07:31:00,15,0,8,http://www.ripta.com/8,Weekday
6095,"""MAIN AVE NS MORSE""",41.711023,-71.444632,2394675,07:31:00,07:31:00,16,0,8,http://www.ripta.com/8,Weekday
6220,"""JEFFERSON BLVD OPP GILLMORE""",41.7121,-71.44871,2394675,07:32:00,07:32:00,17,0,8,http://www.ripta.com/8,Weekday
6370,"""JEFFERSON BLVD OPP ECHO""",41.71384,-71.448069,2394675,07:32:00,07:32:00,18,0,8,http://www.ripta.com/8,Weekday
6755,"""JEFFERSON BLVD AT BAKERY OUTLET""",41.716901,-71.447028,2394675,07:33:00,07:33:00,19,0,8,http://www.ripta.com/8,Weekday
7365,"""JEFFERSON BLVD OPP 931 JEFFERSON BLVD""",41.720883,-71.445794,2394675,07:34:00,07:34:00,20,0,8,http://www.ripta.com/8,Weekday
59035,"""JEFFERSON BLVD AT TRAIN STATION""",41.727592,-71.44334,2394675,07:35:00,07:35:00,21,0,8,http://www.ripta.com/8,Weekday
7570,"""JEFFERSON BLVD OPP 639 JEFFERSON BLVD""",41.73053,-71.442304,2394675,07:36:00,07:36:00,22,0,8,http://www.ripta.com/8,Weekday
7680,"""JEFFERSON BLVD OPP 555 JEFFERSON BLVD""",41.732582,-71.441581,2394675,07:37:00,07:37:00,23,0,8,http://www.ripta.com/8,Weekday
7795,"""JEFFERSON BLVD OPP CITIZENS BANK""",41.734326,-71.440943,2394675,07:37:00,07:37:00,24,0,8,http://www.ripta.com/8,Weekday
7950,"""JEFFERSON BLVD AT 380 JEFFERSON BLVD""",41.73692,-71.439999,2394675,07:38:00,07:38:00,25,0,8,http://www.ripta.com/8,Weekday
8025,"""JEFFERSON BLVD OPP BAY STATE AVE""",41.738203,-71.439529,2394675,07:38:00,07:38:00,26,0,8,http://www.ripta.com/8,Weekday
8085,"""JEFFERSON BLVD OPP 303 JEFFERSON BLVD""",41.73923,-71.439126,2394675,07:38:00,07:38:00,27,0,8,http://www.ripta.com/8,Weekday
8135,"""JEFFERSON BLVD AT 222 JEFFERSON BLVD""",41.740972,-71.438469,2394675,07:38:00,07:38:00,28,0,8,http://www.ripta.com/8,Weekday
8225,"""JEFFERSON BLVD OPP LINCOLN""",41.743314,-71.437656,2394675,07:39:00,07:39:00,29,0,8,http://www.ripta.com/8,Weekday
8345,"""JEFFERSON BLVD AT 100 JEFFERSON BLVD""",41.745755,-71.436699,2394675,07:39:00,07:39:00,30,0,8,http://www.ripta.com/8,Weekday
8635,"""JEFFERSON BLVD FS SARGENT""",41.749018,-71.435583,2394675,07:40:00,07:40:00,31,0,8,http://www.ripta.com/8,Weekday
8745,"""JEFFERSON BLVD FS CHESTNUT""",41.750595,-71.434989,2394675,07:41:00,07:41:00,32,0,8,http://www.ripta.com/8,Weekday
8820,"""JEFFERSON BLVD NS JEFFERSON PARK RD""",41.752645,-71.435241,2394675,07:41:00,07:41:00,33,0,8,http://www.ripta.com/8,Weekday
16035,"""SABIN MIDBLOCK RI CONVENTION CTR""",41.823682,-71.416802,2394675,07:57:00,07:57:00,34,0,8,http://www.ripta.com/8,Weekday
15575,"""EMPIRE OPP WESTMINSTER""",41.821,-71.415397,2394675,07:58:00,07:58:00,35,0,8,http://www.ripta.com/8,Weekday
15880,"""WEYBOSSET OPP EDDY""",41.822625,-71.41138,2394675,08:00:00,08:00:00,36,0,8,http://www.ripta.com/8,Weekday
16385,"""WEYBOSSET NS POST OFFICE CT""",41.824554,-71.409645,2394675,08:02:00,08:02:00,37,0,8,http://www.ripta.com/8,Weekday
16720,"""KENNEDY PLAZA (STOP X)""",41.825999,-71.412244,2394675,08:04:00,08:04:00,38,0,8,http://www.ripta.com/8,Weekday
4915,"""BUTTONWOODS AT BUTTONWOODS TERRACE PLAZA""",41.695186,-71.427334,2394676,17:40:00,17:40:00,1,0,8,http://www.ripta.com/8,Weekday
5080,"""BUTTONWOODS NS KEELEY""",41.697346,-71.428494,2394676,17:41:00,17:41:00,2,0,8,http://www.ripta.com/8,Weekday
5350,"""BUTTONWOODS NS WEST SHORE""",41.701012,-71.430173,2394676,17:42:00,17:42:00,3,0,8,http://www.ripta.com/8,Weekday
5510,"""WEST SHORE FS MYSTIC""",41.702789,-71.427156,2394676,17:43:00,17:43:00,4,0,8,http://www.ripta.com/8,Weekday
5545,"""WEST SHORE FS KERRILYN""",41.703012,-71.425852,2394676,17:43:00,17:43:00,5,0,8,http://www.ripta.com/8,Weekday
5580,"""WEST SHORE NS SUNNY COVE""",41.703449,-71.423023,2394676,17:44:00,17:44:00,6,0,8,http://www.ripta.com/8,Weekday
5670,"""WEST SHORE AT NEWPORT CREAMERY""",41.704704,-71.419202,2394676,17:45:00,17:45:00,7,0,8,http://www.ripta.com/8,Weekday
5765,"""ALFRED AT WHARF SEAFOOD""",41.706591,-71.417437,2394676,17:46:00,17:46:00,8,0,8,http://www.ripta.com/8,Weekday
5830,"""STRAWBERRY FIELD OPP TURNER""",41.707386,-71.419417,2394676,17:46:00,17:46:00,9,0,8,http://www.ripta.com/8,Weekday
5950,"""STRAWBERRY FIELD NS HANOVER""",41.709197,-71.422599,2394676,17:47:00,17:47:00,10,0,8,http://www.ripta.com/8,Weekday
6040,"""STRAWBERRY FIELD NS ENDICOTT""",41.710519,-71.425012,2394676,17:47:00,17:47:00,11,0,8,http://www.ripta.com/8,Weekday
6165,"""STRAWBERRY FIELD OPP INMAN""",41.711727,-71.427162,2394676,17:48:00,17:48:00,12,0,8,http://www.ripta.com/8,Weekday
6285,"""STRAWBERRY FIELD AT 333 STRAWBERRY FIELD""",41.712949,-71.429346,2394676,17:48:00,17:48:00,13,0,8,http://www.ripta.com/8,Weekday
6015,"""MAIN AVE OPP GROVELAND""",41.710357,-71.440121,2394676,17:50:00,17:50:00,14,0,8,http://www.ripta.com/8,Weekday
6055,"""MAIN AVE NS EARL""",41.710651,-71.441921,2394676,17:51:00,17:51:00,15,0,8,http://www.ripta.com/8,Weekday
6095,"""MAIN AVE NS MORSE""",41.711023,-71.444632,2394676,17:51:00,17:51:00,16,0,8,http://www.ripta.com/8,Weekday
6220,"""JEFFERSON BLVD OPP GILLMORE""",41.7121,-71.44871,2394676,17:52:00,17:52:00,17,0,8,http://www.ripta.com/8,Weekday
6370,"""JEFFERSON BLVD OPP ECHO""",41.71384,-71.448069,2394676,17:52:00,17:52:00,18,0,8,http://www.ripta.com/8,Weekday
6755,"""JEFFERSON BLVD AT BAKERY OUTLET""",41.716901,-71.447028,2394676,17:53:00,17:53:00,19,0,8,http://www.ripta.com/8,Weekday
7365,"""JEFFERSON BLVD OPP 931 JEFFERSON BLVD""",41.720883,-71.445794,2394676,17:54:00,17:54:00,20,0,8,http://www.ripta.com/8,Weekday
59035,"""JEFFERSON BLVD AT TRAIN STATION""",41.727592,-71.44334,2394676,17:55:00,17:55:00,21,0,8,http://www.ripta.com/8,Weekday
7570,"""JEFFERSON BLVD OPP 639 JEFFERSON BLVD""",41.73053,-71.442304,2394676,17:56:00,17:56:00,22,0,8,http://www.ripta.com/8,Weekday
7680,"""JEFFERSON BLVD OPP 555 JEFFERSON BLVD""",41.732582,-71.441581,2394676,17:57:00,17:57:00,23,0,8,http://www.ripta.com/8,Weekday
7795,"""JEFFERSON BLVD OPP CITIZENS BANK""",41.734326,-71.440943,2394676,17:57:00,17:57:00,24,0,8,http://www.ripta.com/8,Weekday
7950,"""JEFFERSON BLVD AT 380 JEFFERSON BLVD""",41.73692,-71.439999,2394676,17:58:00,17:58:00,25,0,8,http://www.ripta.com/8,Weekday
8025,"""JEFFERSON BLVD OPP BAY STATE AVE""",41.738203,-71.439529,2394676,17:58:00,17:58:00,26,0,8,http://www.ripta.com/8,Weekday
8085,"""JEFFERSON BLVD OPP 303 JEFFERSON BLVD""",41.73923,-71.439126,2394676,17:58:00,17:58:00,27,0,8,http://www.ripta.com/8,Weekday
8135,"""JEFFERSON BLVD AT 222 JEFFERSON BLVD""",41.740972,-71.438469,2394676,17:58:00,17:58:00,28,0,8,http://www.ripta.com/8,Weekday
8225,"""JEFFERSON BLVD OPP LINCOLN""",41.743314,-71.437656,2394676,17:59:00,17:59:00,29,0,8,http://www.ripta.com/8,Weekday
8345,"""JEFFERSON BLVD AT 100 JEFFERSON BLVD""",41.745755,-71.436699,2394676,17:59:00,17:59:00,30,0,8,http://www.ripta.com/8,Weekday
8635,"""JEFFERSON BLVD FS SARGENT""",41.749018,-71.435583,2394676,18:00:00,18:00:00,31,0,8,http://www.ripta.com/8,Weekday
8745,"""JEFFERSON BLVD FS CHESTNUT""",41.750595,-71.434989,2394676,18:01:00,18:01:00,32,0,8,http://www.ripta.com/8,Weekday
8820,"""JEFFERSON BLVD NS JEFFERSON PARK RD""",41.752645,-71.435241,2394676,18:01:00,18:01:00,33,0,8,http://www.ripta.com/8,Weekday
16035,"""SABIN MIDBLOCK RI CONVENTION CTR""",41.823682,-71.416802,2394676,18:17:00,18:17:00,34,0,8,http://www.ripta.com/8,Weekday
15575,"""EMPIRE OPP WESTMINSTER""",41.821,-71.415397,2394676,18:18:00,18:18:00,35,0,8,http://www.ripta.com/8,Weekday
15880,"""WEYBOSSET OPP EDDY""",41.822625,-71.41138,2394676,18:20:00,18:20:00,36,0,8,http://www.ripta.com/8,Weekday
16385,"""WEYBOSSET NS POST OFFICE CT""",41.824554,-71.409645,2394676,18:22:00,18:22:00,37,0,8,http://www.ripta.com/8,Weekday
16720,"""KENNEDY PLAZA (STOP X)""",41.825999,-71.412244,2394676,18:24:00,18:24:00,38,0,8,http://www.ripta.com/8,Weekday
6255,"""GREENWOOD COMMUNITY CHURCH""",41.712533,-71.450192,2394677,14:55:00,14:55:00,1,0,8,http://www.ripta.com/8,Weekday
6220,"""JEFFERSON BLVD OPP GILLMORE""",41.7121,-71.44871,2394677,14:56:00,14:56:00,2,0,8,http://www.ripta.com/8,Weekday
6370,"""JEFFERSON BLVD OPP ECHO""",41.71384,-71.448069,2394677,14:56:00,14:56:00,3,0,8,http://www.ripta.com/8,Weekday
6755,"""JEFFERSON BLVD AT BAKERY OUTLET""",41.716901,-71.447028,2394677,14:57:00,14:57:00,4,0,8,http://www.ripta.com/8,Weekday
7365,"""JEFFERSON BLVD OPP 931 JEFFERSON BLVD""",41.720883,-71.445794,2394677,14:58:00,14:58:00,5,0,8,http://www.ripta.com/8,Weekday
59035,"""JEFFERSON BLVD AT TRAIN STATION""",41.727592,-71.44334,2394677,14:59:00,14:59:00,6,0,8,http://www.ripta.com/8,Weekday
7570,"""JEFFERSON BLVD OPP 639 JEFFERSON BLVD""",41.73053,-71.442304,2394677,15:00:00,15:00:00,7,0,8,http://www.ripta.com/8,Weekday
7680,"""JEFFERSON BLVD OPP 555 JEFFERSON BLVD""",41.732582,-71.441581,2394677,15:00:00,15:00:00,8,0,8,http://www.ripta.com/8,Weekday
7795,"""JEFFERSON BLVD OPP CITIZENS BANK""",41.734326,-71.440943,2394677,15:01:00,15:01:00,9,0,8,http://www.ripta.com/8,Weekday
7950,"""JEFFERSON BLVD AT 380 JEFFERSON BLVD""",41.73692,-71.439999,2394677,15:01:00,15:01:00,10,0,8,http://www.ripta.com/8,Weekday
8025,"""JEFFERSON BLVD OPP BAY STATE AVE""",41.738203,-71.439529,2394677,15:02:00,15:02:00,11,0,8,http://www.ripta.com/8,Weekday
8085,"""JEFFERSON BLVD OPP 303 JEFFERSON BLVD""",41.73923,-71.439126,2394677,15:02:00,15:02:00,12,0,8,http://www.ripta.com/8,Weekday
8135,"""JEFFERSON BLVD AT 222 JEFFERSON BLVD""",41.740972,-71.438469,2394677,15:02:00,15:02:00,13,0,8,http://www.ripta.com/8,Weekday
8225,"""JEFFERSON BLVD OPP LINCOLN""",41.743314,-71.437656,2394677,15:03:00,15:03:00,14,0,8,http://www.ripta.com/8,Weekday
8345,"""JEFFERSON BLVD AT 100 JEFFERSON BLVD""",41.745755,-71.436699,2394677,15:03:00,15:03:00,15,0,8,http://www.ripta.com/8,Weekday
8635,"""JEFFERSON BLVD FS SARGENT""",41.749018,-71.435583,2394677,15:04:00,15:04:00,16,0,8,http://www.ripta.com/8,Weekday
8745,"""JEFFERSON BLVD FS CHESTNUT""",41.750595,-71.434989,2394677,15:05:00,15:05:00,17,0,8,http://www.ripta.com/8,Weekday
8820,"""JEFFERSON BLVD NS JEFFERSON PARK RD""",41.752645,-71.435241,2394677,15:05:00,15:05:00,18,0,8,http://www.ripta.com/8,Weekday
16035,"""SABIN MIDBLOCK RI CONVENTION CTR""",41.823682,-71.416802,2394677,15:21:00,15:21:00,19,0,8,http://www.ripta.com/8,Weekday
15575,"""EMPIRE OPP WESTMINSTER""",41.821,-71.415397,2394677,15:22:00,15:22:00,20,0,8,http://www.ripta.com/8,Weekday
15880,"""WEYBOSSET OPP EDDY""",41.822625,-71.41138,2394677,15:24:00,15:24:00,21,0,8,http://www.ripta.com/8,Weekday
16385,"""WEYBOSSET NS POST OFFICE CT""",41.824554,-71.409645,2394677,15:26:00,15:26:00,22,0,8,http://www.ripta.com/8,Weekday
16720,"""KENNEDY PLAZA (STOP X)""",41.825999,-71.412244,2394677,15:28:00,15:28:00,23,0,8,http://www.ripta.com/8,Weekday
6255,"""GREENWOOD COMMUNITY CHURCH""",41.712533,-71.450192,2394678,16:11:00,16:11:00,1,0,8,http://www.ripta.com/8,Weekday
6220,"""JEFFERSON BLVD OPP GILLMORE""",41.7121,-71.44871,2394678,16:12:00,16:12:00,2,0,8,http://www.ripta.com/8,Weekday
6370,"""JEFFERSON BLVD OPP ECHO""",41.71384,-71.448069,2394678,16:12:00,16:12:00,3,0,8,http://www.ripta.com/8,Weekday
6755,"""JEFFERSON BLVD AT BAKERY OUTLET""",41.716901,-71.447028,2394678,16:13:00,16:13:00,4,0,8,http://www.ripta.com/8,Weekday
7365,"""JEFFERSON BLVD OPP 931 JEFFERSON BLVD""",41.720883,-71.445794,2394678,16:14:00,16:14:00,5,0,8,http://www.ripta.com/8,Weekday
59035,"""JEFFERSON BLVD AT TRAIN STATION""",41.727592,-71.44334,2394678,16:15:00,16:15:00,6,0,8,http://www.ripta.com/8,Weekday
7570,"""JEFFERSON BLVD OPP 639 JEFFERSON BLVD""",41.73053,-71.442304,2394678,16:16:00,16:16:00,7,0,8,http://www.ripta.com/8,Weekday
7680,"""JEFFERSON BLVD OPP 555 JEFFERSON BLVD""",41.732582,-71.441581,2394678,16:16:00,16:16:00,8,0,8,http://www.ripta.com/8,Weekday
7795,"""JEFFERSON BLVD OPP CITIZENS BANK""",41.734326,-71.440943,2394678,16:17:00,16:17:00,9,0,8,http://www.ripta.com/8,Weekday
7950,"""JEFFERSON BLVD AT 380 JEFFERSON BLVD""",41.73692,-71.439999,2394678,16:17:00,16:17:00,10,0,8,http://www.ripta.com/8,Weekday
8025,"""JEFFERSON BLVD OPP BAY STATE AVE""",41.738203,-71.439529,2394678,16:18:00,16:18:00,11,0,8,http://www.ripta.com/8,Weekday
8085,"""JEFFERSON BLVD OPP 303 JEFFERSON BLVD""",41.73923,-71.439126,2394678,16:18:00,16:18:00,12,0,8,http://www.ripta.com/8,Weekday
8135,"""JEFFERSON BLVD AT 222 JEFFERSON BLVD""",41.740972,-71.438469,2394678,16:18:00,16:18:00,13,0,8,http://www.ripta.com/8,Weekday
8225,"""JEFFERSON BLVD OPP LINCOLN""",41.743314,-71.437656,2394678,16:19:00,16:19:00,14,0,8,http://www.ripta.com/8,Weekday
8345,"""JEFFERSON BLVD AT 100 JEFFERSON BLVD""",41.745755,-71.436699,2394678,16:19:00,16:19:00,15,0,8,http://www.ripta.com/8,Weekday
8635,"""JEFFERSON BLVD FS SARGENT""",41.749018,-71.435583,2394678,16:20:00,16:20:00,16,0,8,http://www.ripta.com/8,Weekday
8745,"""JEFFERSON BLVD FS CHESTNUT""",41.750595,-71.434989,2394678,16:21:00,16:21:00,17,0,8,http://www.ripta.com/8,Weekday
8820,"""JEFFERSON BLVD NS JEFFERSON PARK RD""",41.752645,-71.435241,2394678,16:21:00,16:21:00,18,0,8,http://www.ripta.com/8,Weekday
16035,"""SABIN MIDBLOCK RI CONVENTION CTR""",41.823682,-71.416802,2394678,16:37:00,16:37:00,19,0,8,http://www.ripta.com/8,Weekday
15575,"""EMPIRE OPP WESTMINSTER""",41.821,-71.415397,2394678,16:38:00,16:38:00,20,0,8,http://www.ripta.com/8,Weekday
15880,"""WEYBOSSET OPP EDDY""",41.822625,-71.41138,2394678,16:40:00,16:40:00,21,0,8,http://www.ripta.com/8,Weekday
16385,"""WEYBOSSET NS POST OFFICE CT""",41.824554,-71.409645,2394678,16:42:00,16:42:00,22,0,8,http://www.ripta.com/8,Weekday
16720,"""KENNEDY PLAZA (STOP X)""",41.825999,-71.412244,2394678,16:44:00,16:44:00,23,0,8,http://www.ripta.com/8,Weekday
6255,"""GREENWOOD COMMUNITY CHURCH""",41.712533,-71.450192,2394679,16:33:00,16:33:00,1,0,8,http://www.ripta.com/8,Weekday
6220,"""JEFFERSON BLVD OPP GILLMORE""",41.7121,-71.44871,2394679,16:34:00,16:34:00,2,0,8,http://www.ripta.com/8,Weekday
6370,"""JEFFERSON BLVD OPP ECHO""",41.71384,-71.448069,2394679,16:34:00,16:34:00,3,0,8,http://www.ripta.com/8,Weekday
6755,"""JEFFERSON BLVD AT BAKERY OUTLET""",41.716901,-71.447028,2394679,16:35:00,16:35:00,4,0,8,http://www.ripta.com/8,Weekday
7365,"""JEFFERSON BLVD OPP 931 JEFFERSON BLVD""",41.720883,-71.445794,2394679,16:36:00,16:36:00,5,0,8,http://www.ripta.com/8,Weekday
59035,"""JEFFERSON BLVD AT TRAIN STATION""",41.727592,-71.44334,2394679,16:37:00,16:37:00,6,0,8,http://www.ripta.com/8,Weekday
7570,"""JEFFERSON BLVD OPP 639 JEFFERSON BLVD""",41.73053,-71.442304,2394679,16:38:00,16:38:00,7,0,8,http://www.ripta.com/8,Weekday
7680,"""JEFFERSON BLVD OPP 555 JEFFERSON BLVD""",41.732582,-71.441581,2394679,16:38:00,16:38:00,8,0,8,http://www.ripta.com/8,Weekday
7795,"""JEFFERSON BLVD OPP CITIZENS BANK""",41.734326,-71.440943,2394679,16:39:00,16:39:00,9,0,8,http://www.ripta.com/8,Weekday
7950,"""JEFFERSON BLVD AT 380 JEFFERSON BLVD""",41.73692,-71.439999,2394679,16:39:00,16:39:00,10,0,8,http://www.ripta.com/8,Weekday
8025,"""JEFFERSON BLVD OPP BAY STATE AVE""",41.738203,-71.439529,2394679,16:40:00,16:40:00,11,0,8,http://www.ripta.com/8,Weekday
8085,"""JEFFERSON BLVD OPP 303 JEFFERSON BLVD""",41.73923,-71.439126,2394679,16:40:00,16:40:00,12,0,8,http://www.ripta.com/8,Weekday
8135,"""JEFFERSON BLVD AT 222 JEFFERSON BLVD""",41.740972,-71.438469,2394679,16:40:00,16:40:00,13,0,8,http://www.ripta.com/8,Weekday
8225,"""JEFFERSON BLVD OPP LINCOLN""",41.743314,-71.437656,2394679,16:41:00,16:41:00,14,0,8,http://www.ripta.com/8,Weekday
8345,"""JEFFERSON BLVD AT 100 JEFFERSON BLVD""",41.745755,-71.436699,2394679,16:41:00,16:41:00,15,0,8,http://www.ripta.com/8,Weekday
8635,"""JEFFERSON BLVD FS SARGENT""",41.749018,-71.435583,2394679,16:42:00,16:42:00,16,0,8,http://www.ripta.com/8,Weekday
8745,"""JEFFERSON BLVD FS CHESTNUT""",41.750595,-71.434989,2394679,16:43:00,16:43:00,17,0,8,http://www.ripta.com/8,Weekday
8820,"""JEFFERSON BLVD NS JEFFERSON PARK RD""",41.752645,-71.435241,2394679,16:43:00,16:43:00,18,0,8,http://www.ripta.com/8,Weekday
16035,"""SABIN MIDBLOCK RI CONVENTION CTR""",41.823682,-71.416802,2394679,16:59:00,16:59:00,19,0,8,http://www.ripta.com/8,Weekday
15575,"""EMPIRE OPP WESTMINSTER""",41.821,-71.415397,2394679,17:00:00,17:00:00,20,0,8,http://www.ripta.com/8,Weekday
15880,"""WEYBOSSET OPP EDDY""",41.822625,-71.41138,2394679,17:02:00,17:02:00,21,0,8,http://www.ripta.com/8,Weekday
16385,"""WEYBOSSET NS POST OFFICE CT""",41.824554,-71.409645,2394679,17:04:00,17:04:00,22,0,8,http://www.ripta.com/8,Weekday
16720,"""KENNEDY PLAZA (STOP X)""",41.825999,-71.412244,2394679,17:06:00,17:06:00,23,0,8,http://www.ripta.com/8,Weekday
16035,"""SABIN MIDBLOCK RI CONVENTION CTR""",41.823682,-71.416802,2394680,07:40:00,07:40:00,1,1,8,http://www.ripta.com/8,Weekday
15575,"""EMPIRE OPP WESTMINSTER""",41.821,-71.415397,2394680,07:41:00,07:41:00,2,1,8,http://www.ripta.com/8,Weekday
15880,"""WEYBOSSET OPP EDDY""",41.822625,-71.41138,2394680,07:43:00,07:43:00,3,1,8,http://www.ripta.com/8,Weekday
16385,"""WEYBOSSET NS POST OFFICE CT""",41.824554,-71.409645,2394680,07:45:00,07:45:00,4,1,8,http://www.ripta.com/8,Weekday
16720,"""KENNEDY PLAZA (STOP X)""",41.825999,-71.412244,2394680,07:47:00,07:47:00,5,1,8,http://www.ripta.com/8,Weekday
72305,"""JEFFERSON BLVD NS CYPRESS""",41.755179,-71.438239,2394680,08:01:00,08:01:00,6,1,8,http://www.ripta.com/8,Weekday
8770,"""JEFFERSON BLVD NS CYPRESS""",41.752742,-71.435568,2394680,08:01:00,08:01:00,7,1,8,http://www.ripta.com/8,Weekday
59960,"""JEFFERSON BLVD AT 51 JEFFERSON BLVD""",41.751614,-71.435008,2394680,08:01:00,08:01:00,8,1,8,http://www.ripta.com/8,Weekday
8710,"""JEFFERSON BLVD NS CHESTNUT""",41.75085,-71.435047,2394680,08:01:00,08:01:00,9,1,8,http://www.ripta.com/8,Weekday
8610,"""JEFFERSON BLVD NS MAPLE""",41.748899,-71.43576,2394680,08:02:00,08:02:00,10,1,8,http://www.ripta.com/8,Weekday
8365,"""JEFFERSON BLVD OPP 100 JEFFERSON BLVD""",41.745985,-71.436824,2394680,08:03:00,08:03:00,11,1,8,http://www.ripta.com/8,Weekday
8230,"""JEFFERSON BLVD FS LINCOLN""",41.742723,-71.437983,2394680,08:03:00,08:03:00,12,1,8,http://www.ripta.com/8,Weekday
8145,"""JEFFERSON BLVD AT 245 JEFFERSON BLVD""",41.741113,-71.438565,2394680,08:04:00,08:04:00,13,1,8,http://www.ripta.com/8,Weekday
8105,"""JEFFERSON BLVD NS VERMONT""",41.73985,-71.439109,2394680,08:04:00,08:04:00,14,1,8,http://www.ripta.com/8,Weekday
8035,"""JEFFERSON BLVD FS BAY STATE AVE""",41.738297,-71.439628,2394680,08:04:00,08:04:00,15,1,8,http://www.ripta.com/8,Weekday
7925,"""JEFFERSON BLVD FS SERVICE AVE""",41.736482,-71.440274,2394680,08:05:00,08:05:00,16,1,8,http://www.ripta.com/8,Weekday
7860,"""JEFFERSON BLVD AT 443 JEFFERSON BLVD""",41.735387,-71.440718,2394680,08:05:00,08:05:00,17,1,8,http://www.ripta.com/8,Weekday
7690,"""JEFFERSON BLVD AT 555 JEFFERSON BLVD""",41.732704,-71.441609,2394680,08:06:00,08:06:00,18,1,8,http://www.ripta.com/8,Weekday
7600,"""JEFFERSON BLVD NS QUIMBY""",41.731359,-71.442128,2394680,08:06:00,08:06:00,19,1,8,http://www.ripta.com/8,Weekday
7430,"""JEFFERSON BLVD FS THURBER""",41.728409,-71.443196,2394680,08:07:00,08:07:00,20,1,8,http://www.ripta.com/8,Weekday
7385,"""JEFFERSON BLVD AT LEVITON MFG""",41.727256,-71.443624,2394680,08:07:00,08:07:00,21,1,8,http://www.ripta.com/8,Weekday
7235,"""JEFFERSON BLVD NS BROWNELL""",41.72485,-71.444538,2394680,08:07:00,08:07:00,22,1,8,http://www.ripta.com/8,Weekday
7025,"""JEFFERSON BLVD OPP 1000 JEFFERSON BLVD""",41.721344,-71.445834,2394680,08:08:00,08:08:00,23,1,8,http://www.ripta.com/8,Weekday
6885,"""JEFFERSON BLVD FS WILLIAMSBURG""",41.719553,-71.446465,2394680,08:09:00,08:09:00,24,1,8,http://www.ripta.com/8,Weekday
6750,"""JEFFERSON BLVD OPP THRIFT STORE""",41.717416,-71.447132,2394680,08:09:00,08:09:00,25,1,8,http://www.ripta.com/8,Weekday
58290,"""JEFFERSON BLVD NS ECHO""",41.715019,-71.447807,2394680,08:10:00,08:10:00,26,1,8,http://www.ripta.com/8,Weekday
6360,"""JEFFERSON BLVD FS ECHO""",41.713408,-71.448385,2394680,08:10:00,08:10:00,27,1,8,http://www.ripta.com/8,Weekday
6205,"""JEFFERSON BLVD NS GILLMORE""",41.712329,-71.448791,2394680,08:10:00,08:10:00,28,1,8,http://www.ripta.com/8,Weekday
6255,"""GREENWOOD COMMUNITY CHURCH""",41.712533,-71.450192,2394680,08:11:00,08:11:00,29,1,8,http://www.ripta.com/8,Weekday
16035,"""SABIN MIDBLOCK RI CONVENTION CTR""",41.823682,-71.416802,2394681,08:10:00,08:10:00,1,1,8,http://www.ripta.com/8,Weekday
15575,"""EMPIRE OPP WESTMINSTER""",41.821,-71.415397,2394681,08:11:00,08:11:00,2,1,8,http://www.ripta.com/8,Weekday
15880,"""WEYBOSSET OPP EDDY""",41.822625,-71.41138,2394681,08:13:00,08:13:00,3,1,8,http://www.ripta.com/8,Weekday
16385,"""WEYBOSSET NS POST OFFICE CT""",41.824554,-71.409645,2394681,08:15:00,08:15:00,4,1,8,http://www.ripta.com/8,Weekday
16720,"""KENNEDY PLAZA (STOP X)""",41.825999,-71.412244,2394681,08:17:00,08:17:00,5,1,8,http://www.ripta.com/8,Weekday
72305,"""JEFFERSON BLVD NS CYPRESS""",41.755179,-71.438239,2394681,08:31:00,08:31:00,6,1,8,http://www.ripta.com/8,Weekday
8770,"""JEFFERSON BLVD NS CYPRESS""",41.752742,-71.435568,2394681,08:31:00,08:31:00,7,1,8,http://www.ripta.com/8,Weekday
59960,"""JEFFERSON BLVD AT 51 JEFFERSON BLVD""",41.751614,-71.435008,2394681,08:31:00,08:31:00,8,1,8,http://www.ripta.com/8,Weekday
8710,"""JEFFERSON BLVD NS CHESTNUT""",41.75085,-71.435047,2394681,08:31:00,08:31:00,9,1,8,http://www.ripta.com/8,Weekday
8610,"""JEFFERSON BLVD NS MAPLE""",41.748899,-71.43576,2394681,08:32:00,08:32:00,10,1,8,http://www.ripta.com/8,Weekday
8365,"""JEFFERSON BLVD OPP 100 JEFFERSON BLVD""",41.745985,-71.436824,2394681,08:33:00,08:33:00,11,1,8,http://www.ripta.com/8,Weekday
8230,"""JEFFERSON BLVD FS LINCOLN""",41.742723,-71.437983,2394681,08:33:00,08:33:00,12,1,8,http://www.ripta.com/8,Weekday
8145,"""JEFFERSON BLVD AT 245 JEFFERSON BLVD""",41.741113,-71.438565,2394681,08:34:00,08:34:00,13,1,8,http://www.ripta.com/8,Weekday
8105,"""JEFFERSON BLVD NS VERMONT""",41.73985,-71.439109,2394681,08:34:00,08:34:00,14,1,8,http://www.ripta.com/8,Weekday
8035,"""JEFFERSON BLVD FS BAY STATE AVE""",41.738297,-71.439628,2394681,08:34:00,08:34:00,15,1,8,http://www.ripta.com/8,Weekday
7925,"""JEFFERSON BLVD FS SERVICE AVE""",41.736482,-71.440274,2394681,08:35:00,08:35:00,16,1,8,http://www.ripta.com/8,Weekday
7860,"""JEFFERSON BLVD AT 443 JEFFERSON BLVD""",41.735387,-71.440718,2394681,08:35:00,08:35:00,17,1,8,http://www.ripta.com/8,Weekday
7690,"""JEFFERSON BLVD AT 555 JEFFERSON BLVD""",41.732704,-71.441609,2394681,08:36:00,08:36:00,18,1,8,http://www.ripta.com/8,Weekday
7600,"""JEFFERSON BLVD NS QUIMBY""",41.731359,-71.442128,2394681,08:36:00,08:36:00,19,1,8,http://www.ripta.com/8,Weekday
7430,"""JEFFERSON BLVD FS THURBER""",41.728409,-71.443196,2394681,08:37:00,08:37:00,20,1,8,http://www.ripta.com/8,Weekday
7385,"""JEFFERSON BLVD AT LEVITON MFG""",41.727256,-71.443624,2394681,08:37:00,08:37:00,21,1,8,http://www.ripta.com/8,Weekday
7235,"""JEFFERSON BLVD NS BROWNELL""",41.72485,-71.444538,2394681,08:37:00,08:37:00,22,1,8,http://www.ripta.com/8,Weekday
7025,"""JEFFERSON BLVD OPP 1000 JEFFERSON BLVD""",41.721344,-71.445834,2394681,08:38:00,08:38:00,23,1,8,http://www.ripta.com/8,Weekday
6885,"""JEFFERSON BLVD FS WILLIAMSBURG""",41.719553,-71.446465,2394681,08:39:00,08:39:00,24,1,8,http://www.ripta.com/8,Weekday
6750,"""JEFFERSON BLVD OPP THRIFT STORE""",41.717416,-71.447132,2394681,08:39:00,08:39:00,25,1,8,http://www.ripta.com/8,Weekday
58290,"""JEFFERSON BLVD NS ECHO""",41.715019,-71.447807,2394681,08:40:00,08:40:00,26,1,8,http://www.ripta.com/8,Weekday
6360,"""JEFFERSON BLVD FS ECHO""",41.713408,-71.448385,2394681,08:40:00,08:40:00,27,1,8,http://www.ripta.com/8,Weekday
6205,"""JEFFERSON BLVD NS GILLMORE""",41.712329,-71.448791,2394681,08:40:00,08:40:00,28,1,8,http://www.ripta.com/8,Weekday
6255,"""GREENWOOD COMMUNITY CHURCH""",41.712533,-71.450192,2394681,08:41:00,08:41:00,29,1,8,http://www.ripta.com/8,Weekday
16035,"""SABIN MIDBLOCK RI CONVENTION CTR""",41.823682,-71.416802,2394682,15:33:00,15:33:00,1,1,8,http://www.ripta.com/8,Weekday
15575,"""EMPIRE OPP WESTMINSTER""",41.821,-71.415397,2394682,15:34:00,15:34:00,2,1,8,http://www.ripta.com/8,Weekday
15880,"""WEYBOSSET OPP EDDY""",41.822625,-71.41138,2394682,15:36:00,15:36:00,3,1,8,http://www.ripta.com/8,Weekday
16385,"""WEYBOSSET NS POST OFFICE CT""",41.824554,-71.409645,2394682,15:38:00,15:38:00,4,1,8,http://www.ripta.com/8,Weekday
16720,"""KENNEDY PLAZA (STOP X)""",41.825999,-71.412244,2394682,15:40:00,15:40:00,5,1,8,http://www.ripta.com/8,Weekday
72305,"""JEFFERSON BLVD NS CYPRESS""",41.755179,-71.438239,2394682,15:54:00,15:54:00,6,1,8,http://www.ripta.com/8,Weekday
8770,"""JEFFERSON BLVD NS CYPRESS""",41.752742,-71.435568,2394682,15:54:00,15:54:00,7,1,8,http://www.ripta.com/8,Weekday
59960,"""JEFFERSON BLVD AT 51 JEFFERSON BLVD""",41.751614,-71.435008,2394682,15:54:00,15:54:00,8,1,8,http://www.ripta.com/8,Weekday
8710,"""JEFFERSON BLVD NS CHESTNUT""",41.75085,-71.435047,2394682,15:54:00,15:54:00,9,1,8,http://www.ripta.com/8,Weekday
8610,"""JEFFERSON BLVD NS MAPLE""",41.748899,-71.43576,2394682,15:55:00,15:55:00,10,1,8,http://www.ripta.com/8,Weekday
8365,"""JEFFERSON BLVD OPP 100 JEFFERSON BLVD""",41.745985,-71.436824,2394682,15:56:00,15:56:00,11,1,8,http://www.ripta.com/8,Weekday
8230,"""JEFFERSON BLVD FS LINCOLN""",41.742723,-71.437983,2394682,15:56:00,15:56:00,12,1,8,http://www.ripta.com/8,Weekday
8145,"""JEFFERSON BLVD AT 245 JEFFERSON BLVD""",41.741113,-71.438565,2394682,15:57:00,15:57:00,13,1,8,http://www.ripta.com/8,Weekday
8105,"""JEFFERSON BLVD NS VERMONT""",41.73985,-71.439109,2394682,15:57:00,15:57:00,14,1,8,http://www.ripta.com/8,Weekday
8035,"""JEFFERSON BLVD FS BAY STATE AVE""",41.738297,-71.439628,2394682,15:57:00,15:57:00,15,1,8,http://www.ripta.com/8,Weekday
7925,"""JEFFERSON BLVD FS SERVICE AVE""",41.736482,-71.440274,2394682,15:58:00,15:58:00,16,1,8,http://www.ripta.com/8,Weekday
7860,"""JEFFERSON BLVD AT 443 JEFFERSON BLVD""",41.735387,-71.440718,2394682,15:58:00,15:58:00,17,1,8,http://www.ripta.com/8,Weekday
7690,"""JEFFERSON BLVD AT 555 JEFFERSON BLVD""",41.732704,-71.441609,2394682,15:59:00,15:59:00,18,1,8,http://www.ripta.com/8,Weekday
7600,"""JEFFERSON BLVD NS QUIMBY""",41.731359,-71.442128,2394682,15:59:00,15:59:00,19,1,8,http://www.ripta.com/8,Weekday
7430,"""JEFFERSON BLVD FS THURBER""",41.728409,-71.443196,2394682,16:00:00,16:00:00,20,1,8,http://www.ripta.com/8,Weekday
7385,"""JEFFERSON BLVD AT LEVITON MFG""",41.727256,-71.443624,2394682,16:00:00,16:00:00,21,1,8,http://www.ripta.com/8,Weekday
7235,"""JEFFERSON BLVD NS BROWNELL""",41.72485,-71.444538,2394682,16:00:00,16:00:00,22,1,8,http://www.ripta.com/8,Weekday
7025,"""JEFFERSON BLVD OPP 1000 JEFFERSON BLVD""",41.721344,-71.445834,2394682,16:01:00,16:01:00,23,1,8,http://www.ripta.com/8,Weekday
6885,"""JEFFERSON BLVD FS WILLIAMSBURG""",41.719553,-71.446465,2394682,16:02:00,16:02:00,24,1,8,http://www.ripta.com/8,Weekday
6750,"""JEFFERSON BLVD OPP THRIFT STORE""",41.717416,-71.447132,2394682,16:02:00,16:02:00,25,1,8,http://www.ripta.com/8,Weekday
58290,"""JEFFERSON BLVD NS ECHO""",41.715019,-71.447807,2394682,16:03:00,16:03:00,26,1,8,http://www.ripta.com/8,Weekday
6360,"""JEFFERSON BLVD FS ECHO""",41.713408,-71.448385,2394682,16:03:00,16:03:00,27,1,8,http://www.ripta.com/8,Weekday
6205,"""JEFFERSON BLVD NS GILLMORE""",41.712329,-71.448791,2394682,16:03:00,16:03:00,28,1,8,http://www.ripta.com/8,Weekday
6255,"""GREENWOOD COMMUNITY CHURCH""",41.712533,-71.450192,2394682,16:04:00,16:04:00,29,1,8,http://www.ripta.com/8,Weekday
