stop_id,stop_name,stop_lat,stop_lon,trip_id,arrival_time,departure_time,stop_sequence,direction_id,route_id,route_url,serviceid
22765,"""PAWTUCKET TRANSIT CTR (TRANSIT CTR SIDE)""",41.877298,-71.383417,2356032,16:20:00,16:20:00,1,1,76,http://www.ripta.com/76,Saturday
56275,"""MAIN NS WALCOTT""",41.875954,-71.380754,2356032,16:21:00,16:21:00,2,1,76,http://www.ripta.com/76,Saturday
22645,"""WALCOTT FS SUMMIT""",41.87663,-71.37902,2356032,16:22:00,16:22:00,3,1,76,http://www.ripta.com/76,Saturday
22670,"""WALCOTT NS ARLINGTON""",41.876934,-71.377349,2356032,16:22:00,16:22:00,4,1,76,http://www.ripta.com/76,Saturday
56495,"""WALCOTT NS MAYNARD""",41.877129,-71.37625,2356032,16:23:00,16:23:00,5,1,76,http://www.ripta.com/76,Saturday
56500,"""WALCOTT FS FRENCH""",41.877299,-71.375125,2356032,16:23:00,16:23:00,6,1,76,http://www.ripta.com/76,Saturday
56505,"""WALCOTT NS DENVER""",41.87749,-71.37428,2356032,16:23:00,16:23:00,7,1,76,http://www.ripta.com/76,Saturday
57670,"""WALCOTT NS NORTH BEND""",41.87767,-71.372897,2356032,16:24:00,16:24:00,8,1,76,http://www.ripta.com/76,Saturday
57675,"""NORTH BEND FS WALCOTT""",41.878109,-71.372851,2356032,16:24:00,16:24:00,9,1,76,http://www.ripta.com/76,Saturday
22981,"""ARMISTICE FS WALCOTT""",41.879033,-71.372465,2356032,16:24:00,16:24:00,10,1,76,http://www.ripta.com/76,Saturday
22995,"""ARMISTICE NS ASHTON""",41.879326,-71.371181,2356032,16:24:00,16:24:00,11,1,76,http://www.ripta.com/76,Saturday
23035,"""ARMISTICE FS SCHOEFIELD""",41.879768,-71.369401,2356032,16:25:00,16:25:00,12,1,76,http://www.ripta.com/76,Saturday
23090,"""ARMISTICE AT 209 ARMISTICE""",41.88002,-71.368329,2356032,16:25:00,16:25:00,13,1,76,http://www.ripta.com/76,Saturday
23165,"""ARMISTICE OPP 270 ARMISTICE""",41.880592,-71.365972,2356032,16:26:00,16:26:00,14,1,76,http://www.ripta.com/76,Saturday
57185,"""G BENNET NS CENTRAL""",41.885084,-71.366903,2356032,16:28:00,16:28:00,15,1,76,http://www.ripta.com/76,Saturday
30175,"""STOP&SHOP (COTTAGE STREET - PAWTUCKET)""",41.888327,-71.367365,2356032,16:29:00,16:29:00,16,1,76,http://www.ripta.com/76,Saturday
56311,"""CENTRAL FS FREEMAN""",41.885281,-71.366046,2356032,16:31:00,16:31:00,17,1,76,http://www.ripta.com/76,Saturday
56310,"""CENTRAL FS MENDON""",41.885529,-71.364033,2356032,16:31:00,16:31:00,18,1,76,http://www.ripta.com/76,Saturday
23470,"""CENTRAL NS YORK""",41.886124,-71.36156,2356032,16:31:00,16:31:00,19,1,76,http://www.ripta.com/76,Saturday
23460,"""CENTRAL FS TWEED""",41.887311,-71.356538,2356032,16:32:00,16:32:00,20,1,76,http://www.ripta.com/76,Saturday
23610,"""CENTRAL NS NEWPORT""",41.887832,-71.354455,2356032,16:33:00,16:33:00,21,1,76,http://www.ripta.com/76,Saturday
57660,"""CENTRAL FS NEWPORT""",41.888024,-71.353617,2356032,16:33:00,16:33:00,22,1,76,http://www.ripta.com/76,Saturday
23600,"""CENTRAL FS GRAND""",41.888413,-71.352052,2356032,16:34:00,16:34:00,23,1,76,http://www.ripta.com/76,Saturday
23655,"""CENTRAL NS LIVERPOOL""",41.888965,-71.349708,2356032,16:34:00,16:34:00,24,1,76,http://www.ripta.com/76,Saturday
23690,"""CENTRAL NS DAGGETT""",41.889467,-71.347534,2356032,16:35:00,16:35:00,25,1,76,http://www.ripta.com/76,Saturday
23715,"""CENTRAL OPP FARNUM""",41.890122,-71.344859,2356032,16:36:00,16:36:00,26,1,76,http://www.ripta.com/76,Saturday
57665,"""BRADLEY NS BENEFIT""",41.891425,-71.344334,2356032,16:36:00,16:36:00,27,1,76,http://www.ripta.com/76,Saturday
60235,"""BENEFIT AT THURBER""",41.891577,-71.345995,2356032,16:37:00,16:37:00,28,1,76,http://www.ripta.com/76,Saturday
60235,"""BENEFIT AT THURBER""",41.891577,-71.345995,2356033,07:50:00,07:50:00,1,0,76,http://www.ripta.com/76,Saturday
23750,"""CENTRAL FS BRADLEY""",41.890344,-71.344476,2356033,07:52:00,07:52:00,2,0,76,http://www.ripta.com/76,Saturday
23735,"""CENTRAL NS CLARNER""",41.889855,-71.346532,2356033,07:52:00,07:52:00,3,0,76,http://www.ripta.com/76,Saturday
23705,"""CENTRAL NS DRAPER""",41.889245,-71.34907,2356033,07:53:00,07:53:00,4,0,76,http://www.ripta.com/76,Saturday
56335,"""CENTRAL FS CHASE""",41.888859,-71.350611,2356033,07:53:00,07:53:00,5,0,76,http://www.ripta.com/76,Saturday
23670,"""CENTRAL NS GRAND""",41.88852,-71.352024,2356033,07:54:00,07:54:00,6,0,76,http://www.ripta.com/76,Saturday
57680,"""CENTRAL NS NEWPORT""",41.888115,-71.353627,2356033,07:54:00,07:54:00,7,0,76,http://www.ripta.com/76,Saturday
23585,"""CENTRAL NS TWEED""",41.887476,-71.356493,2356033,07:55:00,07:55:00,8,0,76,http://www.ripta.com/76,Saturday
23545,"""CENTRAL NS MAKIN""",41.886854,-71.358979,2356033,07:55:00,07:55:00,9,0,76,http://www.ripta.com/76,Saturday
23505,"""CENTRAL NS HARDING""",41.886306,-71.361456,2356033,07:56:00,07:56:00,10,0,76,http://www.ripta.com/76,Saturday
23475,"""CENTRAL NS MENDON""",41.88568,-71.363992,2356033,07:56:00,07:56:00,11,0,76,http://www.ripta.com/76,Saturday
23450,"""CENTRAL BETWEEN FREEMAN & KENYON""",41.885408,-71.365929,2356033,07:57:00,07:57:00,12,0,76,http://www.ripta.com/76,Saturday
30175,"""STOP&SHOP (COTTAGE STREET - PAWTUCKET)""",41.888327,-71.367365,2356033,07:58:00,07:58:00,13,0,76,http://www.ripta.com/76,Saturday
57145,"""G BENNET FS CENTRAL""",41.884979,-71.366979,2356033,08:00:00,08:00:00,14,0,76,http://www.ripta.com/76,Saturday
23170,"""ARMISTICE FS GEORGE BENNETT""",41.880634,-71.366218,2356033,08:01:00,08:01:00,15,0,76,http://www.ripta.com/76,Saturday
23145,"""ARMISTICE OPP 209 ARMISTICE""",41.88025,-71.367845,2356033,08:01:00,08:01:00,16,0,76,http://www.ripta.com/76,Saturday
23050,"""ARMISTICE OPP SCHOFIELD""",41.879811,-71.36965,2356033,08:02:00,08:02:00,17,0,76,http://www.ripta.com/76,Saturday
23000,"""ARMISTICE OPP ASHTON""",41.879519,-71.370735,2356033,08:02:00,08:02:00,18,0,76,http://www.ripta.com/76,Saturday
22980,"""ARMISTICE NS N BEND""",41.8791,-71.372425,2356033,08:03:00,08:03:00,19,0,76,http://www.ripta.com/76,Saturday
57685,"""NORTH BEND NS WALCOTT""",41.878161,-71.37297,2356033,08:03:00,08:03:00,20,0,76,http://www.ripta.com/76,Saturday
57690,"""WALCOTT FS WALNUT""",41.877327,-71.375563,2356033,08:04:00,08:04:00,21,0,76,http://www.ripta.com/76,Saturday
22750,"""WALCOTT FS MAYNARD""",41.8772,-71.37626,2356033,08:04:00,08:04:00,22,0,76,http://www.ripta.com/76,Saturday
22725,"""WALCOTT FS GROVE""",41.87705,-71.37719,2356033,08:04:00,08:04:00,23,0,76,http://www.ripta.com/76,Saturday
56560,"""WALCOTT NS UNDERWOOD""",41.876971,-71.377645,2356033,08:05:00,08:05:00,24,0,76,http://www.ripta.com/76,Saturday
58040,"""UNDERWOOD FS WALCOTT""",41.877392,-71.378397,2356033,08:05:00,08:05:00,25,0,76,http://www.ripta.com/76,Saturday
58045,"""UNDERWOOD NS GROVE""",41.878526,-71.378151,2356033,08:05:00,08:05:00,26,0,76,http://www.ripta.com/76,Saturday
60080,"""EXCHANGE AT TOLMAN HIGH SCHOOL""",41.87982,-71.380381,2356033,08:06:00,08:06:00,27,0,76,http://www.ripta.com/76,Saturday
22765,"""PAWTUCKET TRANSIT CTR (TRANSIT CTR SIDE)""",41.877298,-71.383417,2356033,08:08:00,08:08:00,28,0,76,http://www.ripta.com/76,Saturday
60235,"""BENEFIT AT THURBER""",41.891577,-71.345995,2356034,09:50:00,09:50:00,1,0,76,http://www.ripta.com/76,Saturday
23750,"""CENTRAL FS BRADLEY""",41.890344,-71.344476,2356034,09:52:00,09:52:00,2,0,76,http://www.ripta.com/76,Saturday
23735,"""CENTRAL NS CLARNER""",41.889855,-71.346532,2356034,09:52:00,09:52:00,3,0,76,http://www.ripta.com/76,Saturday
23705,"""CENTRAL NS DRAPER""",41.889245,-71.34907,2356034,09:53:00,09:53:00,4,0,76,http://www.ripta.com/76,Saturday
56335,"""CENTRAL FS CHASE""",41.888859,-71.350611,2356034,09:53:00,09:53:00,5,0,76,http://www.ripta.com/76,Saturday
23670,"""CENTRAL NS GRAND""",41.88852,-71.352024,2356034,09:54:00,09:54:00,6,0,76,http://www.ripta.com/76,Saturday
57680,"""CENTRAL NS NEWPORT""",41.888115,-71.353627,2356034,09:54:00,09:54:00,7,0,76,http://www.ripta.com/76,Saturday
23585,"""CENTRAL NS TWEED""",41.887476,-71.356493,2356034,09:55:00,09:55:00,8,0,76,http://www.ripta.com/76,Saturday
23545,"""CENTRAL NS MAKIN""",41.886854,-71.358979,2356034,09:55:00,09:55:00,9,0,76,http://www.ripta.com/76,Saturday
23505,"""CENTRAL NS HARDING""",41.886306,-71.361456,2356034,09:56:00,09:56:00,10,0,76,http://www.ripta.com/76,Saturday
23475,"""CENTRAL NS MENDON""",41.88568,-71.363992,2356034,09:56:00,09:56:00,11,0,76,http://www.ripta.com/76,Saturday
23450,"""CENTRAL BETWEEN FREEMAN & KENYON""",41.885408,-71.365929,2356034,09:57:00,09:57:00,12,0,76,http://www.ripta.com/76,Saturday
30175,"""STOP&SHOP (COTTAGE STREET - PAWTUCKET)""",41.888327,-71.367365,2356034,09:58:00,09:58:00,13,0,76,http://www.ripta.com/76,Saturday
57145,"""G BENNET FS CENTRAL""",41.884979,-71.366979,2356034,10:00:00,10:00:00,14,0,76,http://www.ripta.com/76,Saturday
23170,"""ARMISTICE FS GEORGE BENNETT""",41.880634,-71.366218,2356034,10:01:00,10:01:00,15,0,76,http://www.ripta.com/76,Saturday
23145,"""ARMISTICE OPP 209 ARMISTICE""",41.88025,-71.367845,2356034,10:01:00,10:01:00,16,0,76,http://www.ripta.com/76,Saturday
23050,"""ARMISTICE OPP SCHOFIELD""",41.879811,-71.36965,2356034,10:02:00,10:02:00,17,0,76,http://www.ripta.com/76,Saturday
23000,"""ARMISTICE OPP ASHTON""",41.879519,-71.370735,2356034,10:02:00,10:02:00,18,0,76,http://www.ripta.com/76,Saturday
22980,"""ARMISTICE NS N BEND""",41.8791,-71.372425,2356034,10:03:00,10:03:00,19,0,76,http://www.ripta.com/76,Saturday
57685,"""NORTH BEND NS WALCOTT""",41.878161,-71.37297,2356034,10:03:00,10:03:00,20,0,76,http://www.ripta.com/76,Saturday
57690,"""WALCOTT FS WALNUT""",41.877327,-71.375563,2356034,10:04:00,10:04:00,21,0,76,http://www.ripta.com/76,Saturday
22750,"""WALCOTT FS MAYNARD""",41.8772,-71.37626,2356034,10:04:00,10:04:00,22,0,76,http://www.ripta.com/76,Saturday
22725,"""WALCOTT FS GROVE""",41.87705,-71.37719,2356034,10:04:00,10:04:00,23,0,76,http://www.ripta.com/76,Saturday
56560,"""WALCOTT NS UNDERWOOD""",41.876971,-71.377645,2356034,10:05:00,10:05:00,24,0,76,http://www.ripta.com/76,Saturday
58040,"""UNDERWOOD FS WALCOTT""",41.877392,-71.378397,2356034,10:05:00,10:05:00,25,0,76,http://www.ripta.com/76,Saturday
58045,"""UNDERWOOD NS GROVE""",41.878526,-71.378151,2356034,10:05:00,10:05:00,26,0,76,http://www.ripta.com/76,Saturday
60080,"""EXCHANGE AT TOLMAN HIGH SCHOOL""",41.87982,-71.380381,2356034,10:06:00,10:06:00,27,0,76,http://www.ripta.com/76,Saturday
22765,"""PAWTUCKET TRANSIT CTR (TRANSIT CTR SIDE)""",41.877298,-71.383417,2356034,10:08:00,10:08:00,28,0,76,http://www.ripta.com/76,Saturday
60235,"""BENEFIT AT THURBER""",41.891577,-71.345995,2356035,11:50:00,11:50:00,1,0,76,http://www.ripta.com/76,Saturday
23750,"""CENTRAL FS BRADLEY""",41.890344,-71.344476,2356035,11:52:00,11:52:00,2,0,76,http://www.ripta.com/76,Saturday
23735,"""CENTRAL NS CLARNER""",41.889855,-71.346532,2356035,11:52:00,11:52:00,3,0,76,http://www.ripta.com/76,Saturday
23705,"""CENTRAL NS DRAPER""",41.889245,-71.34907,2356035,11:53:00,11:53:00,4,0,76,http://www.ripta.com/76,Saturday
56335,"""CENTRAL FS CHASE""",41.888859,-71.350611,2356035,11:53:00,11:53:00,5,0,76,http://www.ripta.com/76,Saturday
23670,"""CENTRAL NS GRAND""",41.88852,-71.352024,2356035,11:54:00,11:54:00,6,0,76,http://www.ripta.com/76,Saturday
57680,"""CENTRAL NS NEWPORT""",41.888115,-71.353627,2356035,11:54:00,11:54:00,7,0,76,http://www.ripta.com/76,Saturday
23585,"""CENTRAL NS TWEED""",41.887476,-71.356493,2356035,11:55:00,11:55:00,8,0,76,http://www.ripta.com/76,Saturday
23545,"""CENTRAL NS MAKIN""",41.886854,-71.358979,2356035,11:55:00,11:55:00,9,0,76,http://www.ripta.com/76,Saturday
23505,"""CENTRAL NS HARDING""",41.886306,-71.361456,2356035,11:56:00,11:56:00,10,0,76,http://www.ripta.com/76,Saturday
23475,"""CENTRAL NS MENDON""",41.88568,-71.363992,2356035,11:56:00,11:56:00,11,0,76,http://www.ripta.com/76,Saturday
23450,"""CENTRAL BETWEEN FREEMAN & KENYON""",41.885408,-71.365929,2356035,11:57:00,11:57:00,12,0,76,http://www.ripta.com/76,Saturday
30175,"""STOP&SHOP (COTTAGE STREET - PAWTUCKET)""",41.888327,-71.367365,2356035,11:58:00,11:58:00,13,0,76,http://www.ripta.com/76,Saturday
57145,"""G BENNET FS CENTRAL""",41.884979,-71.366979,2356035,12:00:00,12:00:00,14,0,76,http://www.ripta.com/76,Saturday
23170,"""ARMISTICE FS GEORGE BENNETT""",41.880634,-71.366218,2356035,12:01:00,12:01:00,15,0,76,http://www.ripta.com/76,Saturday
23145,"""ARMISTICE OPP 209 ARMISTICE""",41.88025,-71.367845,2356035,12:01:00,12:01:00,16,0,76,http://www.ripta.com/76,Saturday
23050,"""ARMISTICE OPP SCHOFIELD""",41.879811,-71.36965,2356035,12:02:00,12:02:00,17,0,76,http://www.ripta.com/76,Saturday
23000,"""ARMISTICE OPP ASHTON""",41.879519,-71.370735,2356035,12:02:00,12:02:00,18,0,76,http://www.ripta.com/76,Saturday
22980,"""ARMISTICE NS N BEND""",41.8791,-71.372425,2356035,12:03:00,12:03:00,19,0,76,http://www.ripta.com/76,Saturday
57685,"""NORTH BEND NS WALCOTT""",41.878161,-71.37297,2356035,12:03:00,12:03:00,20,0,76,http://www.ripta.com/76,Saturday
57690,"""WALCOTT FS WALNUT""",41.877327,-71.375563,2356035,12:04:00,12:04:00,21,0,76,http://www.ripta.com/76,Saturday
22750,"""WALCOTT FS MAYNARD""",41.8772,-71.37626,2356035,12:04:00,12:04:00,22,0,76,http://www.ripta.com/76,Saturday
22725,"""WALCOTT FS GROVE""",41.87705,-71.37719,2356035,12:04:00,12:04:00,23,0,76,http://www.ripta.com/76,Saturday
56560,"""WALCOTT NS UNDERWOOD""",41.876971,-71.377645,2356035,12:05:00,12:05:00,24,0,76,http://www.ripta.com/76,Saturday
58040,"""UNDERWOOD FS WALCOTT""",41.877392,-71.378397,2356035,12:05:00,12:05:00,25,0,76,http://www.ripta.com/76,Saturday
58045,"""UNDERWOOD NS GROVE""",41.878526,-71.378151,2356035,12:05:00,12:05:00,26,0,76,http://www.ripta.com/76,Saturday
60080,"""EXCHANGE AT TOLMAN HIGH SCHOOL""",41.87982,-71.380381,2356035,12:06:00,12:06:00,27,0,76,http://www.ripta.com/76,Saturday
22765,"""PAWTUCKET TRANSIT CTR (TRANSIT CTR SIDE)""",41.877298,-71.383417,2356035,12:08:00,12:08:00,28,0,76,http://www.ripta.com/76,Saturday
60235,"""BENEFIT AT THURBER""",41.891577,-71.345995,2356036,13:50:00,13:50:00,1,0,76,http://www.ripta.com/76,Saturday
23750,"""CENTRAL FS BRADLEY""",41.890344,-71.344476,2356036,13:52:00,13:52:00,2,0,76,http://www.ripta.com/76,Saturday
23735,"""CENTRAL NS CLARNER""",41.889855,-71.346532,2356036,13:52:00,13:52:00,3,0,76,http://www.ripta.com/76,Saturday
23705,"""CENTRAL NS DRAPER""",41.889245,-71.34907,2356036,13:53:00,13:53:00,4,0,76,http://www.ripta.com/76,Saturday
56335,"""CENTRAL FS CHASE""",41.888859,-71.350611,2356036,13:53:00,13:53:00,5,0,76,http://www.ripta.com/76,Saturday
23670,"""CENTRAL NS GRAND""",41.88852,-71.352024,2356036,13:54:00,13:54:00,6,0,76,http://www.ripta.com/76,Saturday
57680,"""CENTRAL NS NEWPORT""",41.888115,-71.353627,2356036,13:54:00,13:54:00,7,0,76,http://www.ripta.com/76,Saturday
23585,"""CENTRAL NS TWEED""",41.887476,-71.356493,2356036,13:55:00,13:55:00,8,0,76,http://www.ripta.com/76,Saturday
23545,"""CENTRAL NS MAKIN""",41.886854,-71.358979,2356036,13:55:00,13:55:00,9,0,76,http://www.ripta.com/76,Saturday
23505,"""CENTRAL NS HARDING""",41.886306,-71.361456,2356036,13:56:00,13:56:00,10,0,76,http://www.ripta.com/76,Saturday
23475,"""CENTRAL NS MENDON""",41.88568,-71.363992,2356036,13:56:00,13:56:00,11,0,76,http://www.ripta.com/76,Saturday
23450,"""CENTRAL BETWEEN FREEMAN & KENYON""",41.885408,-71.365929,2356036,13:57:00,13:57:00,12,0,76,http://www.ripta.com/76,Saturday
30175,"""STOP&SHOP (COTTAGE STREET - PAWTUCKET)""",41.888327,-71.367365,2356036,13:58:00,13:58:00,13,0,76,http://www.ripta.com/76,Saturday
57145,"""G BENNET FS CENTRAL""",41.884979,-71.366979,2356036,14:00:00,14:00:00,14,0,76,http://www.ripta.com/76,Saturday
23170,"""ARMISTICE FS GEORGE BENNETT""",41.880634,-71.366218,2356036,14:01:00,14:01:00,15,0,76,http://www.ripta.com/76,Saturday
23145,"""ARMISTICE OPP 209 ARMISTICE""",41.88025,-71.367845,2356036,14:01:00,14:01:00,16,0,76,http://www.ripta.com/76,Saturday
23050,"""ARMISTICE OPP SCHOFIELD""",41.879811,-71.36965,2356036,14:02:00,14:02:00,17,0,76,http://www.ripta.com/76,Saturday
23000,"""ARMISTICE OPP ASHTON""",41.879519,-71.370735,2356036,14:02:00,14:02:00,18,0,76,http://www.ripta.com/76,Saturday
22980,"""ARMISTICE NS N BEND""",41.8791,-71.372425,2356036,14:03:00,14:03:00,19,0,76,http://www.ripta.com/76,Saturday
57685,"""NORTH BEND NS WALCOTT""",41.878161,-71.37297,2356036,14:03:00,14:03:00,20,0,76,http://www.ripta.com/76,Saturday
57690,"""WALCOTT FS WALNUT""",41.877327,-71.375563,2356036,14:04:00,14:04:00,21,0,76,http://www.ripta.com/76,Saturday
22750,"""WALCOTT FS MAYNARD""",41.8772,-71.37626,2356036,14:04:00,14:04:00,22,0,76,http://www.ripta.com/76,Saturday
22725,"""WALCOTT FS GROVE""",41.87705,-71.37719,2356036,14:04:00,14:04:00,23,0,76,http://www.ripta.com/76,Saturday
56560,"""WALCOTT NS UNDERWOOD""",41.876971,-71.377645,2356036,14:05:00,14:05:00,24,0,76,http://www.ripta.com/76,Saturday
58040,"""UNDERWOOD FS WALCOTT""",41.877392,-71.378397,2356036,14:05:00,14:05:00,25,0,76,http://www.ripta.com/76,Saturday
58045,"""UNDERWOOD NS GROVE""",41.878526,-71.378151,2356036,14:05:00,14:05:00,26,0,76,http://www.ripta.com/76,Saturday
60080,"""EXCHANGE AT TOLMAN HIGH SCHOOL""",41.87982,-71.380381,2356036,14:06:00,14:06:00,27,0,76,http://www.ripta.com/76,Saturday
22765,"""PAWTUCKET TRANSIT CTR (TRANSIT CTR SIDE)""",41.877298,-71.383417,2356036,14:08:00,14:08:00,28,0,76,http://www.ripta.com/76,Saturday
60235,"""BENEFIT AT THURBER""",41.891577,-71.345995,2356037,15:50:00,15:50:00,1,0,76,http://www.ripta.com/76,Saturday
23750,"""CENTRAL FS BRADLEY""",41.890344,-71.344476,2356037,15:52:00,15:52:00,2,0,76,http://www.ripta.com/76,Saturday
23735,"""CENTRAL NS CLARNER""",41.889855,-71.346532,2356037,15:52:00,15:52:00,3,0,76,http://www.ripta.com/76,Saturday
23705,"""CENTRAL NS DRAPER""",41.889245,-71.34907,2356037,15:53:00,15:53:00,4,0,76,http://www.ripta.com/76,Saturday
56335,"""CENTRAL FS CHASE""",41.888859,-71.350611,2356037,15:53:00,15:53:00,5,0,76,http://www.ripta.com/76,Saturday
23670,"""CENTRAL NS GRAND""",41.88852,-71.352024,2356037,15:54:00,15:54:00,6,0,76,http://www.ripta.com/76,Saturday
57680,"""CENTRAL NS NEWPORT""",41.888115,-71.353627,2356037,15:54:00,15:54:00,7,0,76,http://www.ripta.com/76,Saturday
23585,"""CENTRAL NS TWEED""",41.887476,-71.356493,2356037,15:55:00,15:55:00,8,0,76,http://www.ripta.com/76,Saturday
23545,"""CENTRAL NS MAKIN""",41.886854,-71.358979,2356037,15:55:00,15:55:00,9,0,76,http://www.ripta.com/76,Saturday
23505,"""CENTRAL NS HARDING""",41.886306,-71.361456,2356037,15:56:00,15:56:00,10,0,76,http://www.ripta.com/76,Saturday
23475,"""CENTRAL NS MENDON""",41.88568,-71.363992,2356037,15:56:00,15:56:00,11,0,76,http://www.ripta.com/76,Saturday
23450,"""CENTRAL BETWEEN FREEMAN & KENYON""",41.885408,-71.365929,2356037,15:57:00,15:57:00,12,0,76,http://www.ripta.com/76,Saturday
30175,"""STOP&SHOP (COTTAGE STREET - PAWTUCKET)""",41.888327,-71.367365,2356037,15:58:00,15:58:00,13,0,76,http://www.ripta.com/76,Saturday
57145,"""G BENNET FS CENTRAL""",41.884979,-71.366979,2356037,16:00:00,16:00:00,14,0,76,http://www.ripta.com/76,Saturday
23170,"""ARMISTICE FS GEORGE BENNETT""",41.880634,-71.366218,2356037,16:01:00,16:01:00,15,0,76,http://www.ripta.com/76,Saturday
23145,"""ARMISTICE OPP 209 ARMISTICE""",41.88025,-71.367845,2356037,16:01:00,16:01:00,16,0,76,http://www.ripta.com/76,Saturday
23050,"""ARMISTICE OPP SCHOFIELD""",41.879811,-71.36965,2356037,16:02:00,16:02:00,17,0,76,http://www.ripta.com/76,Saturday
23000,"""ARMISTICE OPP ASHTON""",41.879519,-71.370735,2356037,16:02:00,16:02:00,18,0,76,http://www.ripta.com/76,Saturday
22980,"""ARMISTICE NS N BEND""",41.8791,-71.372425,2356037,16:03:00,16:03:00,19,0,76,http://www.ripta.com/76,Saturday
57685,"""NORTH BEND NS WALCOTT""",41.878161,-71.37297,2356037,16:03:00,16:03:00,20,0,76,http://www.ripta.com/76,Saturday
57690,"""WALCOTT FS WALNUT""",41.877327,-71.375563,2356037,16:04:00,16:04:00,21,0,76,http://www.ripta.com/76,Saturday
22750,"""WALCOTT FS MAYNARD""",41.8772,-71.37626,2356037,16:04:00,16:04:00,22,0,76,http://www.ripta.com/76,Saturday
22725,"""WALCOTT FS GROVE""",41.87705,-71.37719,2356037,16:04:00,16:04:00,23,0,76,http://www.ripta.com/76,Saturday
56560,"""WALCOTT NS UNDERWOOD""",41.876971,-71.377645,2356037,16:05:00,16:05:00,24,0,76,http://www.ripta.com/76,Saturday
58040,"""UNDERWOOD FS WALCOTT""",41.877392,-71.378397,2356037,16:05:00,16:05:00,25,0,76,http://www.ripta.com/76,Saturday
58045,"""UNDERWOOD NS GROVE""",41.878526,-71.378151,2356037,16:05:00,16:05:00,26,0,76,http://www.ripta.com/76,Saturday
60080,"""EXCHANGE AT TOLMAN HIGH SCHOOL""",41.87982,-71.380381,2356037,16:06:00,16:06:00,27,0,76,http://www.ripta.com/76,Saturday
22765,"""PAWTUCKET TRANSIT CTR (TRANSIT CTR SIDE)""",41.877298,-71.383417,2356037,16:08:00,16:08:00,28,0,76,http://www.ripta.com/76,Saturday
60235,"""BENEFIT AT THURBER""",41.891577,-71.345995,2356038,17:50:00,17:50:00,1,0,76,http://www.ripta.com/76,Saturday
23750,"""CENTRAL FS BRADLEY""",41.890344,-71.344476,2356038,17:52:00,17:52:00,2,0,76,http://www.ripta.com/76,Saturday
23735,"""CENTRAL NS CLARNER""",41.889855,-71.346532,2356038,17:52:00,17:52:00,3,0,76,http://www.ripta.com/76,Saturday
23705,"""CENTRAL NS DRAPER""",41.889245,-71.34907,2356038,17:53:00,17:53:00,4,0,76,http://www.ripta.com/76,Saturday
56335,"""CENTRAL FS CHASE""",41.888859,-71.350611,2356038,17:53:00,17:53:00,5,0,76,http://www.ripta.com/76,Saturday
23670,"""CENTRAL NS GRAND""",41.88852,-71.352024,2356038,17:54:00,17:54:00,6,0,76,http://www.ripta.com/76,Saturday
57680,"""CENTRAL NS NEWPORT""",41.888115,-71.353627,2356038,17:54:00,17:54:00,7,0,76,http://www.ripta.com/76,Saturday
23585,"""CENTRAL NS TWEED""",41.887476,-71.356493,2356038,17:55:00,17:55:00,8,0,76,http://www.ripta.com/76,Saturday
23545,"""CENTRAL NS MAKIN""",41.886854,-71.358979,2356038,17:55:00,17:55:00,9,0,76,http://www.ripta.com/76,Saturday
23505,"""CENTRAL NS HARDING""",41.886306,-71.361456,2356038,17:56:00,17:56:00,10,0,76,http://www.ripta.com/76,Saturday
23475,"""CENTRAL NS MENDON""",41.88568,-71.363992,2356038,17:56:00,17:56:00,11,0,76,http://www.ripta.com/76,Saturday
23450,"""CENTRAL BETWEEN FREEMAN & KENYON""",41.885408,-71.365929,2356038,17:57:00,17:57:00,12,0,76,http://www.ripta.com/76,Saturday
30175,"""STOP&SHOP (COTTAGE STREET - PAWTUCKET)""",41.888327,-71.367365,2356038,17:58:00,17:58:00,13,0,76,http://www.ripta.com/76,Saturday
57145,"""G BENNET FS CENTRAL""",41.884979,-71.366979,2356038,18:00:00,18:00:00,14,0,76,http://www.ripta.com/76,Saturday
23170,"""ARMISTICE FS GEORGE BENNETT""",41.880634,-71.366218,2356038,18:01:00,18:01:00,15,0,76,http://www.ripta.com/76,Saturday
23145,"""ARMISTICE OPP 209 ARMISTICE""",41.88025,-71.367845,2356038,18:01:00,18:01:00,16,0,76,http://www.ripta.com/76,Saturday
23050,"""ARMISTICE OPP SCHOFIELD""",41.879811,-71.36965,2356038,18:02:00,18:02:00,17,0,76,http://www.ripta.com/76,Saturday
23000,"""ARMISTICE OPP ASHTON""",41.879519,-71.370735,2356038,18:02:00,18:02:00,18,0,76,http://www.ripta.com/76,Saturday
22980,"""ARMISTICE NS N BEND""",41.8791,-71.372425,2356038,18:03:00,18:03:00,19,0,76,http://www.ripta.com/76,Saturday
57685,"""NORTH BEND NS WALCOTT""",41.878161,-71.37297,2356038,18:03:00,18:03:00,20,0,76,http://www.ripta.com/76,Saturday
57690,"""WALCOTT FS WALNUT""",41.877327,-71.375563,2356038,18:04:00,18:04:00,21,0,76,http://www.ripta.com/76,Saturday
22750,"""WALCOTT FS MAYNARD""",41.8772,-71.37626,2356038,18:04:00,18:04:00,22,0,76,http://www.ripta.com/76,Saturday
22725,"""WALCOTT FS GROVE""",41.87705,-71.37719,2356038,18:04:00,18:04:00,23,0,76,http://www.ripta.com/76,Saturday
56560,"""WALCOTT NS UNDERWOOD""",41.876971,-71.377645,2356038,18:05:00,18:05:00,24,0,76,http://www.ripta.com/76,Saturday
58040,"""UNDERWOOD FS WALCOTT""",41.877392,-71.378397,2356038,18:05:00,18:05:00,25,0,76,http://www.ripta.com/76,Saturday
58045,"""UNDERWOOD NS GROVE""",41.878526,-71.378151,2356038,18:05:00,18:05:00,26,0,76,http://www.ripta.com/76,Saturday
60080,"""EXCHANGE AT TOLMAN HIGH SCHOOL""",41.87982,-71.380381,2356038,18:06:00,18:06:00,27,0,76,http://www.ripta.com/76,Saturday
22765,"""PAWTUCKET TRANSIT CTR (TRANSIT CTR SIDE)""",41.877298,-71.383417,2356038,18:08:00,18:08:00,28,0,76,http://www.ripta.com/76,Saturday
22765,"""PAWTUCKET TRANSIT CTR (TRANSIT CTR SIDE)""",41.877298,-71.383417,2356039,08:20:00,08:20:00,1,1,76,http://www.ripta.com/76,Saturday
56275,"""MAIN NS WALCOTT""",41.875954,-71.380754,2356039,08:21:00,08:21:00,2,1,76,http://www.ripta.com/76,Saturday
22645,"""WALCOTT FS SUMMIT""",41.87663,-71.37902,2356039,08:22:00,08:22:00,3,1,76,http://www.ripta.com/76,Saturday
22670,"""WALCOTT NS ARLINGTON""",41.876934,-71.377349,2356039,08:22:00,08:22:00,4,1,76,http://www.ripta.com/76,Saturday
56495,"""WALCOTT NS MAYNARD""",41.877129,-71.37625,2356039,08:23:00,08:23:00,5,1,76,http://www.ripta.com/76,Saturday
56500,"""WALCOTT FS FRENCH""",41.877299,-71.375125,2356039,08:23:00,08:23:00,6,1,76,http://www.ripta.com/76,Saturday
56505,"""WALCOTT NS DENVER""",41.87749,-71.37428,2356039,08:23:00,08:23:00,7,1,76,http://www.ripta.com/76,Saturday
57670,"""WALCOTT NS NORTH BEND""",41.87767,-71.372897,2356039,08:24:00,08:24:00,8,1,76,http://www.ripta.com/76,Saturday
57675,"""NORTH BEND FS WALCOTT""",41.878109,-71.372851,2356039,08:24:00,08:24:00,9,1,76,http://www.ripta.com/76,Saturday
22981,"""ARMISTICE FS WALCOTT""",41.879033,-71.372465,2356039,08:24:00,08:24:00,10,1,76,http://www.ripta.com/76,Saturday
22995,"""ARMISTICE NS ASHTON""",41.879326,-71.371181,2356039,08:24:00,08:24:00,11,1,76,http://www.ripta.com/76,Saturday
23035,"""ARMISTICE FS SCHOEFIELD""",41.879768,-71.369401,2356039,08:25:00,08:25:00,12,1,76,http://www.ripta.com/76,Saturday
23090,"""ARMISTICE AT 209 ARMISTICE""",41.88002,-71.368329,2356039,08:25:00,08:25:00,13,1,76,http://www.ripta.com/76,Saturday
23165,"""ARMISTICE OPP 270 ARMISTICE""",41.880592,-71.365972,2356039,08:26:00,08:26:00,14,1,76,http://www.ripta.com/76,Saturday
57185,"""G BENNET NS CENTRAL""",41.885084,-71.366903,2356039,08:28:00,08:28:00,15,1,76,http://www.ripta.com/76,Saturday
30175,"""STOP&SHOP (COTTAGE STREET - PAWTUCKET)""",41.888327,-71.367365,2356039,08:29:00,08:29:00,16,1,76,http://www.ripta.com/76,Saturday
56311,"""CENTRAL FS FREEMAN""",41.885281,-71.366046,2356039,08:31:00,08:31:00,17,1,76,http://www.ripta.com/76,Saturday
56310,"""CENTRAL FS MENDON""",41.885529,-71.364033,2356039,08:31:00,08:31:00,18,1,76,http://www.ripta.com/76,Saturday
23470,"""CENTRAL NS YORK""",41.886124,-71.36156,2356039,08:31:00,08:31:00,19,1,76,http://www.ripta.com/76,Saturday
23460,"""CENTRAL FS TWEED""",41.887311,-71.356538,2356039,08:32:00,08:32:00,20,1,76,http://www.ripta.com/76,Saturday
23610,"""CENTRAL NS NEWPORT""",41.887832,-71.354455,2356039,08:33:00,08:33:00,21,1,76,http://www.ripta.com/76,Saturday
57660,"""CENTRAL FS NEWPORT""",41.888024,-71.353617,2356039,08:33:00,08:33:00,22,1,76,http://www.ripta.com/76,Saturday
23600,"""CENTRAL FS GRAND""",41.888413,-71.352052,2356039,08:34:00,08:34:00,23,1,76,http://www.ripta.com/76,Saturday
23655,"""CENTRAL NS LIVERPOOL""",41.888965,-71.349708,2356039,08:34:00,08:34:00,24,1,76,http://www.ripta.com/76,Saturday
23690,"""CENTRAL NS DAGGETT""",41.889467,-71.347534,2356039,08:35:00,08:35:00,25,1,76,http://www.ripta.com/76,Saturday
23715,"""CENTRAL OPP FARNUM""",41.890122,-71.344859,2356039,08:36:00,08:36:00,26,1,76,http://www.ripta.com/76,Saturday
57665,"""BRADLEY NS BENEFIT""",41.891425,-71.344334,2356039,08:36:00,08:36:00,27,1,76,http://www.ripta.com/76,Saturday
60235,"""BENEFIT AT THURBER""",41.891577,-71.345995,2356039,08:37:00,08:37:00,28,1,76,http://www.ripta.com/76,Saturday
22765,"""PAWTUCKET TRANSIT CTR (TRANSIT CTR SIDE)""",41.877298,-71.383417,2356040,11:20:00,11:20:00,1,1,76,http://www.ripta.com/76,Saturday
56275,"""MAIN NS WALCOTT""",41.875954,-71.380754,2356040,11:21:00,11:21:00,2,1,76,http://www.ripta.com/76,Saturday
22645,"""WALCOTT FS SUMMIT""",41.87663,-71.37902,2356040,11:22:00,11:22:00,3,1,76,http://www.ripta.com/76,Saturday
22670,"""WALCOTT NS ARLINGTON""",41.876934,-71.377349,2356040,11:22:00,11:22:00,4,1,76,http://www.ripta.com/76,Saturday
56495,"""WALCOTT NS MAYNARD""",41.877129,-71.37625,2356040,11:23:00,11:23:00,5,1,76,http://www.ripta.com/76,Saturday
56500,"""WALCOTT FS FRENCH""",41.877299,-71.375125,2356040,11:23:00,11:23:00,6,1,76,http://www.ripta.com/76,Saturday
56505,"""WALCOTT NS DENVER""",41.87749,-71.37428,2356040,11:23:00,11:23:00,7,1,76,http://www.ripta.com/76,Saturday
57670,"""WALCOTT NS NORTH BEND""",41.87767,-71.372897,2356040,11:24:00,11:24:00,8,1,76,http://www.ripta.com/76,Saturday
57675,"""NORTH BEND FS WALCOTT""",41.878109,-71.372851,2356040,11:24:00,11:24:00,9,1,76,http://www.ripta.com/76,Saturday
22981,"""ARMISTICE FS WALCOTT""",41.879033,-71.372465,2356040,11:24:00,11:24:00,10,1,76,http://www.ripta.com/76,Saturday
22995,"""ARMISTICE NS ASHTON""",41.879326,-71.371181,2356040,11:24:00,11:24:00,11,1,76,http://www.ripta.com/76,Saturday
23035,"""ARMISTICE FS SCHOEFIELD""",41.879768,-71.369401,2356040,11:25:00,11:25:00,12,1,76,http://www.ripta.com/76,Saturday
23090,"""ARMISTICE AT 209 ARMISTICE""",41.88002,-71.368329,2356040,11:25:00,11:25:00,13,1,76,http://www.ripta.com/76,Saturday
23165,"""ARMISTICE OPP 270 ARMISTICE""",41.880592,-71.365972,2356040,11:26:00,11:26:00,14,1,76,http://www.ripta.com/76,Saturday
57185,"""G BENNET NS CENTRAL""",41.885084,-71.366903,2356040,11:28:00,11:28:00,15,1,76,http://www.ripta.com/76,Saturday
30175,"""STOP&SHOP (COTTAGE STREET - PAWTUCKET)""",41.888327,-71.367365,2356040,11:29:00,11:29:00,16,1,76,http://www.ripta.com/76,Saturday
56311,"""CENTRAL FS FREEMAN""",41.885281,-71.366046,2356040,11:31:00,11:31:00,17,1,76,http://www.ripta.com/76,Saturday
56310,"""CENTRAL FS MENDON""",41.885529,-71.364033,2356040,11:31:00,11:31:00,18,1,76,http://www.ripta.com/76,Saturday
23470,"""CENTRAL NS YORK""",41.886124,-71.36156,2356040,11:31:00,11:31:00,19,1,76,http://www.ripta.com/76,Saturday
23460,"""CENTRAL FS TWEED""",41.887311,-71.356538,2356040,11:32:00,11:32:00,20,1,76,http://www.ripta.com/76,Saturday
23610,"""CENTRAL NS NEWPORT""",41.887832,-71.354455,2356040,11:33:00,11:33:00,21,1,76,http://www.ripta.com/76,Saturday
57660,"""CENTRAL FS NEWPORT""",41.888024,-71.353617,2356040,11:33:00,11:33:00,22,1,76,http://www.ripta.com/76,Saturday
23600,"""CENTRAL FS GRAND""",41.888413,-71.352052,2356040,11:34:00,11:34:00,23,1,76,http://www.ripta.com/76,Saturday
23655,"""CENTRAL NS LIVERPOOL""",41.888965,-71.349708,2356040,11:34:00,11:34:00,24,1,76,http://www.ripta.com/76,Saturday
23690,"""CENTRAL NS DAGGETT""",41.889467,-71.347534,2356040,11:35:00,11:35:00,25,1,76,http://www.ripta.com/76,Saturday
23715,"""CENTRAL OPP FARNUM""",41.890122,-71.344859,2356040,11:36:00,11:36:00,26,1,76,http://www.ripta.com/76,Saturday
57665,"""BRADLEY NS BENEFIT""",41.891425,-71.344334,2356040,11:36:00,11:36:00,27,1,76,http://www.ripta.com/76,Saturday
60235,"""BENEFIT AT THURBER""",41.891577,-71.345995,2356040,11:37:00,11:37:00,28,1,76,http://www.ripta.com/76,Saturday
22765,"""PAWTUCKET TRANSIT CTR (TRANSIT CTR SIDE)""",41.877298,-71.383417,2356041,13:20:00,13:20:00,1,1,76,http://www.ripta.com/76,Saturday
56275,"""MAIN NS WALCOTT""",41.875954,-71.380754,2356041,13:21:00,13:21:00,2,1,76,http://www.ripta.com/76,Saturday
22645,"""WALCOTT FS SUMMIT""",41.87663,-71.37902,2356041,13:22:00,13:22:00,3,1,76,http://www.ripta.com/76,Saturday
22670,"""WALCOTT NS ARLINGTON""",41.876934,-71.377349,2356041,13:22:00,13:22:00,4,1,76,http://www.ripta.com/76,Saturday
56495,"""WALCOTT NS MAYNARD""",41.877129,-71.37625,2356041,13:23:00,13:23:00,5,1,76,http://www.ripta.com/76,Saturday
56500,"""WALCOTT FS FRENCH""",41.877299,-71.375125,2356041,13:23:00,13:23:00,6,1,76,http://www.ripta.com/76,Saturday
56505,"""WALCOTT NS DENVER""",41.87749,-71.37428,2356041,13:23:00,13:23:00,7,1,76,http://www.ripta.com/76,Saturday
57670,"""WALCOTT NS NORTH BEND""",41.87767,-71.372897,2356041,13:24:00,13:24:00,8,1,76,http://www.ripta.com/76,Saturday
57675,"""NORTH BEND FS WALCOTT""",41.878109,-71.372851,2356041,13:24:00,13:24:00,9,1,76,http://www.ripta.com/76,Saturday
22981,"""ARMISTICE FS WALCOTT""",41.879033,-71.372465,2356041,13:24:00,13:24:00,10,1,76,http://www.ripta.com/76,Saturday
22995,"""ARMISTICE NS ASHTON""",41.879326,-71.371181,2356041,13:24:00,13:24:00,11,1,76,http://www.ripta.com/76,Saturday
23035,"""ARMISTICE FS SCHOEFIELD""",41.879768,-71.369401,2356041,13:25:00,13:25:00,12,1,76,http://www.ripta.com/76,Saturday
23090,"""ARMISTICE AT 209 ARMISTICE""",41.88002,-71.368329,2356041,13:25:00,13:25:00,13,1,76,http://www.ripta.com/76,Saturday
23165,"""ARMISTICE OPP 270 ARMISTICE""",41.880592,-71.365972,2356041,13:26:00,13:26:00,14,1,76,http://www.ripta.com/76,Saturday
57185,"""G BENNET NS CENTRAL""",41.885084,-71.366903,2356041,13:28:00,13:28:00,15,1,76,http://www.ripta.com/76,Saturday
30175,"""STOP&SHOP (COTTAGE STREET - PAWTUCKET)""",41.888327,-71.367365,2356041,13:29:00,13:29:00,16,1,76,http://www.ripta.com/76,Saturday
56311,"""CENTRAL FS FREEMAN""",41.885281,-71.366046,2356041,13:31:00,13:31:00,17,1,76,http://www.ripta.com/76,Saturday
56310,"""CENTRAL FS MENDON""",41.885529,-71.364033,2356041,13:31:00,13:31:00,18,1,76,http://www.ripta.com/76,Saturday
23470,"""CENTRAL NS YORK""",41.886124,-71.36156,2356041,13:31:00,13:31:00,19,1,76,http://www.ripta.com/76,Saturday
23460,"""CENTRAL FS TWEED""",41.887311,-71.356538,2356041,13:32:00,13:32:00,20,1,76,http://www.ripta.com/76,Saturday
23610,"""CENTRAL NS NEWPORT""",41.887832,-71.354455,2356041,13:33:00,13:33:00,21,1,76,http://www.ripta.com/76,Saturday
57660,"""CENTRAL FS NEWPORT""",41.888024,-71.353617,2356041,13:33:00,13:33:00,22,1,76,http://www.ripta.com/76,Saturday
23600,"""CENTRAL FS GRAND""",41.888413,-71.352052,2356041,13:34:00,13:34:00,23,1,76,http://www.ripta.com/76,Saturday
23655,"""CENTRAL NS LIVERPOOL""",41.888965,-71.349708,2356041,13:34:00,13:34:00,24,1,76,http://www.ripta.com/76,Saturday
23690,"""CENTRAL NS DAGGETT""",41.889467,-71.347534,2356041,13:35:00,13:35:00,25,1,76,http://www.ripta.com/76,Saturday
23715,"""CENTRAL OPP FARNUM""",41.890122,-71.344859,2356041,13:36:00,13:36:00,26,1,76,http://www.ripta.com/76,Saturday
57665,"""BRADLEY NS BENEFIT""",41.891425,-71.344334,2356041,13:36:00,13:36:00,27,1,76,http://www.ripta.com/76,Saturday
60235,"""BENEFIT AT THURBER""",41.891577,-71.345995,2356041,13:37:00,13:37:00,28,1,76,http://www.ripta.com/76,Saturday
22765,"""PAWTUCKET TRANSIT CTR (TRANSIT CTR SIDE)""",41.877298,-71.383417,2356042,15:20:00,15:20:00,1,1,76,http://www.ripta.com/76,Saturday
56275,"""MAIN NS WALCOTT""",41.875954,-71.380754,2356042,15:21:00,15:21:00,2,1,76,http://www.ripta.com/76,Saturday
22645,"""WALCOTT FS SUMMIT""",41.87663,-71.37902,2356042,15:22:00,15:22:00,3,1,76,http://www.ripta.com/76,Saturday
22670,"""WALCOTT NS ARLINGTON""",41.876934,-71.377349,2356042,15:22:00,15:22:00,4,1,76,http://www.ripta.com/76,Saturday
56495,"""WALCOTT NS MAYNARD""",41.877129,-71.37625,2356042,15:23:00,15:23:00,5,1,76,http://www.ripta.com/76,Saturday
56500,"""WALCOTT FS FRENCH""",41.877299,-71.375125,2356042,15:23:00,15:23:00,6,1,76,http://www.ripta.com/76,Saturday
56505,"""WALCOTT NS DENVER""",41.87749,-71.37428,2356042,15:23:00,15:23:00,7,1,76,http://www.ripta.com/76,Saturday
57670,"""WALCOTT NS NORTH BEND""",41.87767,-71.372897,2356042,15:24:00,15:24:00,8,1,76,http://www.ripta.com/76,Saturday
57675,"""NORTH BEND FS WALCOTT""",41.878109,-71.372851,2356042,15:24:00,15:24:00,9,1,76,http://www.ripta.com/76,Saturday
22981,"""ARMISTICE FS WALCOTT""",41.879033,-71.372465,2356042,15:24:00,15:24:00,10,1,76,http://www.ripta.com/76,Saturday
22995,"""ARMISTICE NS ASHTON""",41.879326,-71.371181,2356042,15:24:00,15:24:00,11,1,76,http://www.ripta.com/76,Saturday
23035,"""ARMISTICE FS SCHOEFIELD""",41.879768,-71.369401,2356042,15:25:00,15:25:00,12,1,76,http://www.ripta.com/76,Saturday
23090,"""ARMISTICE AT 209 ARMISTICE""",41.88002,-71.368329,2356042,15:25:00,15:25:00,13,1,76,http://www.ripta.com/76,Saturday
23165,"""ARMISTICE OPP 270 ARMISTICE""",41.880592,-71.365972,2356042,15:26:00,15:26:00,14,1,76,http://www.ripta.com/76,Saturday
57185,"""G BENNET NS CENTRAL""",41.885084,-71.366903,2356042,15:28:00,15:28:00,15,1,76,http://www.ripta.com/76,Saturday
30175,"""STOP&SHOP (COTTAGE STREET - PAWTUCKET)""",41.888327,-71.367365,2356042,15:29:00,15:29:00,16,1,76,http://www.ripta.com/76,Saturday
56311,"""CENTRAL FS FREEMAN""",41.885281,-71.366046,2356042,15:31:00,15:31:00,17,1,76,http://www.ripta.com/76,Saturday
56310,"""CENTRAL FS MENDON""",41.885529,-71.364033,2356042,15:31:00,15:31:00,18,1,76,http://www.ripta.com/76,Saturday
23470,"""CENTRAL NS YORK""",41.886124,-71.36156,2356042,15:31:00,15:31:00,19,1,76,http://www.ripta.com/76,Saturday
23460,"""CENTRAL FS TWEED""",41.887311,-71.356538,2356042,15:32:00,15:32:00,20,1,76,http://www.ripta.com/76,Saturday
23610,"""CENTRAL NS NEWPORT""",41.887832,-71.354455,2356042,15:33:00,15:33:00,21,1,76,http://www.ripta.com/76,Saturday
57660,"""CENTRAL FS NEWPORT""",41.888024,-71.353617,2356042,15:33:00,15:33:00,22,1,76,http://www.ripta.com/76,Saturday
23600,"""CENTRAL FS GRAND""",41.888413,-71.352052,2356042,15:34:00,15:34:00,23,1,76,http://www.ripta.com/76,Saturday
23655,"""CENTRAL NS LIVERPOOL""",41.888965,-71.349708,2356042,15:34:00,15:34:00,24,1,76,http://www.ripta.com/76,Saturday
23690,"""CENTRAL NS DAGGETT""",41.889467,-71.347534,2356042,15:35:00,15:35:00,25,1,76,http://www.ripta.com/76,Saturday
23715,"""CENTRAL OPP FARNUM""",41.890122,-71.344859,2356042,15:36:00,15:36:00,26,1,76,http://www.ripta.com/76,Saturday
57665,"""BRADLEY NS BENEFIT""",41.891425,-71.344334,2356042,15:36:00,15:36:00,27,1,76,http://www.ripta.com/76,Saturday
60235,"""BENEFIT AT THURBER""",41.891577,-71.345995,2356042,15:37:00,15:37:00,28,1,76,http://www.ripta.com/76,Saturday
22765,"""PAWTUCKET TRANSIT CTR (TRANSIT CTR SIDE)""",41.877298,-71.383417,2356043,09:20:00,09:20:00,1,1,76,http://www.ripta.com/76,Saturday
56275,"""MAIN NS WALCOTT""",41.875954,-71.380754,2356043,09:21:00,09:21:00,2,1,76,http://www.ripta.com/76,Saturday
22645,"""WALCOTT FS SUMMIT""",41.87663,-71.37902,2356043,09:22:00,09:22:00,3,1,76,http://www.ripta.com/76,Saturday
22670,"""WALCOTT NS ARLINGTON""",41.876934,-71.377349,2356043,09:22:00,09:22:00,4,1,76,http://www.ripta.com/76,Saturday
56495,"""WALCOTT NS MAYNARD""",41.877129,-71.37625,2356043,09:23:00,09:23:00,5,1,76,http://www.ripta.com/76,Saturday
56500,"""WALCOTT FS FRENCH""",41.877299,-71.375125,2356043,09:23:00,09:23:00,6,1,76,http://www.ripta.com/76,Saturday
56505,"""WALCOTT NS DENVER""",41.87749,-71.37428,2356043,09:23:00,09:23:00,7,1,76,http://www.ripta.com/76,Saturday
57670,"""WALCOTT NS NORTH BEND""",41.87767,-71.372897,2356043,09:24:00,09:24:00,8,1,76,http://www.ripta.com/76,Saturday
57675,"""NORTH BEND FS WALCOTT""",41.878109,-71.372851,2356043,09:24:00,09:24:00,9,1,76,http://www.ripta.com/76,Saturday
22981,"""ARMISTICE FS WALCOTT""",41.879033,-71.372465,2356043,09:24:00,09:24:00,10,1,76,http://www.ripta.com/76,Saturday
22995,"""ARMISTICE NS ASHTON""",41.879326,-71.371181,2356043,09:24:00,09:24:00,11,1,76,http://www.ripta.com/76,Saturday
23035,"""ARMISTICE FS SCHOEFIELD""",41.879768,-71.369401,2356043,09:25:00,09:25:00,12,1,76,http://www.ripta.com/76,Saturday
23090,"""ARMISTICE AT 209 ARMISTICE""",41.88002,-71.368329,2356043,09:25:00,09:25:00,13,1,76,http://www.ripta.com/76,Saturday
23165,"""ARMISTICE OPP 270 ARMISTICE""",41.880592,-71.365972,2356043,09:26:00,09:26:00,14,1,76,http://www.ripta.com/76,Saturday
57185,"""G BENNET NS CENTRAL""",41.885084,-71.366903,2356043,09:28:00,09:28:00,15,1,76,http://www.ripta.com/76,Saturday
30175,"""STOP&SHOP (COTTAGE STREET - PAWTUCKET)""",41.888327,-71.367365,2356043,09:29:00,09:29:00,16,1,76,http://www.ripta.com/76,Saturday
56311,"""CENTRAL FS FREEMAN""",41.885281,-71.366046,2356043,09:31:00,09:31:00,17,1,76,http://www.ripta.com/76,Saturday
56310,"""CENTRAL FS MENDON""",41.885529,-71.364033,2356043,09:31:00,09:31:00,18,1,76,http://www.ripta.com/76,Saturday
23470,"""CENTRAL NS YORK""",41.886124,-71.36156,2356043,09:31:00,09:31:00,19,1,76,http://www.ripta.com/76,Saturday
23460,"""CENTRAL FS TWEED""",41.887311,-71.356538,2356043,09:32:00,09:32:00,20,1,76,http://www.ripta.com/76,Saturday
23610,"""CENTRAL NS NEWPORT""",41.887832,-71.354455,2356043,09:33:00,09:33:00,21,1,76,http://www.ripta.com/76,Saturday
57660,"""CENTRAL FS NEWPORT""",41.888024,-71.353617,2356043,09:33:00,09:33:00,22,1,76,http://www.ripta.com/76,Saturday
23600,"""CENTRAL FS GRAND""",41.888413,-71.352052,2356043,09:34:00,09:34:00,23,1,76,http://www.ripta.com/76,Saturday
23655,"""CENTRAL NS LIVERPOOL""",41.888965,-71.349708,2356043,09:34:00,09:34:00,24,1,76,http://www.ripta.com/76,Saturday
23690,"""CENTRAL NS DAGGETT""",41.889467,-71.347534,2356043,09:35:00,09:35:00,25,1,76,http://www.ripta.com/76,Saturday
23715,"""CENTRAL OPP FARNUM""",41.890122,-71.344859,2356043,09:36:00,09:36:00,26,1,76,http://www.ripta.com/76,Saturday
57665,"""BRADLEY NS BENEFIT""",41.891425,-71.344334,2356043,09:36:00,09:36:00,27,1,76,http://www.ripta.com/76,Saturday
60235,"""BENEFIT AT THURBER""",41.891577,-71.345995,2356043,09:37:00,09:37:00,28,1,76,http://www.ripta.com/76,Saturday
22765,"""PAWTUCKET TRANSIT CTR (TRANSIT CTR SIDE)""",41.877298,-71.383417,2356044,18:10:00,18:10:00,1,1,76,http://www.ripta.com/76,Saturday
56275,"""MAIN NS WALCOTT""",41.875954,-71.380754,2356044,18:11:00,18:11:00,2,1,76,http://www.ripta.com/76,Saturday
22645,"""WALCOTT FS SUMMIT""",41.87663,-71.37902,2356044,18:12:00,18:12:00,3,1,76,http://www.ripta.com/76,Saturday
22670,"""WALCOTT NS ARLINGTON""",41.876934,-71.377349,2356044,18:12:00,18:12:00,4,1,76,http://www.ripta.com/76,Saturday
56495,"""WALCOTT NS MAYNARD""",41.877129,-71.37625,2356044,18:13:00,18:13:00,5,1,76,http://www.ripta.com/76,Saturday
56500,"""WALCOTT FS FRENCH""",41.877299,-71.375125,2356044,18:13:00,18:13:00,6,1,76,http://www.ripta.com/76,Saturday
56505,"""WALCOTT NS DENVER""",41.87749,-71.37428,2356044,18:13:00,18:13:00,7,1,76,http://www.ripta.com/76,Saturday
57670,"""WALCOTT NS NORTH BEND""",41.87767,-71.372897,2356044,18:14:00,18:14:00,8,1,76,http://www.ripta.com/76,Saturday
57675,"""NORTH BEND FS WALCOTT""",41.878109,-71.372851,2356044,18:14:00,18:14:00,9,1,76,http://www.ripta.com/76,Saturday
22981,"""ARMISTICE FS WALCOTT""",41.879033,-71.372465,2356044,18:14:00,18:14:00,10,1,76,http://www.ripta.com/76,Saturday
22995,"""ARMISTICE NS ASHTON""",41.879326,-71.371181,2356044,18:14:00,18:14:00,11,1,76,http://www.ripta.com/76,Saturday
23035,"""ARMISTICE FS SCHOEFIELD""",41.879768,-71.369401,2356044,18:15:00,18:15:00,12,1,76,http://www.ripta.com/76,Saturday
23090,"""ARMISTICE AT 209 ARMISTICE""",41.88002,-71.368329,2356044,18:15:00,18:15:00,13,1,76,http://www.ripta.com/76,Saturday
23165,"""ARMISTICE OPP 270 ARMISTICE""",41.880592,-71.365972,2356044,18:16:00,18:16:00,14,1,76,http://www.ripta.com/76,Saturday
57185,"""G BENNET NS CENTRAL""",41.885084,-71.366903,2356044,18:18:00,18:18:00,15,1,76,http://www.ripta.com/76,Saturday
30175,"""STOP&SHOP (COTTAGE STREET - PAWTUCKET)""",41.888327,-71.367365,2356044,18:19:00,18:19:00,16,1,76,http://www.ripta.com/76,Saturday
56311,"""CENTRAL FS FREEMAN""",41.885281,-71.366046,2356044,18:21:00,18:21:00,17,1,76,http://www.ripta.com/76,Saturday
56310,"""CENTRAL FS MENDON""",41.885529,-71.364033,2356044,18:21:00,18:21:00,18,1,76,http://www.ripta.com/76,Saturday
23470,"""CENTRAL NS YORK""",41.886124,-71.36156,2356044,18:21:00,18:21:00,19,1,76,http://www.ripta.com/76,Saturday
23460,"""CENTRAL FS TWEED""",41.887311,-71.356538,2356044,18:22:00,18:22:00,20,1,76,http://www.ripta.com/76,Saturday
23610,"""CENTRAL NS NEWPORT""",41.887832,-71.354455,2356044,18:23:00,18:23:00,21,1,76,http://www.ripta.com/76,Saturday
57660,"""CENTRAL FS NEWPORT""",41.888024,-71.353617,2356044,18:23:00,18:23:00,22,1,76,http://www.ripta.com/76,Saturday
23600,"""CENTRAL FS GRAND""",41.888413,-71.352052,2356044,18:24:00,18:24:00,23,1,76,http://www.ripta.com/76,Saturday
23655,"""CENTRAL NS LIVERPOOL""",41.888965,-71.349708,2356044,18:24:00,18:24:00,24,1,76,http://www.ripta.com/76,Saturday
23690,"""CENTRAL NS DAGGETT""",41.889467,-71.347534,2356044,18:25:00,18:25:00,25,1,76,http://www.ripta.com/76,Saturday
23715,"""CENTRAL OPP FARNUM""",41.890122,-71.344859,2356044,18:26:00,18:26:00,26,1,76,http://www.ripta.com/76,Saturday
57665,"""BRADLEY NS BENEFIT""",41.891425,-71.344334,2356044,18:26:00,18:26:00,27,1,76,http://www.ripta.com/76,Saturday
60235,"""BENEFIT AT THURBER""",41.891577,-71.345995,2356044,18:27:00,18:27:00,28,1,76,http://www.ripta.com/76,Saturday
22765,"""PAWTUCKET TRANSIT CTR (TRANSIT CTR SIDE)""",41.877298,-71.383417,2356045,17:20:00,17:20:00,1,1,76,http://www.ripta.com/76,Saturday
56275,"""MAIN NS WALCOTT""",41.875954,-71.380754,2356045,17:21:00,17:21:00,2,1,76,http://www.ripta.com/76,Saturday
22645,"""WALCOTT FS SUMMIT""",41.87663,-71.37902,2356045,17:22:00,17:22:00,3,1,76,http://www.ripta.com/76,Saturday
22670,"""WALCOTT NS ARLINGTON""",41.876934,-71.377349,2356045,17:22:00,17:22:00,4,1,76,http://www.ripta.com/76,Saturday
56495,"""WALCOTT NS MAYNARD""",41.877129,-71.37625,2356045,17:23:00,17:23:00,5,1,76,http://www.ripta.com/76,Saturday
56500,"""WALCOTT FS FRENCH""",41.877299,-71.375125,2356045,17:23:00,17:23:00,6,1,76,http://www.ripta.com/76,Saturday
56505,"""WALCOTT NS DENVER""",41.87749,-71.37428,2356045,17:23:00,17:23:00,7,1,76,http://www.ripta.com/76,Saturday
57670,"""WALCOTT NS NORTH BEND""",41.87767,-71.372897,2356045,17:24:00,17:24:00,8,1,76,http://www.ripta.com/76,Saturday
57675,"""NORTH BEND FS WALCOTT""",41.878109,-71.372851,2356045,17:24:00,17:24:00,9,1,76,http://www.ripta.com/76,Saturday
22981,"""ARMISTICE FS WALCOTT""",41.879033,-71.372465,2356045,17:24:00,17:24:00,10,1,76,http://www.ripta.com/76,Saturday
22995,"""ARMISTICE NS ASHTON""",41.879326,-71.371181,2356045,17:24:00,17:24:00,11,1,76,http://www.ripta.com/76,Saturday
23035,"""ARMISTICE FS SCHOEFIELD""",41.879768,-71.369401,2356045,17:25:00,17:25:00,12,1,76,http://www.ripta.com/76,Saturday
23090,"""ARMISTICE AT 209 ARMISTICE""",41.88002,-71.368329,2356045,17:25:00,17:25:00,13,1,76,http://www.ripta.com/76,Saturday
23165,"""ARMISTICE OPP 270 ARMISTICE""",41.880592,-71.365972,2356045,17:26:00,17:26:00,14,1,76,http://www.ripta.com/76,Saturday
57185,"""G BENNET NS CENTRAL""",41.885084,-71.366903,2356045,17:28:00,17:28:00,15,1,76,http://www.ripta.com/76,Saturday
30175,"""STOP&SHOP (COTTAGE STREET - PAWTUCKET)""",41.888327,-71.367365,2356045,17:29:00,17:29:00,16,1,76,http://www.ripta.com/76,Saturday
56311,"""CENTRAL FS FREEMAN""",41.885281,-71.366046,2356045,17:31:00,17:31:00,17,1,76,http://www.ripta.com/76,Saturday
56310,"""CENTRAL FS MENDON""",41.885529,-71.364033,2356045,17:31:00,17:31:00,18,1,76,http://www.ripta.com/76,Saturday
23470,"""CENTRAL NS YORK""",41.886124,-71.36156,2356045,17:31:00,17:31:00,19,1,76,http://www.ripta.com/76,Saturday
23460,"""CENTRAL FS TWEED""",41.887311,-71.356538,2356045,17:32:00,17:32:00,20,1,76,http://www.ripta.com/76,Saturday
23610,"""CENTRAL NS NEWPORT""",41.887832,-71.354455,2356045,17:33:00,17:33:00,21,1,76,http://www.ripta.com/76,Saturday
57660,"""CENTRAL FS NEWPORT""",41.888024,-71.353617,2356045,17:33:00,17:33:00,22,1,76,http://www.ripta.com/76,Saturday
23600,"""CENTRAL FS GRAND""",41.888413,-71.352052,2356045,17:34:00,17:34:00,23,1,76,http://www.ripta.com/76,Saturday
23655,"""CENTRAL NS LIVERPOOL""",41.888965,-71.349708,2356045,17:34:00,17:34:00,24,1,76,http://www.ripta.com/76,Saturday
23690,"""CENTRAL NS DAGGETT""",41.889467,-71.347534,2356045,17:35:00,17:35:00,25,1,76,http://www.ripta.com/76,Saturday
23715,"""CENTRAL OPP FARNUM""",41.890122,-71.344859,2356045,17:36:00,17:36:00,26,1,76,http://www.ripta.com/76,Saturday
57665,"""BRADLEY NS BENEFIT""",41.891425,-71.344334,2356045,17:36:00,17:36:00,27,1,76,http://www.ripta.com/76,Saturday
60235,"""BENEFIT AT THURBER""",41.891577,-71.345995,2356045,17:37:00,17:37:00,28,1,76,http://www.ripta.com/76,Saturday
60235,"""BENEFIT AT THURBER""",41.891577,-71.345995,2356046,08:50:00,08:50:00,1,0,76,http://www.ripta.com/76,Saturday
23750,"""CENTRAL FS BRADLEY""",41.890344,-71.344476,2356046,08:52:00,08:52:00,2,0,76,http://www.ripta.com/76,Saturday
23735,"""CENTRAL NS CLARNER""",41.889855,-71.346532,2356046,08:52:00,08:52:00,3,0,76,http://www.ripta.com/76,Saturday
23705,"""CENTRAL NS DRAPER""",41.889245,-71.34907,2356046,08:53:00,08:53:00,4,0,76,http://www.ripta.com/76,Saturday
56335,"""CENTRAL FS CHASE""",41.888859,-71.350611,2356046,08:53:00,08:53:00,5,0,76,http://www.ripta.com/76,Saturday
23670,"""CENTRAL NS GRAND""",41.88852,-71.352024,2356046,08:54:00,08:54:00,6,0,76,http://www.ripta.com/76,Saturday
57680,"""CENTRAL NS NEWPORT""",41.888115,-71.353627,2356046,08:54:00,08:54:00,7,0,76,http://www.ripta.com/76,Saturday
23585,"""CENTRAL NS TWEED""",41.887476,-71.356493,2356046,08:55:00,08:55:00,8,0,76,http://www.ripta.com/76,Saturday
23545,"""CENTRAL NS MAKIN""",41.886854,-71.358979,2356046,08:55:00,08:55:00,9,0,76,http://www.ripta.com/76,Saturday
23505,"""CENTRAL NS HARDING""",41.886306,-71.361456,2356046,08:56:00,08:56:00,10,0,76,http://www.ripta.com/76,Saturday
23475,"""CENTRAL NS MENDON""",41.88568,-71.363992,2356046,08:56:00,08:56:00,11,0,76,http://www.ripta.com/76,Saturday
23450,"""CENTRAL BETWEEN FREEMAN & KENYON""",41.885408,-71.365929,2356046,08:57:00,08:57:00,12,0,76,http://www.ripta.com/76,Saturday
30175,"""STOP&SHOP (COTTAGE STREET - PAWTUCKET)""",41.888327,-71.367365,2356046,08:58:00,08:58:00,13,0,76,http://www.ripta.com/76,Saturday
57145,"""G BENNET FS CENTRAL""",41.884979,-71.366979,2356046,09:00:00,09:00:00,14,0,76,http://www.ripta.com/76,Saturday
23170,"""ARMISTICE FS GEORGE BENNETT""",41.880634,-71.366218,2356046,09:01:00,09:01:00,15,0,76,http://www.ripta.com/76,Saturday
23145,"""ARMISTICE OPP 209 ARMISTICE""",41.88025,-71.367845,2356046,09:01:00,09:01:00,16,0,76,http://www.ripta.com/76,Saturday
23050,"""ARMISTICE OPP SCHOFIELD""",41.879811,-71.36965,2356046,09:02:00,09:02:00,17,0,76,http://www.ripta.com/76,Saturday
23000,"""ARMISTICE OPP ASHTON""",41.879519,-71.370735,2356046,09:02:00,09:02:00,18,0,76,http://www.ripta.com/76,Saturday
22980,"""ARMISTICE NS N BEND""",41.8791,-71.372425,2356046,09:03:00,09:03:00,19,0,76,http://www.ripta.com/76,Saturday
57685,"""NORTH BEND NS WALCOTT""",41.878161,-71.37297,2356046,09:03:00,09:03:00,20,0,76,http://www.ripta.com/76,Saturday
57690,"""WALCOTT FS WALNUT""",41.877327,-71.375563,2356046,09:04:00,09:04:00,21,0,76,http://www.ripta.com/76,Saturday
22750,"""WALCOTT FS MAYNARD""",41.8772,-71.37626,2356046,09:04:00,09:04:00,22,0,76,http://www.ripta.com/76,Saturday
22725,"""WALCOTT FS GROVE""",41.87705,-71.37719,2356046,09:04:00,09:04:00,23,0,76,http://www.ripta.com/76,Saturday
56560,"""WALCOTT NS UNDERWOOD""",41.876971,-71.377645,2356046,09:05:00,09:05:00,24,0,76,http://www.ripta.com/76,Saturday
58040,"""UNDERWOOD FS WALCOTT""",41.877392,-71.378397,2356046,09:05:00,09:05:00,25,0,76,http://www.ripta.com/76,Saturday
58045,"""UNDERWOOD NS GROVE""",41.878526,-71.378151,2356046,09:05:00,09:05:00,26,0,76,http://www.ripta.com/76,Saturday
60080,"""EXCHANGE AT TOLMAN HIGH SCHOOL""",41.87982,-71.380381,2356046,09:06:00,09:06:00,27,0,76,http://www.ripta.com/76,Saturday
22765,"""PAWTUCKET TRANSIT CTR (TRANSIT CTR SIDE)""",41.877298,-71.383417,2356046,09:08:00,09:08:00,28,0,76,http://www.ripta.com/76,Saturday
60235,"""BENEFIT AT THURBER""",41.891577,-71.345995,2356047,10:50:00,10:50:00,1,0,76,http://www.ripta.com/76,Saturday
23750,"""CENTRAL FS BRADLEY""",41.890344,-71.344476,2356047,10:52:00,10:52:00,2,0,76,http://www.ripta.com/76,Saturday
23735,"""CENTRAL NS CLARNER""",41.889855,-71.346532,2356047,10:52:00,10:52:00,3,0,76,http://www.ripta.com/76,Saturday
23705,"""CENTRAL NS DRAPER""",41.889245,-71.34907,2356047,10:53:00,10:53:00,4,0,76,http://www.ripta.com/76,Saturday
56335,"""CENTRAL FS CHASE""",41.888859,-71.350611,2356047,10:53:00,10:53:00,5,0,76,http://www.ripta.com/76,Saturday
23670,"""CENTRAL NS GRAND""",41.88852,-71.352024,2356047,10:54:00,10:54:00,6,0,76,http://www.ripta.com/76,Saturday
57680,"""CENTRAL NS NEWPORT""",41.888115,-71.353627,2356047,10:54:00,10:54:00,7,0,76,http://www.ripta.com/76,Saturday
23585,"""CENTRAL NS TWEED""",41.887476,-71.356493,2356047,10:55:00,10:55:00,8,0,76,http://www.ripta.com/76,Saturday
23545,"""CENTRAL NS MAKIN""",41.886854,-71.358979,2356047,10:55:00,10:55:00,9,0,76,http://www.ripta.com/76,Saturday
23505,"""CENTRAL NS HARDING""",41.886306,-71.361456,2356047,10:56:00,10:56:00,10,0,76,http://www.ripta.com/76,Saturday
23475,"""CENTRAL NS MENDON""",41.88568,-71.363992,2356047,10:56:00,10:56:00,11,0,76,http://www.ripta.com/76,Saturday
23450,"""CENTRAL BETWEEN FREEMAN & KENYON""",41.885408,-71.365929,2356047,10:57:00,10:57:00,12,0,76,http://www.ripta.com/76,Saturday
30175,"""STOP&SHOP (COTTAGE STREET - PAWTUCKET)""",41.888327,-71.367365,2356047,10:58:00,10:58:00,13,0,76,http://www.ripta.com/76,Saturday
57145,"""G BENNET FS CENTRAL""",41.884979,-71.366979,2356047,11:00:00,11:00:00,14,0,76,http://www.ripta.com/76,Saturday
23170,"""ARMISTICE FS GEORGE BENNETT""",41.880634,-71.366218,2356047,11:01:00,11:01:00,15,0,76,http://www.ripta.com/76,Saturday
23145,"""ARMISTICE OPP 209 ARMISTICE""",41.88025,-71.367845,2356047,11:01:00,11:01:00,16,0,76,http://www.ripta.com/76,Saturday
23050,"""ARMISTICE OPP SCHOFIELD""",41.879811,-71.36965,2356047,11:02:00,11:02:00,17,0,76,http://www.ripta.com/76,Saturday
23000,"""ARMISTICE OPP ASHTON""",41.879519,-71.370735,2356047,11:02:00,11:02:00,18,0,76,http://www.ripta.com/76,Saturday
22980,"""ARMISTICE NS N BEND""",41.8791,-71.372425,2356047,11:03:00,11:03:00,19,0,76,http://www.ripta.com/76,Saturday
57685,"""NORTH BEND NS WALCOTT""",41.878161,-71.37297,2356047,11:03:00,11:03:00,20,0,76,http://www.ripta.com/76,Saturday
57690,"""WALCOTT FS WALNUT""",41.877327,-71.375563,2356047,11:04:00,11:04:00,21,0,76,http://www.ripta.com/76,Saturday
22750,"""WALCOTT FS MAYNARD""",41.8772,-71.37626,2356047,11:04:00,11:04:00,22,0,76,http://www.ripta.com/76,Saturday
22725,"""WALCOTT FS GROVE""",41.87705,-71.37719,2356047,11:04:00,11:04:00,23,0,76,http://www.ripta.com/76,Saturday
56560,"""WALCOTT NS UNDERWOOD""",41.876971,-71.377645,2356047,11:05:00,11:05:00,24,0,76,http://www.ripta.com/76,Saturday
58040,"""UNDERWOOD FS WALCOTT""",41.877392,-71.378397,2356047,11:05:00,11:05:00,25,0,76,http://www.ripta.com/76,Saturday
58045,"""UNDERWOOD NS GROVE""",41.878526,-71.378151,2356047,11:05:00,11:05:00,26,0,76,http://www.ripta.com/76,Saturday
60080,"""EXCHANGE AT TOLMAN HIGH SCHOOL""",41.87982,-71.380381,2356047,11:06:00,11:06:00,27,0,76,http://www.ripta.com/76,Saturday
22765,"""PAWTUCKET TRANSIT CTR (TRANSIT CTR SIDE)""",41.877298,-71.383417,2356047,11:08:00,11:08:00,28,0,76,http://www.ripta.com/76,Saturday
60235,"""BENEFIT AT THURBER""",41.891577,-71.345995,2356048,12:50:00,12:50:00,1,0,76,http://www.ripta.com/76,Saturday
23750,"""CENTRAL FS BRADLEY""",41.890344,-71.344476,2356048,12:52:00,12:52:00,2,0,76,http://www.ripta.com/76,Saturday
23735,"""CENTRAL NS CLARNER""",41.889855,-71.346532,2356048,12:52:00,12:52:00,3,0,76,http://www.ripta.com/76,Saturday
23705,"""CENTRAL NS DRAPER""",41.889245,-71.34907,2356048,12:53:00,12:53:00,4,0,76,http://www.ripta.com/76,Saturday
56335,"""CENTRAL FS CHASE""",41.888859,-71.350611,2356048,12:53:00,12:53:00,5,0,76,http://www.ripta.com/76,Saturday
23670,"""CENTRAL NS GRAND""",41.88852,-71.352024,2356048,12:54:00,12:54:00,6,0,76,http://www.ripta.com/76,Saturday
57680,"""CENTRAL NS NEWPORT""",41.888115,-71.353627,2356048,12:54:00,12:54:00,7,0,76,http://www.ripta.com/76,Saturday
23585,"""CENTRAL NS TWEED""",41.887476,-71.356493,2356048,12:55:00,12:55:00,8,0,76,http://www.ripta.com/76,Saturday
23545,"""CENTRAL NS MAKIN""",41.886854,-71.358979,2356048,12:55:00,12:55:00,9,0,76,http://www.ripta.com/76,Saturday
23505,"""CENTRAL NS HARDING""",41.886306,-71.361456,2356048,12:56:00,12:56:00,10,0,76,http://www.ripta.com/76,Saturday
23475,"""CENTRAL NS MENDON""",41.88568,-71.363992,2356048,12:56:00,12:56:00,11,0,76,http://www.ripta.com/76,Saturday
23450,"""CENTRAL BETWEEN FREEMAN & KENYON""",41.885408,-71.365929,2356048,12:57:00,12:57:00,12,0,76,http://www.ripta.com/76,Saturday
30175,"""STOP&SHOP (COTTAGE STREET - PAWTUCKET)""",41.888327,-71.367365,2356048,12:58:00,12:58:00,13,0,76,http://www.ripta.com/76,Saturday
57145,"""G BENNET FS CENTRAL""",41.884979,-71.366979,2356048,13:00:00,13:00:00,14,0,76,http://www.ripta.com/76,Saturday
23170,"""ARMISTICE FS GEORGE BENNETT""",41.880634,-71.366218,2356048,13:01:00,13:01:00,15,0,76,http://www.ripta.com/76,Saturday
23145,"""ARMISTICE OPP 209 ARMISTICE""",41.88025,-71.367845,2356048,13:01:00,13:01:00,16,0,76,http://www.ripta.com/76,Saturday
23050,"""ARMISTICE OPP SCHOFIELD""",41.879811,-71.36965,2356048,13:02:00,13:02:00,17,0,76,http://www.ripta.com/76,Saturday
23000,"""ARMISTICE OPP ASHTON""",41.879519,-71.370735,2356048,13:02:00,13:02:00,18,0,76,http://www.ripta.com/76,Saturday
22980,"""ARMISTICE NS N BEND""",41.8791,-71.372425,2356048,13:03:00,13:03:00,19,0,76,http://www.ripta.com/76,Saturday
57685,"""NORTH BEND NS WALCOTT""",41.878161,-71.37297,2356048,13:03:00,13:03:00,20,0,76,http://www.ripta.com/76,Saturday
57690,"""WALCOTT FS WALNUT""",41.877327,-71.375563,2356048,13:04:00,13:04:00,21,0,76,http://www.ripta.com/76,Saturday
22750,"""WALCOTT FS MAYNARD""",41.8772,-71.37626,2356048,13:04:00,13:04:00,22,0,76,http://www.ripta.com/76,Saturday
22725,"""WALCOTT FS GROVE""",41.87705,-71.37719,2356048,13:04:00,13:04:00,23,0,76,http://www.ripta.com/76,Saturday
56560,"""WALCOTT NS UNDERWOOD""",41.876971,-71.377645,2356048,13:05:00,13:05:00,24,0,76,http://www.ripta.com/76,Saturday
58040,"""UNDERWOOD FS WALCOTT""",41.877392,-71.378397,2356048,13:05:00,13:05:00,25,0,76,http://www.ripta.com/76,Saturday
58045,"""UNDERWOOD NS GROVE""",41.878526,-71.378151,2356048,13:05:00,13:05:00,26,0,76,http://www.ripta.com/76,Saturday
60080,"""EXCHANGE AT TOLMAN HIGH SCHOOL""",41.87982,-71.380381,2356048,13:06:00,13:06:00,27,0,76,http://www.ripta.com/76,Saturday
22765,"""PAWTUCKET TRANSIT CTR (TRANSIT CTR SIDE)""",41.877298,-71.383417,2356048,13:08:00,13:08:00,28,0,76,http://www.ripta.com/76,Saturday
60235,"""BENEFIT AT THURBER""",41.891577,-71.345995,2356049,14:50:00,14:50:00,1,0,76,http://www.ripta.com/76,Saturday
23750,"""CENTRAL FS BRADLEY""",41.890344,-71.344476,2356049,14:52:00,14:52:00,2,0,76,http://www.ripta.com/76,Saturday
23735,"""CENTRAL NS CLARNER""",41.889855,-71.346532,2356049,14:52:00,14:52:00,3,0,76,http://www.ripta.com/76,Saturday
23705,"""CENTRAL NS DRAPER""",41.889245,-71.34907,2356049,14:53:00,14:53:00,4,0,76,http://www.ripta.com/76,Saturday
56335,"""CENTRAL FS CHASE""",41.888859,-71.350611,2356049,14:53:00,14:53:00,5,0,76,http://www.ripta.com/76,Saturday
23670,"""CENTRAL NS GRAND""",41.88852,-71.352024,2356049,14:54:00,14:54:00,6,0,76,http://www.ripta.com/76,Saturday
57680,"""CENTRAL NS NEWPORT""",41.888115,-71.353627,2356049,14:54:00,14:54:00,7,0,76,http://www.ripta.com/76,Saturday
23585,"""CENTRAL NS TWEED""",41.887476,-71.356493,2356049,14:55:00,14:55:00,8,0,76,http://www.ripta.com/76,Saturday
23545,"""CENTRAL NS MAKIN""",41.886854,-71.358979,2356049,14:55:00,14:55:00,9,0,76,http://www.ripta.com/76,Saturday
23505,"""CENTRAL NS HARDING""",41.886306,-71.361456,2356049,14:56:00,14:56:00,10,0,76,http://www.ripta.com/76,Saturday
23475,"""CENTRAL NS MENDON""",41.88568,-71.363992,2356049,14:56:00,14:56:00,11,0,76,http://www.ripta.com/76,Saturday
23450,"""CENTRAL BETWEEN FREEMAN & KENYON""",41.885408,-71.365929,2356049,14:57:00,14:57:00,12,0,76,http://www.ripta.com/76,Saturday
30175,"""STOP&SHOP (COTTAGE STREET - PAWTUCKET)""",41.888327,-71.367365,2356049,14:58:00,14:58:00,13,0,76,http://www.ripta.com/76,Saturday
57145,"""G BENNET FS CENTRAL""",41.884979,-71.366979,2356049,15:00:00,15:00:00,14,0,76,http://www.ripta.com/76,Saturday
23170,"""ARMISTICE FS GEORGE BENNETT""",41.880634,-71.366218,2356049,15:01:00,15:01:00,15,0,76,http://www.ripta.com/76,Saturday
23145,"""ARMISTICE OPP 209 ARMISTICE""",41.88025,-71.367845,2356049,15:01:00,15:01:00,16,0,76,http://www.ripta.com/76,Saturday
23050,"""ARMISTICE OPP SCHOFIELD""",41.879811,-71.36965,2356049,15:02:00,15:02:00,17,0,76,http://www.ripta.com/76,Saturday
23000,"""ARMISTICE OPP ASHTON""",41.879519,-71.370735,2356049,15:02:00,15:02:00,18,0,76,http://www.ripta.com/76,Saturday
22980,"""ARMISTICE NS N BEND""",41.8791,-71.372425,2356049,15:03:00,15:03:00,19,0,76,http://www.ripta.com/76,Saturday
57685,"""NORTH BEND NS WALCOTT""",41.878161,-71.37297,2356049,15:03:00,15:03:00,20,0,76,http://www.ripta.com/76,Saturday
57690,"""WALCOTT FS WALNUT""",41.877327,-71.375563,2356049,15:04:00,15:04:00,21,0,76,http://www.ripta.com/76,Saturday
22750,"""WALCOTT FS MAYNARD""",41.8772,-71.37626,2356049,15:04:00,15:04:00,22,0,76,http://www.ripta.com/76,Saturday
22725,"""WALCOTT FS GROVE""",41.87705,-71.37719,2356049,15:04:00,15:04:00,23,0,76,http://www.ripta.com/76,Saturday
56560,"""WALCOTT NS UNDERWOOD""",41.876971,-71.377645,2356049,15:05:00,15:05:00,24,0,76,http://www.ripta.com/76,Saturday
58040,"""UNDERWOOD FS WALCOTT""",41.877392,-71.378397,2356049,15:05:00,15:05:00,25,0,76,http://www.ripta.com/76,Saturday
58045,"""UNDERWOOD NS GROVE""",41.878526,-71.378151,2356049,15:05:00,15:05:00,26,0,76,http://www.ripta.com/76,Saturday
60080,"""EXCHANGE AT TOLMAN HIGH SCHOOL""",41.87982,-71.380381,2356049,15:06:00,15:06:00,27,0,76,http://www.ripta.com/76,Saturday
22765,"""PAWTUCKET TRANSIT CTR (TRANSIT CTR SIDE)""",41.877298,-71.383417,2356049,15:08:00,15:08:00,28,0,76,http://www.ripta.com/76,Saturday
60235,"""BENEFIT AT THURBER""",41.891577,-71.345995,2356050,16:50:00,16:50:00,1,0,76,http://www.ripta.com/76,Saturday
23750,"""CENTRAL FS BRADLEY""",41.890344,-71.344476,2356050,16:52:00,16:52:00,2,0,76,http://www.ripta.com/76,Saturday
23735,"""CENTRAL NS CLARNER""",41.889855,-71.346532,2356050,16:52:00,16:52:00,3,0,76,http://www.ripta.com/76,Saturday
23705,"""CENTRAL NS DRAPER""",41.889245,-71.34907,2356050,16:53:00,16:53:00,4,0,76,http://www.ripta.com/76,Saturday
56335,"""CENTRAL FS CHASE""",41.888859,-71.350611,2356050,16:53:00,16:53:00,5,0,76,http://www.ripta.com/76,Saturday
23670,"""CENTRAL NS GRAND""",41.88852,-71.352024,2356050,16:54:00,16:54:00,6,0,76,http://www.ripta.com/76,Saturday
57680,"""CENTRAL NS NEWPORT""",41.888115,-71.353627,2356050,16:54:00,16:54:00,7,0,76,http://www.ripta.com/76,Saturday
23585,"""CENTRAL NS TWEED""",41.887476,-71.356493,2356050,16:55:00,16:55:00,8,0,76,http://www.ripta.com/76,Saturday
23545,"""CENTRAL NS MAKIN""",41.886854,-71.358979,2356050,16:55:00,16:55:00,9,0,76,http://www.ripta.com/76,Saturday
23505,"""CENTRAL NS HARDING""",41.886306,-71.361456,2356050,16:56:00,16:56:00,10,0,76,http://www.ripta.com/76,Saturday
23475,"""CENTRAL NS MENDON""",41.88568,-71.363992,2356050,16:56:00,16:56:00,11,0,76,http://www.ripta.com/76,Saturday
23450,"""CENTRAL BETWEEN FREEMAN & KENYON""",41.885408,-71.365929,2356050,16:57:00,16:57:00,12,0,76,http://www.ripta.com/76,Saturday
30175,"""STOP&SHOP (COTTAGE STREET - PAWTUCKET)""",41.888327,-71.367365,2356050,16:58:00,16:58:00,13,0,76,http://www.ripta.com/76,Saturday
57145,"""G BENNET FS CENTRAL""",41.884979,-71.366979,2356050,17:00:00,17:00:00,14,0,76,http://www.ripta.com/76,Saturday
23170,"""ARMISTICE FS GEORGE BENNETT""",41.880634,-71.366218,2356050,17:01:00,17:01:00,15,0,76,http://www.ripta.com/76,Saturday
23145,"""ARMISTICE OPP 209 ARMISTICE""",41.88025,-71.367845,2356050,17:01:00,17:01:00,16,0,76,http://www.ripta.com/76,Saturday
23050,"""ARMISTICE OPP SCHOFIELD""",41.879811,-71.36965,2356050,17:02:00,17:02:00,17,0,76,http://www.ripta.com/76,Saturday
23000,"""ARMISTICE OPP ASHTON""",41.879519,-71.370735,2356050,17:02:00,17:02:00,18,0,76,http://www.ripta.com/76,Saturday
22980,"""ARMISTICE NS N BEND""",41.8791,-71.372425,2356050,17:03:00,17:03:00,19,0,76,http://www.ripta.com/76,Saturday
57685,"""NORTH BEND NS WALCOTT""",41.878161,-71.37297,2356050,17:03:00,17:03:00,20,0,76,http://www.ripta.com/76,Saturday
57690,"""WALCOTT FS WALNUT""",41.877327,-71.375563,2356050,17:04:00,17:04:00,21,0,76,http://www.ripta.com/76,Saturday
22750,"""WALCOTT FS MAYNARD""",41.8772,-71.37626,2356050,17:04:00,17:04:00,22,0,76,http://www.ripta.com/76,Saturday
22725,"""WALCOTT FS GROVE""",41.87705,-71.37719,2356050,17:04:00,17:04:00,23,0,76,http://www.ripta.com/76,Saturday
56560,"""WALCOTT NS UNDERWOOD""",41.876971,-71.377645,2356050,17:05:00,17:05:00,24,0,76,http://www.ripta.com/76,Saturday
58040,"""UNDERWOOD FS WALCOTT""",41.877392,-71.378397,2356050,17:05:00,17:05:00,25,0,76,http://www.ripta.com/76,Saturday
58045,"""UNDERWOOD NS GROVE""",41.878526,-71.378151,2356050,17:05:00,17:05:00,26,0,76,http://www.ripta.com/76,Saturday
60080,"""EXCHANGE AT TOLMAN HIGH SCHOOL""",41.87982,-71.380381,2356050,17:06:00,17:06:00,27,0,76,http://www.ripta.com/76,Saturday
22765,"""PAWTUCKET TRANSIT CTR (TRANSIT CTR SIDE)""",41.877298,-71.383417,2356050,17:08:00,17:08:00,28,0,76,http://www.ripta.com/76,Saturday
22765,"""PAWTUCKET TRANSIT CTR (TRANSIT CTR SIDE)""",41.877298,-71.383417,2356051,10:20:00,10:20:00,1,1,76,http://www.ripta.com/76,Saturday
56275,"""MAIN NS WALCOTT""",41.875954,-71.380754,2356051,10:21:00,10:21:00,2,1,76,http://www.ripta.com/76,Saturday
22645,"""WALCOTT FS SUMMIT""",41.87663,-71.37902,2356051,10:22:00,10:22:00,3,1,76,http://www.ripta.com/76,Saturday
22670,"""WALCOTT NS ARLINGTON""",41.876934,-71.377349,2356051,10:22:00,10:22:00,4,1,76,http://www.ripta.com/76,Saturday
56495,"""WALCOTT NS MAYNARD""",41.877129,-71.37625,2356051,10:23:00,10:23:00,5,1,76,http://www.ripta.com/76,Saturday
56500,"""WALCOTT FS FRENCH""",41.877299,-71.375125,2356051,10:23:00,10:23:00,6,1,76,http://www.ripta.com/76,Saturday
56505,"""WALCOTT NS DENVER""",41.87749,-71.37428,2356051,10:23:00,10:23:00,7,1,76,http://www.ripta.com/76,Saturday
57670,"""WALCOTT NS NORTH BEND""",41.87767,-71.372897,2356051,10:24:00,10:24:00,8,1,76,http://www.ripta.com/76,Saturday
57675,"""NORTH BEND FS WALCOTT""",41.878109,-71.372851,2356051,10:24:00,10:24:00,9,1,76,http://www.ripta.com/76,Saturday
22981,"""ARMISTICE FS WALCOTT""",41.879033,-71.372465,2356051,10:24:00,10:24:00,10,1,76,http://www.ripta.com/76,Saturday
22995,"""ARMISTICE NS ASHTON""",41.879326,-71.371181,2356051,10:24:00,10:24:00,11,1,76,http://www.ripta.com/76,Saturday
23035,"""ARMISTICE FS SCHOEFIELD""",41.879768,-71.369401,2356051,10:25:00,10:25:00,12,1,76,http://www.ripta.com/76,Saturday
23090,"""ARMISTICE AT 209 ARMISTICE""",41.88002,-71.368329,2356051,10:25:00,10:25:00,13,1,76,http://www.ripta.com/76,Saturday
23165,"""ARMISTICE OPP 270 ARMISTICE""",41.880592,-71.365972,2356051,10:26:00,10:26:00,14,1,76,http://www.ripta.com/76,Saturday
57185,"""G BENNET NS CENTRAL""",41.885084,-71.366903,2356051,10:28:00,10:28:00,15,1,76,http://www.ripta.com/76,Saturday
30175,"""STOP&SHOP (COTTAGE STREET - PAWTUCKET)""",41.888327,-71.367365,2356051,10:29:00,10:29:00,16,1,76,http://www.ripta.com/76,Saturday
56311,"""CENTRAL FS FREEMAN""",41.885281,-71.366046,2356051,10:31:00,10:31:00,17,1,76,http://www.ripta.com/76,Saturday
56310,"""CENTRAL FS MENDON""",41.885529,-71.364033,2356051,10:31:00,10:31:00,18,1,76,http://www.ripta.com/76,Saturday
23470,"""CENTRAL NS YORK""",41.886124,-71.36156,2356051,10:31:00,10:31:00,19,1,76,http://www.ripta.com/76,Saturday
23460,"""CENTRAL FS TWEED""",41.887311,-71.356538,2356051,10:32:00,10:32:00,20,1,76,http://www.ripta.com/76,Saturday
23610,"""CENTRAL NS NEWPORT""",41.887832,-71.354455,2356051,10:33:00,10:33:00,21,1,76,http://www.ripta.com/76,Saturday
57660,"""CENTRAL FS NEWPORT""",41.888024,-71.353617,2356051,10:33:00,10:33:00,22,1,76,http://www.ripta.com/76,Saturday
23600,"""CENTRAL FS GRAND""",41.888413,-71.352052,2356051,10:34:00,10:34:00,23,1,76,http://www.ripta.com/76,Saturday
23655,"""CENTRAL NS LIVERPOOL""",41.888965,-71.349708,2356051,10:34:00,10:34:00,24,1,76,http://www.ripta.com/76,Saturday
23690,"""CENTRAL NS DAGGETT""",41.889467,-71.347534,2356051,10:35:00,10:35:00,25,1,76,http://www.ripta.com/76,Saturday
23715,"""CENTRAL OPP FARNUM""",41.890122,-71.344859,2356051,10:36:00,10:36:00,26,1,76,http://www.ripta.com/76,Saturday
57665,"""BRADLEY NS BENEFIT""",41.891425,-71.344334,2356051,10:36:00,10:36:00,27,1,76,http://www.ripta.com/76,Saturday
60235,"""BENEFIT AT THURBER""",41.891577,-71.345995,2356051,10:37:00,10:37:00,28,1,76,http://www.ripta.com/76,Saturday
22765,"""PAWTUCKET TRANSIT CTR (TRANSIT CTR SIDE)""",41.877298,-71.383417,2356052,12:20:00,12:20:00,1,1,76,http://www.ripta.com/76,Saturday
56275,"""MAIN NS WALCOTT""",41.875954,-71.380754,2356052,12:21:00,12:21:00,2,1,76,http://www.ripta.com/76,Saturday
22645,"""WALCOTT FS SUMMIT""",41.87663,-71.37902,2356052,12:22:00,12:22:00,3,1,76,http://www.ripta.com/76,Saturday
22670,"""WALCOTT NS ARLINGTON""",41.876934,-71.377349,2356052,12:22:00,12:22:00,4,1,76,http://www.ripta.com/76,Saturday
56495,"""WALCOTT NS MAYNARD""",41.877129,-71.37625,2356052,12:23:00,12:23:00,5,1,76,http://www.ripta.com/76,Saturday
56500,"""WALCOTT FS FRENCH""",41.877299,-71.375125,2356052,12:23:00,12:23:00,6,1,76,http://www.ripta.com/76,Saturday
56505,"""WALCOTT NS DENVER""",41.87749,-71.37428,2356052,12:23:00,12:23:00,7,1,76,http://www.ripta.com/76,Saturday
57670,"""WALCOTT NS NORTH BEND""",41.87767,-71.372897,2356052,12:24:00,12:24:00,8,1,76,http://www.ripta.com/76,Saturday
57675,"""NORTH BEND FS WALCOTT""",41.878109,-71.372851,2356052,12:24:00,12:24:00,9,1,76,http://www.ripta.com/76,Saturday
22981,"""ARMISTICE FS WALCOTT""",41.879033,-71.372465,2356052,12:24:00,12:24:00,10,1,76,http://www.ripta.com/76,Saturday
22995,"""ARMISTICE NS ASHTON""",41.879326,-71.371181,2356052,12:24:00,12:24:00,11,1,76,http://www.ripta.com/76,Saturday
23035,"""ARMISTICE FS SCHOEFIELD""",41.879768,-71.369401,2356052,12:25:00,12:25:00,12,1,76,http://www.ripta.com/76,Saturday
23090,"""ARMISTICE AT 209 ARMISTICE""",41.88002,-71.368329,2356052,12:25:00,12:25:00,13,1,76,http://www.ripta.com/76,Saturday
23165,"""ARMISTICE OPP 270 ARMISTICE""",41.880592,-71.365972,2356052,12:26:00,12:26:00,14,1,76,http://www.ripta.com/76,Saturday
57185,"""G BENNET NS CENTRAL""",41.885084,-71.366903,2356052,12:28:00,12:28:00,15,1,76,http://www.ripta.com/76,Saturday
30175,"""STOP&SHOP (COTTAGE STREET - PAWTUCKET)""",41.888327,-71.367365,2356052,12:29:00,12:29:00,16,1,76,http://www.ripta.com/76,Saturday
56311,"""CENTRAL FS FREEMAN""",41.885281,-71.366046,2356052,12:31:00,12:31:00,17,1,76,http://www.ripta.com/76,Saturday
56310,"""CENTRAL FS MENDON""",41.885529,-71.364033,2356052,12:31:00,12:31:00,18,1,76,http://www.ripta.com/76,Saturday
23470,"""CENTRAL NS YORK""",41.886124,-71.36156,2356052,12:31:00,12:31:00,19,1,76,http://www.ripta.com/76,Saturday
23460,"""CENTRAL FS TWEED""",41.887311,-71.356538,2356052,12:32:00,12:32:00,20,1,76,http://www.ripta.com/76,Saturday
23610,"""CENTRAL NS NEWPORT""",41.887832,-71.354455,2356052,12:33:00,12:33:00,21,1,76,http://www.ripta.com/76,Saturday
57660,"""CENTRAL FS NEWPORT""",41.888024,-71.353617,2356052,12:33:00,12:33:00,22,1,76,http://www.ripta.com/76,Saturday
23600,"""CENTRAL FS GRAND""",41.888413,-71.352052,2356052,12:34:00,12:34:00,23,1,76,http://www.ripta.com/76,Saturday
23655,"""CENTRAL NS LIVERPOOL""",41.888965,-71.349708,2356052,12:34:00,12:34:00,24,1,76,http://www.ripta.com/76,Saturday
23690,"""CENTRAL NS DAGGETT""",41.889467,-71.347534,2356052,12:35:00,12:35:00,25,1,76,http://www.ripta.com/76,Saturday
23715,"""CENTRAL OPP FARNUM""",41.890122,-71.344859,2356052,12:36:00,12:36:00,26,1,76,http://www.ripta.com/76,Saturday
57665,"""BRADLEY NS BENEFIT""",41.891425,-71.344334,2356052,12:36:00,12:36:00,27,1,76,http://www.ripta.com/76,Saturday
60235,"""BENEFIT AT THURBER""",41.891577,-71.345995,2356052,12:37:00,12:37:00,28,1,76,http://www.ripta.com/76,Saturday
22765,"""PAWTUCKET TRANSIT CTR (TRANSIT CTR SIDE)""",41.877298,-71.383417,2356053,14:20:00,14:20:00,1,1,76,http://www.ripta.com/76,Saturday
56275,"""MAIN NS WALCOTT""",41.875954,-71.380754,2356053,14:21:00,14:21:00,2,1,76,http://www.ripta.com/76,Saturday
22645,"""WALCOTT FS SUMMIT""",41.87663,-71.37902,2356053,14:22:00,14:22:00,3,1,76,http://www.ripta.com/76,Saturday
22670,"""WALCOTT NS ARLINGTON""",41.876934,-71.377349,2356053,14:22:00,14:22:00,4,1,76,http://www.ripta.com/76,Saturday
56495,"""WALCOTT NS MAYNARD""",41.877129,-71.37625,2356053,14:23:00,14:23:00,5,1,76,http://www.ripta.com/76,Saturday
56500,"""WALCOTT FS FRENCH""",41.877299,-71.375125,2356053,14:23:00,14:23:00,6,1,76,http://www.ripta.com/76,Saturday
56505,"""WALCOTT NS DENVER""",41.87749,-71.37428,2356053,14:23:00,14:23:00,7,1,76,http://www.ripta.com/76,Saturday
57670,"""WALCOTT NS NORTH BEND""",41.87767,-71.372897,2356053,14:24:00,14:24:00,8,1,76,http://www.ripta.com/76,Saturday
57675,"""NORTH BEND FS WALCOTT""",41.878109,-71.372851,2356053,14:24:00,14:24:00,9,1,76,http://www.ripta.com/76,Saturday
22981,"""ARMISTICE FS WALCOTT""",41.879033,-71.372465,2356053,14:24:00,14:24:00,10,1,76,http://www.ripta.com/76,Saturday
22995,"""ARMISTICE NS ASHTON""",41.879326,-71.371181,2356053,14:24:00,14:24:00,11,1,76,http://www.ripta.com/76,Saturday
23035,"""ARMISTICE FS SCHOEFIELD""",41.879768,-71.369401,2356053,14:25:00,14:25:00,12,1,76,http://www.ripta.com/76,Saturday
23090,"""ARMISTICE AT 209 ARMISTICE""",41.88002,-71.368329,2356053,14:25:00,14:25:00,13,1,76,http://www.ripta.com/76,Saturday
23165,"""ARMISTICE OPP 270 ARMISTICE""",41.880592,-71.365972,2356053,14:26:00,14:26:00,14,1,76,http://www.ripta.com/76,Saturday
57185,"""G BENNET NS CENTRAL""",41.885084,-71.366903,2356053,14:28:00,14:28:00,15,1,76,http://www.ripta.com/76,Saturday
30175,"""STOP&SHOP (COTTAGE STREET - PAWTUCKET)""",41.888327,-71.367365,2356053,14:29:00,14:29:00,16,1,76,http://www.ripta.com/76,Saturday
56311,"""CENTRAL FS FREEMAN""",41.885281,-71.366046,2356053,14:31:00,14:31:00,17,1,76,http://www.ripta.com/76,Saturday
56310,"""CENTRAL FS MENDON""",41.885529,-71.364033,2356053,14:31:00,14:31:00,18,1,76,http://www.ripta.com/76,Saturday
23470,"""CENTRAL NS YORK""",41.886124,-71.36156,2356053,14:31:00,14:31:00,19,1,76,http://www.ripta.com/76,Saturday
23460,"""CENTRAL FS TWEED""",41.887311,-71.356538,2356053,14:32:00,14:32:00,20,1,76,http://www.ripta.com/76,Saturday
23610,"""CENTRAL NS NEWPORT""",41.887832,-71.354455,2356053,14:33:00,14:33:00,21,1,76,http://www.ripta.com/76,Saturday
57660,"""CENTRAL FS NEWPORT""",41.888024,-71.353617,2356053,14:33:00,14:33:00,22,1,76,http://www.ripta.com/76,Saturday
23600,"""CENTRAL FS GRAND""",41.888413,-71.352052,2356053,14:34:00,14:34:00,23,1,76,http://www.ripta.com/76,Saturday
23655,"""CENTRAL NS LIVERPOOL""",41.888965,-71.349708,2356053,14:34:00,14:34:00,24,1,76,http://www.ripta.com/76,Saturday
23690,"""CENTRAL NS DAGGETT""",41.889467,-71.347534,2356053,14:35:00,14:35:00,25,1,76,http://www.ripta.com/76,Saturday
23715,"""CENTRAL OPP FARNUM""",41.890122,-71.344859,2356053,14:36:00,14:36:00,26,1,76,http://www.ripta.com/76,Saturday
57665,"""BRADLEY NS BENEFIT""",41.891425,-71.344334,2356053,14:36:00,14:36:00,27,1,76,http://www.ripta.com/76,Saturday
60235,"""BENEFIT AT THURBER""",41.891577,-71.345995,2356053,14:37:00,14:37:00,28,1,76,http://www.ripta.com/76,Saturday
22765,"""PAWTUCKET TRANSIT CTR (TRANSIT CTR SIDE)""",41.877298,-71.383417,2396388,06:15:00,06:15:00,1,1,76,http://www.ripta.com/76,Weekday
56275,"""MAIN NS WALCOTT""",41.875954,-71.380754,2396388,06:16:00,06:16:00,2,1,76,http://www.ripta.com/76,Weekday
22645,"""WALCOTT FS SUMMIT""",41.87663,-71.37902,2396388,06:16:00,06:16:00,3,1,76,http://www.ripta.com/76,Weekday
22670,"""WALCOTT NS ARLINGTON""",41.876934,-71.377349,2396388,06:17:00,06:17:00,4,1,76,http://www.ripta.com/76,Weekday
56495,"""WALCOTT NS MAYNARD""",41.877129,-71.37625,2396388,06:17:00,06:17:00,5,1,76,http://www.ripta.com/76,Weekday
56500,"""WALCOTT FS FRENCH""",41.877299,-71.375125,2396388,06:17:00,06:17:00,6,1,76,http://www.ripta.com/76,Weekday
56505,"""WALCOTT NS DENVER""",41.87749,-71.37428,2396388,06:18:00,06:18:00,7,1,76,http://www.ripta.com/76,Weekday
57670,"""WALCOTT NS NORTH BEND""",41.87767,-71.372897,2396388,06:18:00,06:18:00,8,1,76,http://www.ripta.com/76,Weekday
57675,"""NORTH BEND FS WALCOTT""",41.878109,-71.372851,2396388,06:18:00,06:18:00,9,1,76,http://www.ripta.com/76,Weekday
22981,"""ARMISTICE FS WALCOTT""",41.879033,-71.372465,2396388,06:18:00,06:18:00,10,1,76,http://www.ripta.com/76,Weekday
22995,"""ARMISTICE NS ASHTON""",41.879326,-71.371181,2396388,06:19:00,06:19:00,11,1,76,http://www.ripta.com/76,Weekday
23035,"""ARMISTICE FS SCHOEFIELD""",41.879768,-71.369401,2396388,06:19:00,06:19:00,12,1,76,http://www.ripta.com/76,Weekday
23090,"""ARMISTICE AT 209 ARMISTICE""",41.88002,-71.368329,2396388,06:19:00,06:19:00,13,1,76,http://www.ripta.com/76,Weekday
23165,"""ARMISTICE OPP 270 ARMISTICE""",41.880592,-71.365972,2396388,06:20:00,06:20:00,14,1,76,http://www.ripta.com/76,Weekday
57185,"""G BENNET NS CENTRAL""",41.885084,-71.366903,2396388,06:22:00,06:22:00,15,1,76,http://www.ripta.com/76,Weekday
30175,"""STOP&SHOP (COTTAGE STREET - PAWTUCKET)""",41.888327,-71.367365,2396388,06:23:00,06:23:00,16,1,76,http://www.ripta.com/76,Weekday
56311,"""CENTRAL FS FREEMAN""",41.885281,-71.366046,2396388,06:25:00,06:25:00,17,1,76,http://www.ripta.com/76,Weekday
56310,"""CENTRAL FS MENDON""",41.885529,-71.364033,2396388,06:25:00,06:25:00,18,1,76,http://www.ripta.com/76,Weekday
23470,"""CENTRAL NS YORK""",41.886124,-71.36156,2396388,06:25:00,06:25:00,19,1,76,http://www.ripta.com/76,Weekday
23460,"""CENTRAL FS TWEED""",41.887311,-71.356538,2396388,06:26:00,06:26:00,20,1,76,http://www.ripta.com/76,Weekday
23610,"""CENTRAL NS NEWPORT""",41.887832,-71.354455,2396388,06:27:00,06:27:00,21,1,76,http://www.ripta.com/76,Weekday
57660,"""CENTRAL FS NEWPORT""",41.888024,-71.353617,2396388,06:27:00,06:27:00,22,1,76,http://www.ripta.com/76,Weekday
23600,"""CENTRAL FS GRAND""",41.888413,-71.352052,2396388,06:27:00,06:27:00,23,1,76,http://www.ripta.com/76,Weekday
23655,"""CENTRAL NS LIVERPOOL""",41.888965,-71.349708,2396388,06:28:00,06:28:00,24,1,76,http://www.ripta.com/76,Weekday
23690,"""CENTRAL NS DAGGETT""",41.889467,-71.347534,2396388,06:28:00,06:28:00,25,1,76,http://www.ripta.com/76,Weekday
23715,"""CENTRAL OPP FARNUM""",41.890122,-71.344859,2396388,06:29:00,06:29:00,26,1,76,http://www.ripta.com/76,Weekday
57665,"""BRADLEY NS BENEFIT""",41.891425,-71.344334,2396388,06:30:00,06:30:00,27,1,76,http://www.ripta.com/76,Weekday
60235,"""BENEFIT AT THURBER""",41.891577,-71.345995,2396388,06:30:00,06:30:00,28,1,76,http://www.ripta.com/76,Weekday
60235,"""BENEFIT AT THURBER""",41.891577,-71.345995,2396389,06:34:00,06:34:00,1,0,76,http://www.ripta.com/76,Weekday
23750,"""CENTRAL FS BRADLEY""",41.890344,-71.344476,2396389,06:35:00,06:35:00,2,0,76,http://www.ripta.com/76,Weekday
23735,"""CENTRAL NS CLARNER""",41.889855,-71.346532,2396389,06:36:00,06:36:00,3,0,76,http://www.ripta.com/76,Weekday
23705,"""CENTRAL NS DRAPER""",41.889245,-71.34907,2396389,06:36:00,06:36:00,4,0,76,http://www.ripta.com/76,Weekday
56335,"""CENTRAL FS CHASE""",41.888859,-71.350611,2396389,06:36:00,06:36:00,5,0,76,http://www.ripta.com/76,Weekday
23670,"""CENTRAL NS GRAND""",41.88852,-71.352024,2396389,06:37:00,06:37:00,6,0,76,http://www.ripta.com/76,Weekday
57680,"""CENTRAL NS NEWPORT""",41.888115,-71.353627,2396389,06:37:00,06:37:00,7,0,76,http://www.ripta.com/76,Weekday
23585,"""CENTRAL NS TWEED""",41.887476,-71.356493,2396389,06:38:00,06:38:00,8,0,76,http://www.ripta.com/76,Weekday
23545,"""CENTRAL NS MAKIN""",41.886854,-71.358979,2396389,06:38:00,06:38:00,9,0,76,http://www.ripta.com/76,Weekday
23505,"""CENTRAL NS HARDING""",41.886306,-71.361456,2396389,06:39:00,06:39:00,10,0,76,http://www.ripta.com/76,Weekday
23475,"""CENTRAL NS MENDON""",41.88568,-71.363992,2396389,06:39:00,06:39:00,11,0,76,http://www.ripta.com/76,Weekday
23450,"""CENTRAL BETWEEN FREEMAN & KENYON""",41.885408,-71.365929,2396389,06:40:00,06:40:00,12,0,76,http://www.ripta.com/76,Weekday
30175,"""STOP&SHOP (COTTAGE STREET - PAWTUCKET)""",41.888327,-71.367365,2396389,06:41:00,06:41:00,13,0,76,http://www.ripta.com/76,Weekday
57145,"""G BENNET FS CENTRAL""",41.884979,-71.366979,2396389,06:43:00,06:43:00,14,0,76,http://www.ripta.com/76,Weekday
23170,"""ARMISTICE FS GEORGE BENNETT""",41.880634,-71.366218,2396389,06:44:00,06:44:00,15,0,76,http://www.ripta.com/76,Weekday
23145,"""ARMISTICE OPP 209 ARMISTICE""",41.88025,-71.367845,2396389,06:44:00,06:44:00,16,0,76,http://www.ripta.com/76,Weekday
23050,"""ARMISTICE OPP SCHOFIELD""",41.879811,-71.36965,2396389,06:45:00,06:45:00,17,0,76,http://www.ripta.com/76,Weekday
23000,"""ARMISTICE OPP ASHTON""",41.879519,-71.370735,2396389,06:45:00,06:45:00,18,0,76,http://www.ripta.com/76,Weekday
22980,"""ARMISTICE NS N BEND""",41.8791,-71.372425,2396389,06:45:00,06:45:00,19,0,76,http://www.ripta.com/76,Weekday
57685,"""NORTH BEND NS WALCOTT""",41.878161,-71.37297,2396389,06:46:00,06:46:00,20,0,76,http://www.ripta.com/76,Weekday
57690,"""WALCOTT FS WALNUT""",41.877327,-71.375563,2396389,06:47:00,06:47:00,21,0,76,http://www.ripta.com/76,Weekday
22750,"""WALCOTT FS MAYNARD""",41.8772,-71.37626,2396389,06:47:00,06:47:00,22,0,76,http://www.ripta.com/76,Weekday
22725,"""WALCOTT FS GROVE""",41.87705,-71.37719,2396389,06:47:00,06:47:00,23,0,76,http://www.ripta.com/76,Weekday
56560,"""WALCOTT NS UNDERWOOD""",41.876971,-71.377645,2396389,06:47:00,06:47:00,24,0,76,http://www.ripta.com/76,Weekday
58040,"""UNDERWOOD FS WALCOTT""",41.877392,-71.378397,2396389,06:47:00,06:47:00,25,0,76,http://www.ripta.com/76,Weekday
58045,"""UNDERWOOD NS GROVE""",41.878526,-71.378151,2396389,06:48:00,06:48:00,26,0,76,http://www.ripta.com/76,Weekday
60080,"""EXCHANGE AT TOLMAN HIGH SCHOOL""",41.87982,-71.380381,2396389,06:49:00,06:49:00,27,0,76,http://www.ripta.com/76,Weekday
22765,"""PAWTUCKET TRANSIT CTR (TRANSIT CTR SIDE)""",41.877298,-71.383417,2396389,06:50:00,06:50:00,28,0,76,http://www.ripta.com/76,Weekday
22765,"""PAWTUCKET TRANSIT CTR (TRANSIT CTR SIDE)""",41.877298,-71.383417,2396392,07:45:00,07:45:00,1,1,76,http://www.ripta.com/76,Weekday
56275,"""MAIN NS WALCOTT""",41.875954,-71.380754,2396392,07:46:00,07:46:00,2,1,76,http://www.ripta.com/76,Weekday
22645,"""WALCOTT FS SUMMIT""",41.87663,-71.37902,2396392,07:47:00,07:47:00,3,1,76,http://www.ripta.com/76,Weekday
22670,"""WALCOTT NS ARLINGTON""",41.876934,-71.377349,2396392,07:47:00,07:47:00,4,1,76,http://www.ripta.com/76,Weekday
56495,"""WALCOTT NS MAYNARD""",41.877129,-71.37625,2396392,07:48:00,07:48:00,5,1,76,http://www.ripta.com/76,Weekday
56500,"""WALCOTT FS FRENCH""",41.877299,-71.375125,2396392,07:48:00,07:48:00,6,1,76,http://www.ripta.com/76,Weekday
56505,"""WALCOTT NS DENVER""",41.87749,-71.37428,2396392,07:48:00,07:48:00,7,1,76,http://www.ripta.com/76,Weekday
57670,"""WALCOTT NS NORTH BEND""",41.87767,-71.372897,2396392,07:49:00,07:49:00,8,1,76,http://www.ripta.com/76,Weekday
57675,"""NORTH BEND FS WALCOTT""",41.878109,-71.372851,2396392,07:49:00,07:49:00,9,1,76,http://www.ripta.com/76,Weekday
22981,"""ARMISTICE FS WALCOTT""",41.879033,-71.372465,2396392,07:49:00,07:49:00,10,1,76,http://www.ripta.com/76,Weekday
22995,"""ARMISTICE NS ASHTON""",41.879326,-71.371181,2396392,07:49:00,07:49:00,11,1,76,http://www.ripta.com/76,Weekday
23035,"""ARMISTICE FS SCHOEFIELD""",41.879768,-71.369401,2396392,07:50:00,07:50:00,12,1,76,http://www.ripta.com/76,Weekday
23090,"""ARMISTICE AT 209 ARMISTICE""",41.88002,-71.368329,2396392,07:50:00,07:50:00,13,1,76,http://www.ripta.com/76,Weekday
23165,"""ARMISTICE OPP 270 ARMISTICE""",41.880592,-71.365972,2396392,07:51:00,07:51:00,14,1,76,http://www.ripta.com/76,Weekday
57185,"""G BENNET NS CENTRAL""",41.885084,-71.366903,2396392,07:53:00,07:53:00,15,1,76,http://www.ripta.com/76,Weekday
30175,"""STOP&SHOP (COTTAGE STREET - PAWTUCKET)""",41.888327,-71.367365,2396392,07:54:00,07:54:00,16,1,76,http://www.ripta.com/76,Weekday
56311,"""CENTRAL FS FREEMAN""",41.885281,-71.366046,2396392,07:56:00,07:56:00,17,1,76,http://www.ripta.com/76,Weekday
56310,"""CENTRAL FS MENDON""",41.885529,-71.364033,2396392,07:56:00,07:56:00,18,1,76,http://www.ripta.com/76,Weekday
23470,"""CENTRAL NS YORK""",41.886124,-71.36156,2396392,07:56:00,07:56:00,19,1,76,http://www.ripta.com/76,Weekday
23460,"""CENTRAL FS TWEED""",41.887311,-71.356538,2396392,07:57:00,07:57:00,20,1,76,http://www.ripta.com/76,Weekday
23610,"""CENTRAL NS NEWPORT""",41.887832,-71.354455,2396392,07:58:00,07:58:00,21,1,76,http://www.ripta.com/76,Weekday
57660,"""CENTRAL FS NEWPORT""",41.888024,-71.353617,2396392,07:58:00,07:58:00,22,1,76,http://www.ripta.com/76,Weekday
23600,"""CENTRAL FS GRAND""",41.888413,-71.352052,2396392,07:59:00,07:59:00,23,1,76,http://www.ripta.com/76,Weekday
23655,"""CENTRAL NS LIVERPOOL""",41.888965,-71.349708,2396392,07:59:00,07:59:00,24,1,76,http://www.ripta.com/76,Weekday
23690,"""CENTRAL NS DAGGETT""",41.889467,-71.347534,2396392,08:00:00,08:00:00,25,1,76,http://www.ripta.com/76,Weekday
23715,"""CENTRAL OPP FARNUM""",41.890122,-71.344859,2396392,08:01:00,08:01:00,26,1,76,http://www.ripta.com/76,Weekday
57665,"""BRADLEY NS BENEFIT""",41.891425,-71.344334,2396392,08:01:00,08:01:00,27,1,76,http://www.ripta.com/76,Weekday
60235,"""BENEFIT AT THURBER""",41.891577,-71.345995,2396392,08:02:00,08:02:00,28,1,76,http://www.ripta.com/76,Weekday
60235,"""BENEFIT AT THURBER""",41.891577,-71.345995,2396393,08:04:00,08:04:00,1,0,76,http://www.ripta.com/76,Weekday
23750,"""CENTRAL FS BRADLEY""",41.890344,-71.344476,2396393,08:06:00,08:06:00,2,0,76,http://www.ripta.com/76,Weekday
23735,"""CENTRAL NS CLARNER""",41.889855,-71.346532,2396393,08:06:00,08:06:00,3,0,76,http://www.ripta.com/76,Weekday
23705,"""CENTRAL NS DRAPER""",41.889245,-71.34907,2396393,08:07:00,08:07:00,4,0,76,http://www.ripta.com/76,Weekday
56335,"""CENTRAL FS CHASE""",41.888859,-71.350611,2396393,08:07:00,08:07:00,5,0,76,http://www.ripta.com/76,Weekday
23670,"""CENTRAL NS GRAND""",41.88852,-71.352024,2396393,08:08:00,08:08:00,6,0,76,http://www.ripta.com/76,Weekday
57680,"""CENTRAL NS NEWPORT""",41.888115,-71.353627,2396393,08:08:00,08:08:00,7,0,76,http://www.ripta.com/76,Weekday
23585,"""CENTRAL NS TWEED""",41.887476,-71.356493,2396393,08:09:00,08:09:00,8,0,76,http://www.ripta.com/76,Weekday
23545,"""CENTRAL NS MAKIN""",41.886854,-71.358979,2396393,08:09:00,08:09:00,9,0,76,http://www.ripta.com/76,Weekday
23505,"""CENTRAL NS HARDING""",41.886306,-71.361456,2396393,08:10:00,08:10:00,10,0,76,http://www.ripta.com/76,Weekday
23475,"""CENTRAL NS MENDON""",41.88568,-71.363992,2396393,08:10:00,08:10:00,11,0,76,http://www.ripta.com/76,Weekday
23450,"""CENTRAL BETWEEN FREEMAN & KENYON""",41.885408,-71.365929,2396393,08:11:00,08:11:00,12,0,76,http://www.ripta.com/76,Weekday
30175,"""STOP&SHOP (COTTAGE STREET - PAWTUCKET)""",41.888327,-71.367365,2396393,08:12:00,08:12:00,13,0,76,http://www.ripta.com/76,Weekday
57145,"""G BENNET FS CENTRAL""",41.884979,-71.366979,2396393,08:14:00,08:14:00,14,0,76,http://www.ripta.com/76,Weekday
23170,"""ARMISTICE FS GEORGE BENNETT""",41.880634,-71.366218,2396393,08:15:00,08:15:00,15,0,76,http://www.ripta.com/76,Weekday
23145,"""ARMISTICE OPP 209 ARMISTICE""",41.88025,-71.367845,2396393,08:15:00,08:15:00,16,0,76,http://www.ripta.com/76,Weekday
23050,"""ARMISTICE OPP SCHOFIELD""",41.879811,-71.36965,2396393,08:16:00,08:16:00,17,0,76,http://www.ripta.com/76,Weekday
23000,"""ARMISTICE OPP ASHTON""",41.879519,-71.370735,2396393,08:16:00,08:16:00,18,0,76,http://www.ripta.com/76,Weekday
22980,"""ARMISTICE NS N BEND""",41.8791,-71.372425,2396393,08:17:00,08:17:00,19,0,76,http://www.ripta.com/76,Weekday
57685,"""NORTH BEND NS WALCOTT""",41.878161,-71.37297,2396393,08:17:00,08:17:00,20,0,76,http://www.ripta.com/76,Weekday
57690,"""WALCOTT FS WALNUT""",41.877327,-71.375563,2396393,08:18:00,08:18:00,21,0,76,http://www.ripta.com/76,Weekday
22750,"""WALCOTT FS MAYNARD""",41.8772,-71.37626,2396393,08:18:00,08:18:00,22,0,76,http://www.ripta.com/76,Weekday
22725,"""WALCOTT FS GROVE""",41.87705,-71.37719,2396393,08:18:00,08:18:00,23,0,76,http://www.ripta.com/76,Weekday
56560,"""WALCOTT NS UNDERWOOD""",41.876971,-71.377645,2396393,08:19:00,08:19:00,24,0,76,http://www.ripta.com/76,Weekday
58040,"""UNDERWOOD FS WALCOTT""",41.877392,-71.378397,2396393,08:19:00,08:19:00,25,0,76,http://www.ripta.com/76,Weekday
58045,"""UNDERWOOD NS GROVE""",41.878526,-71.378151,2396393,08:19:00,08:19:00,26,0,76,http://www.ripta.com/76,Weekday
60080,"""EXCHANGE AT TOLMAN HIGH SCHOOL""",41.87982,-71.380381,2396393,08:20:00,08:20:00,27,0,76,http://www.ripta.com/76,Weekday
22765,"""PAWTUCKET TRANSIT CTR (TRANSIT CTR SIDE)""",41.877298,-71.383417,2396393,08:22:00,08:22:00,28,0,76,http://www.ripta.com/76,Weekday
22765,"""PAWTUCKET TRANSIT CTR (TRANSIT CTR SIDE)""",41.877298,-71.383417,2396396,09:15:00,09:15:00,1,1,76,http://www.ripta.com/76,Weekday
56275,"""MAIN NS WALCOTT""",41.875954,-71.380754,2396396,09:16:00,09:16:00,2,1,76,http://www.ripta.com/76,Weekday
22645,"""WALCOTT FS SUMMIT""",41.87663,-71.37902,2396396,09:17:00,09:17:00,3,1,76,http://www.ripta.com/76,Weekday
22670,"""WALCOTT NS ARLINGTON""",41.876934,-71.377349,2396396,09:17:00,09:17:00,4,1,76,http://www.ripta.com/76,Weekday
56495,"""WALCOTT NS MAYNARD""",41.877129,-71.37625,2396396,09:18:00,09:18:00,5,1,76,http://www.ripta.com/76,Weekday
56500,"""WALCOTT FS FRENCH""",41.877299,-71.375125,2396396,09:18:00,09:18:00,6,1,76,http://www.ripta.com/76,Weekday
56505,"""WALCOTT NS DENVER""",41.87749,-71.37428,2396396,09:18:00,09:18:00,7,1,76,http://www.ripta.com/76,Weekday
57670,"""WALCOTT NS NORTH BEND""",41.87767,-71.372897,2396396,09:19:00,09:19:00,8,1,76,http://www.ripta.com/76,Weekday
57675,"""NORTH BEND FS WALCOTT""",41.878109,-71.372851,2396396,09:19:00,09:19:00,9,1,76,http://www.ripta.com/76,Weekday
22981,"""ARMISTICE FS WALCOTT""",41.879033,-71.372465,2396396,09:19:00,09:19:00,10,1,76,http://www.ripta.com/76,Weekday
22995,"""ARMISTICE NS ASHTON""",41.879326,-71.371181,2396396,09:19:00,09:19:00,11,1,76,http://www.ripta.com/76,Weekday
23035,"""ARMISTICE FS SCHOEFIELD""",41.879768,-71.369401,2396396,09:20:00,09:20:00,12,1,76,http://www.ripta.com/76,Weekday
23090,"""ARMISTICE AT 209 ARMISTICE""",41.88002,-71.368329,2396396,09:20:00,09:20:00,13,1,76,http://www.ripta.com/76,Weekday
23165,"""ARMISTICE OPP 270 ARMISTICE""",41.880592,-71.365972,2396396,09:21:00,09:21:00,14,1,76,http://www.ripta.com/76,Weekday
57185,"""G BENNET NS CENTRAL""",41.885084,-71.366903,2396396,09:23:00,09:23:00,15,1,76,http://www.ripta.com/76,Weekday
30175,"""STOP&SHOP (COTTAGE STREET - PAWTUCKET)""",41.888327,-71.367365,2396396,09:24:00,09:24:00,16,1,76,http://www.ripta.com/76,Weekday
56311,"""CENTRAL FS FREEMAN""",41.885281,-71.366046,2396396,09:26:00,09:26:00,17,1,76,http://www.ripta.com/76,Weekday
56310,"""CENTRAL FS MENDON""",41.885529,-71.364033,2396396,09:26:00,09:26:00,18,1,76,http://www.ripta.com/76,Weekday
23470,"""CENTRAL NS YORK""",41.886124,-71.36156,2396396,09:26:00,09:26:00,19,1,76,http://www.ripta.com/76,Weekday
23460,"""CENTRAL FS TWEED""",41.887311,-71.356538,2396396,09:27:00,09:27:00,20,1,76,http://www.ripta.com/76,Weekday
23610,"""CENTRAL NS NEWPORT""",41.887832,-71.354455,2396396,09:28:00,09:28:00,21,1,76,http://www.ripta.com/76,Weekday
57660,"""CENTRAL FS NEWPORT""",41.888024,-71.353617,2396396,09:28:00,09:28:00,22,1,76,http://www.ripta.com/76,Weekday
23600,"""CENTRAL FS GRAND""",41.888413,-71.352052,2396396,09:29:00,09:29:00,23,1,76,http://www.ripta.com/76,Weekday
23655,"""CENTRAL NS LIVERPOOL""",41.888965,-71.349708,2396396,09:29:00,09:29:00,24,1,76,http://www.ripta.com/76,Weekday
23690,"""CENTRAL NS DAGGETT""",41.889467,-71.347534,2396396,09:30:00,09:30:00,25,1,76,http://www.ripta.com/76,Weekday
23715,"""CENTRAL OPP FARNUM""",41.890122,-71.344859,2396396,09:31:00,09:31:00,26,1,76,http://www.ripta.com/76,Weekday
57665,"""BRADLEY NS BENEFIT""",41.891425,-71.344334,2396396,09:31:00,09:31:00,27,1,76,http://www.ripta.com/76,Weekday
60235,"""BENEFIT AT THURBER""",41.891577,-71.345995,2396396,09:32:00,09:32:00,28,1,76,http://www.ripta.com/76,Weekday
60235,"""BENEFIT AT THURBER""",41.891577,-71.345995,2396397,09:34:00,09:34:00,1,0,76,http://www.ripta.com/76,Weekday
23750,"""CENTRAL FS BRADLEY""",41.890344,-71.344476,2396397,09:36:00,09:36:00,2,0,76,http://www.ripta.com/76,Weekday
23735,"""CENTRAL NS CLARNER""",41.889855,-71.346532,2396397,09:36:00,09:36:00,3,0,76,http://www.ripta.com/76,Weekday
23705,"""CENTRAL NS DRAPER""",41.889245,-71.34907,2396397,09:37:00,09:37:00,4,0,76,http://www.ripta.com/76,Weekday
56335,"""CENTRAL FS CHASE""",41.888859,-71.350611,2396397,09:37:00,09:37:00,5,0,76,http://www.ripta.com/76,Weekday
23670,"""CENTRAL NS GRAND""",41.88852,-71.352024,2396397,09:38:00,09:38:00,6,0,76,http://www.ripta.com/76,Weekday
57680,"""CENTRAL NS NEWPORT""",41.888115,-71.353627,2396397,09:38:00,09:38:00,7,0,76,http://www.ripta.com/76,Weekday
23585,"""CENTRAL NS TWEED""",41.887476,-71.356493,2396397,09:39:00,09:39:00,8,0,76,http://www.ripta.com/76,Weekday
23545,"""CENTRAL NS MAKIN""",41.886854,-71.358979,2396397,09:39:00,09:39:00,9,0,76,http://www.ripta.com/76,Weekday
23505,"""CENTRAL NS HARDING""",41.886306,-71.361456,2396397,09:40:00,09:40:00,10,0,76,http://www.ripta.com/76,Weekday
23475,"""CENTRAL NS MENDON""",41.88568,-71.363992,2396397,09:40:00,09:40:00,11,0,76,http://www.ripta.com/76,Weekday
23450,"""CENTRAL BETWEEN FREEMAN & KENYON""",41.885408,-71.365929,2396397,09:41:00,09:41:00,12,0,76,http://www.ripta.com/76,Weekday
30175,"""STOP&SHOP (COTTAGE STREET - PAWTUCKET)""",41.888327,-71.367365,2396397,09:42:00,09:42:00,13,0,76,http://www.ripta.com/76,Weekday
57145,"""G BENNET FS CENTRAL""",41.884979,-71.366979,2396397,09:44:00,09:44:00,14,0,76,http://www.ripta.com/76,Weekday
23170,"""ARMISTICE FS GEORGE BENNETT""",41.880634,-71.366218,2396397,09:45:00,09:45:00,15,0,76,http://www.ripta.com/76,Weekday
23145,"""ARMISTICE OPP 209 ARMISTICE""",41.88025,-71.367845,2396397,09:45:00,09:45:00,16,0,76,http://www.ripta.com/76,Weekday
23050,"""ARMISTICE OPP SCHOFIELD""",41.879811,-71.36965,2396397,09:46:00,09:46:00,17,0,76,http://www.ripta.com/76,Weekday
23000,"""ARMISTICE OPP ASHTON""",41.879519,-71.370735,2396397,09:46:00,09:46:00,18,0,76,http://www.ripta.com/76,Weekday
22980,"""ARMISTICE NS N BEND""",41.8791,-71.372425,2396397,09:47:00,09:47:00,19,0,76,http://www.ripta.com/76,Weekday
57685,"""NORTH BEND NS WALCOTT""",41.878161,-71.37297,2396397,09:47:00,09:47:00,20,0,76,http://www.ripta.com/76,Weekday
57690,"""WALCOTT FS WALNUT""",41.877327,-71.375563,2396397,09:48:00,09:48:00,21,0,76,http://www.ripta.com/76,Weekday
22750,"""WALCOTT FS MAYNARD""",41.8772,-71.37626,2396397,09:48:00,09:48:00,22,0,76,http://www.ripta.com/76,Weekday
22725,"""WALCOTT FS GROVE""",41.87705,-71.37719,2396397,09:48:00,09:48:00,23,0,76,http://www.ripta.com/76,Weekday
56560,"""WALCOTT NS UNDERWOOD""",41.876971,-71.377645,2396397,09:49:00,09:49:00,24,0,76,http://www.ripta.com/76,Weekday
58040,"""UNDERWOOD FS WALCOTT""",41.877392,-71.378397,2396397,09:49:00,09:49:00,25,0,76,http://www.ripta.com/76,Weekday
58045,"""UNDERWOOD NS GROVE""",41.878526,-71.378151,2396397,09:49:00,09:49:00,26,0,76,http://www.ripta.com/76,Weekday
60080,"""EXCHANGE AT TOLMAN HIGH SCHOOL""",41.87982,-71.380381,2396397,09:50:00,09:50:00,27,0,76,http://www.ripta.com/76,Weekday
22765,"""PAWTUCKET TRANSIT CTR (TRANSIT CTR SIDE)""",41.877298,-71.383417,2396397,09:52:00,09:52:00,28,0,76,http://www.ripta.com/76,Weekday
22765,"""PAWTUCKET TRANSIT CTR (TRANSIT CTR SIDE)""",41.877298,-71.383417,2396400,10:45:00,10:45:00,1,1,76,http://www.ripta.com/76,Weekday
56275,"""MAIN NS WALCOTT""",41.875954,-71.380754,2396400,10:46:00,10:46:00,2,1,76,http://www.ripta.com/76,Weekday
22645,"""WALCOTT FS SUMMIT""",41.87663,-71.37902,2396400,10:47:00,10:47:00,3,1,76,http://www.ripta.com/76,Weekday
22670,"""WALCOTT NS ARLINGTON""",41.876934,-71.377349,2396400,10:47:00,10:47:00,4,1,76,http://www.ripta.com/76,Weekday
56495,"""WALCOTT NS MAYNARD""",41.877129,-71.37625,2396400,10:48:00,10:48:00,5,1,76,http://www.ripta.com/76,Weekday
56500,"""WALCOTT FS FRENCH""",41.877299,-71.375125,2396400,10:48:00,10:48:00,6,1,76,http://www.ripta.com/76,Weekday
56505,"""WALCOTT NS DENVER""",41.87749,-71.37428,2396400,10:48:00,10:48:00,7,1,76,http://www.ripta.com/76,Weekday
57670,"""WALCOTT NS NORTH BEND""",41.87767,-71.372897,2396400,10:49:00,10:49:00,8,1,76,http://www.ripta.com/76,Weekday
57675,"""NORTH BEND FS WALCOTT""",41.878109,-71.372851,2396400,10:49:00,10:49:00,9,1,76,http://www.ripta.com/76,Weekday
22981,"""ARMISTICE FS WALCOTT""",41.879033,-71.372465,2396400,10:49:00,10:49:00,10,1,76,http://www.ripta.com/76,Weekday
22995,"""ARMISTICE NS ASHTON""",41.879326,-71.371181,2396400,10:49:00,10:49:00,11,1,76,http://www.ripta.com/76,Weekday
23035,"""ARMISTICE FS SCHOEFIELD""",41.879768,-71.369401,2396400,10:50:00,10:50:00,12,1,76,http://www.ripta.com/76,Weekday
23090,"""ARMISTICE AT 209 ARMISTICE""",41.88002,-71.368329,2396400,10:50:00,10:50:00,13,1,76,http://www.ripta.com/76,Weekday
23165,"""ARMISTICE OPP 270 ARMISTICE""",41.880592,-71.365972,2396400,10:51:00,10:51:00,14,1,76,http://www.ripta.com/76,Weekday
57185,"""G BENNET NS CENTRAL""",41.885084,-71.366903,2396400,10:53:00,10:53:00,15,1,76,http://www.ripta.com/76,Weekday
30175,"""STOP&SHOP (COTTAGE STREET - PAWTUCKET)""",41.888327,-71.367365,2396400,10:54:00,10:54:00,16,1,76,http://www.ripta.com/76,Weekday
56311,"""CENTRAL FS FREEMAN""",41.885281,-71.366046,2396400,10:56:00,10:56:00,17,1,76,http://www.ripta.com/76,Weekday
56310,"""CENTRAL FS MENDON""",41.885529,-71.364033,2396400,10:56:00,10:56:00,18,1,76,http://www.ripta.com/76,Weekday
23470,"""CENTRAL NS YORK""",41.886124,-71.36156,2396400,10:56:00,10:56:00,19,1,76,http://www.ripta.com/76,Weekday
23460,"""CENTRAL FS TWEED""",41.887311,-71.356538,2396400,10:57:00,10:57:00,20,1,76,http://www.ripta.com/76,Weekday
23610,"""CENTRAL NS NEWPORT""",41.887832,-71.354455,2396400,10:58:00,10:58:00,21,1,76,http://www.ripta.com/76,Weekday
57660,"""CENTRAL FS NEWPORT""",41.888024,-71.353617,2396400,10:58:00,10:58:00,22,1,76,http://www.ripta.com/76,Weekday
23600,"""CENTRAL FS GRAND""",41.888413,-71.352052,2396400,10:59:00,10:59:00,23,1,76,http://www.ripta.com/76,Weekday
23655,"""CENTRAL NS LIVERPOOL""",41.888965,-71.349708,2396400,10:59:00,10:59:00,24,1,76,http://www.ripta.com/76,Weekday
23690,"""CENTRAL NS DAGGETT""",41.889467,-71.347534,2396400,11:00:00,11:00:00,25,1,76,http://www.ripta.com/76,Weekday
23715,"""CENTRAL OPP FARNUM""",41.890122,-71.344859,2396400,11:01:00,11:01:00,26,1,76,http://www.ripta.com/76,Weekday
57665,"""BRADLEY NS BENEFIT""",41.891425,-71.344334,2396400,11:01:00,11:01:00,27,1,76,http://www.ripta.com/76,Weekday
60235,"""BENEFIT AT THURBER""",41.891577,-71.345995,2396400,11:02:00,11:02:00,28,1,76,http://www.ripta.com/76,Weekday
60235,"""BENEFIT AT THURBER""",41.891577,-71.345995,2396401,11:04:00,11:04:00,1,0,76,http://www.ripta.com/76,Weekday
23750,"""CENTRAL FS BRADLEY""",41.890344,-71.344476,2396401,11:06:00,11:06:00,2,0,76,http://www.ripta.com/76,Weekday
23735,"""CENTRAL NS CLARNER""",41.889855,-71.346532,2396401,11:06:00,11:06:00,3,0,76,http://www.ripta.com/76,Weekday
23705,"""CENTRAL NS DRAPER""",41.889245,-71.34907,2396401,11:07:00,11:07:00,4,0,76,http://www.ripta.com/76,Weekday
56335,"""CENTRAL FS CHASE""",41.888859,-71.350611,2396401,11:07:00,11:07:00,5,0,76,http://www.ripta.com/76,Weekday
23670,"""CENTRAL NS GRAND""",41.88852,-71.352024,2396401,11:08:00,11:08:00,6,0,76,http://www.ripta.com/76,Weekday
57680,"""CENTRAL NS NEWPORT""",41.888115,-71.353627,2396401,11:08:00,11:08:00,7,0,76,http://www.ripta.com/76,Weekday
23585,"""CENTRAL NS TWEED""",41.887476,-71.356493,2396401,11:09:00,11:09:00,8,0,76,http://www.ripta.com/76,Weekday
23545,"""CENTRAL NS MAKIN""",41.886854,-71.358979,2396401,11:09:00,11:09:00,9,0,76,http://www.ripta.com/76,Weekday
23505,"""CENTRAL NS HARDING""",41.886306,-71.361456,2396401,11:10:00,11:10:00,10,0,76,http://www.ripta.com/76,Weekday
23475,"""CENTRAL NS MENDON""",41.88568,-71.363992,2396401,11:10:00,11:10:00,11,0,76,http://www.ripta.com/76,Weekday
23450,"""CENTRAL BETWEEN FREEMAN & KENYON""",41.885408,-71.365929,2396401,11:11:00,11:11:00,12,0,76,http://www.ripta.com/76,Weekday
30175,"""STOP&SHOP (COTTAGE STREET - PAWTUCKET)""",41.888327,-71.367365,2396401,11:12:00,11:12:00,13,0,76,http://www.ripta.com/76,Weekday
57145,"""G BENNET FS CENTRAL""",41.884979,-71.366979,2396401,11:14:00,11:14:00,14,0,76,http://www.ripta.com/76,Weekday
23170,"""ARMISTICE FS GEORGE BENNETT""",41.880634,-71.366218,2396401,11:15:00,11:15:00,15,0,76,http://www.ripta.com/76,Weekday
23145,"""ARMISTICE OPP 209 ARMISTICE""",41.88025,-71.367845,2396401,11:15:00,11:15:00,16,0,76,http://www.ripta.com/76,Weekday
23050,"""ARMISTICE OPP SCHOFIELD""",41.879811,-71.36965,2396401,11:16:00,11:16:00,17,0,76,http://www.ripta.com/76,Weekday
23000,"""ARMISTICE OPP ASHTON""",41.879519,-71.370735,2396401,11:16:00,11:16:00,18,0,76,http://www.ripta.com/76,Weekday
22980,"""ARMISTICE NS N BEND""",41.8791,-71.372425,2396401,11:17:00,11:17:00,19,0,76,http://www.ripta.com/76,Weekday
57685,"""NORTH BEND NS WALCOTT""",41.878161,-71.37297,2396401,11:17:00,11:17:00,20,0,76,http://www.ripta.com/76,Weekday
57690,"""WALCOTT FS WALNUT""",41.877327,-71.375563,2396401,11:18:00,11:18:00,21,0,76,http://www.ripta.com/76,Weekday
22750,"""WALCOTT FS MAYNARD""",41.8772,-71.37626,2396401,11:18:00,11:18:00,22,0,76,http://www.ripta.com/76,Weekday
22725,"""WALCOTT FS GROVE""",41.87705,-71.37719,2396401,11:18:00,11:18:00,23,0,76,http://www.ripta.com/76,Weekday
56560,"""WALCOTT NS UNDERWOOD""",41.876971,-71.377645,2396401,11:19:00,11:19:00,24,0,76,http://www.ripta.com/76,Weekday
58040,"""UNDERWOOD FS WALCOTT""",41.877392,-71.378397,2396401,11:19:00,11:19:00,25,0,76,http://www.ripta.com/76,Weekday
58045,"""UNDERWOOD NS GROVE""",41.878526,-71.378151,2396401,11:19:00,11:19:00,26,0,76,http://www.ripta.com/76,Weekday
60080,"""EXCHANGE AT TOLMAN HIGH SCHOOL""",41.87982,-71.380381,2396401,11:20:00,11:20:00,27,0,76,http://www.ripta.com/76,Weekday
22765,"""PAWTUCKET TRANSIT CTR (TRANSIT CTR SIDE)""",41.877298,-71.383417,2396401,11:22:00,11:22:00,28,0,76,http://www.ripta.com/76,Weekday
22765,"""PAWTUCKET TRANSIT CTR (TRANSIT CTR SIDE)""",41.877298,-71.383417,2396404,12:15:00,12:15:00,1,1,76,http://www.ripta.com/76,Weekday
56275,"""MAIN NS WALCOTT""",41.875954,-71.380754,2396404,12:16:00,12:16:00,2,1,76,http://www.ripta.com/76,Weekday
22645,"""WALCOTT FS SUMMIT""",41.87663,-71.37902,2396404,12:17:00,12:17:00,3,1,76,http://www.ripta.com/76,Weekday
22670,"""WALCOTT NS ARLINGTON""",41.876934,-71.377349,2396404,12:17:00,12:17:00,4,1,76,http://www.ripta.com/76,Weekday
56495,"""WALCOTT NS MAYNARD""",41.877129,-71.37625,2396404,12:18:00,12:18:00,5,1,76,http://www.ripta.com/76,Weekday
56500,"""WALCOTT FS FRENCH""",41.877299,-71.375125,2396404,12:18:00,12:18:00,6,1,76,http://www.ripta.com/76,Weekday
56505,"""WALCOTT NS DENVER""",41.87749,-71.37428,2396404,12:18:00,12:18:00,7,1,76,http://www.ripta.com/76,Weekday
57670,"""WALCOTT NS NORTH BEND""",41.87767,-71.372897,2396404,12:19:00,12:19:00,8,1,76,http://www.ripta.com/76,Weekday
57675,"""NORTH BEND FS WALCOTT""",41.878109,-71.372851,2396404,12:19:00,12:19:00,9,1,76,http://www.ripta.com/76,Weekday
22981,"""ARMISTICE FS WALCOTT""",41.879033,-71.372465,2396404,12:19:00,12:19:00,10,1,76,http://www.ripta.com/76,Weekday
22995,"""ARMISTICE NS ASHTON""",41.879326,-71.371181,2396404,12:19:00,12:19:00,11,1,76,http://www.ripta.com/76,Weekday
23035,"""ARMISTICE FS SCHOEFIELD""",41.879768,-71.369401,2396404,12:20:00,12:20:00,12,1,76,http://www.ripta.com/76,Weekday
23090,"""ARMISTICE AT 209 ARMISTICE""",41.88002,-71.368329,2396404,12:20:00,12:20:00,13,1,76,http://www.ripta.com/76,Weekday
23165,"""ARMISTICE OPP 270 ARMISTICE""",41.880592,-71.365972,2396404,12:21:00,12:21:00,14,1,76,http://www.ripta.com/76,Weekday
57185,"""G BENNET NS CENTRAL""",41.885084,-71.366903,2396404,12:23:00,12:23:00,15,1,76,http://www.ripta.com/76,Weekday
30175,"""STOP&SHOP (COTTAGE STREET - PAWTUCKET)""",41.888327,-71.367365,2396404,12:24:00,12:24:00,16,1,76,http://www.ripta.com/76,Weekday
56311,"""CENTRAL FS FREEMAN""",41.885281,-71.366046,2396404,12:26:00,12:26:00,17,1,76,http://www.ripta.com/76,Weekday
56310,"""CENTRAL FS MENDON""",41.885529,-71.364033,2396404,12:26:00,12:26:00,18,1,76,http://www.ripta.com/76,Weekday
23470,"""CENTRAL NS YORK""",41.886124,-71.36156,2396404,12:26:00,12:26:00,19,1,76,http://www.ripta.com/76,Weekday
23460,"""CENTRAL FS TWEED""",41.887311,-71.356538,2396404,12:27:00,12:27:00,20,1,76,http://www.ripta.com/76,Weekday
23610,"""CENTRAL NS NEWPORT""",41.887832,-71.354455,2396404,12:28:00,12:28:00,21,1,76,http://www.ripta.com/76,Weekday
57660,"""CENTRAL FS NEWPORT""",41.888024,-71.353617,2396404,12:28:00,12:28:00,22,1,76,http://www.ripta.com/76,Weekday
23600,"""CENTRAL FS GRAND""",41.888413,-71.352052,2396404,12:29:00,12:29:00,23,1,76,http://www.ripta.com/76,Weekday
23655,"""CENTRAL NS LIVERPOOL""",41.888965,-71.349708,2396404,12:29:00,12:29:00,24,1,76,http://www.ripta.com/76,Weekday
23690,"""CENTRAL NS DAGGETT""",41.889467,-71.347534,2396404,12:30:00,12:30:00,25,1,76,http://www.ripta.com/76,Weekday
23715,"""CENTRAL OPP FARNUM""",41.890122,-71.344859,2396404,12:31:00,12:31:00,26,1,76,http://www.ripta.com/76,Weekday
57665,"""BRADLEY NS BENEFIT""",41.891425,-71.344334,2396404,12:31:00,12:31:00,27,1,76,http://www.ripta.com/76,Weekday
60235,"""BENEFIT AT THURBER""",41.891577,-71.345995,2396404,12:32:00,12:32:00,28,1,76,http://www.ripta.com/76,Weekday
60235,"""BENEFIT AT THURBER""",41.891577,-71.345995,2396405,12:34:00,12:34:00,1,0,76,http://www.ripta.com/76,Weekday
23750,"""CENTRAL FS BRADLEY""",41.890344,-71.344476,2396405,12:36:00,12:36:00,2,0,76,http://www.ripta.com/76,Weekday
23735,"""CENTRAL NS CLARNER""",41.889855,-71.346532,2396405,12:36:00,12:36:00,3,0,76,http://www.ripta.com/76,Weekday
23705,"""CENTRAL NS DRAPER""",41.889245,-71.34907,2396405,12:37:00,12:37:00,4,0,76,http://www.ripta.com/76,Weekday
56335,"""CENTRAL FS CHASE""",41.888859,-71.350611,2396405,12:37:00,12:37:00,5,0,76,http://www.ripta.com/76,Weekday
23670,"""CENTRAL NS GRAND""",41.88852,-71.352024,2396405,12:38:00,12:38:00,6,0,76,http://www.ripta.com/76,Weekday
57680,"""CENTRAL NS NEWPORT""",41.888115,-71.353627,2396405,12:38:00,12:38:00,7,0,76,http://www.ripta.com/76,Weekday
23585,"""CENTRAL NS TWEED""",41.887476,-71.356493,2396405,12:39:00,12:39:00,8,0,76,http://www.ripta.com/76,Weekday
23545,"""CENTRAL NS MAKIN""",41.886854,-71.358979,2396405,12:39:00,12:39:00,9,0,76,http://www.ripta.com/76,Weekday
23505,"""CENTRAL NS HARDING""",41.886306,-71.361456,2396405,12:40:00,12:40:00,10,0,76,http://www.ripta.com/76,Weekday
23475,"""CENTRAL NS MENDON""",41.88568,-71.363992,2396405,12:40:00,12:40:00,11,0,76,http://www.ripta.com/76,Weekday
23450,"""CENTRAL BETWEEN FREEMAN & KENYON""",41.885408,-71.365929,2396405,12:41:00,12:41:00,12,0,76,http://www.ripta.com/76,Weekday
30175,"""STOP&SHOP (COTTAGE STREET - PAWTUCKET)""",41.888327,-71.367365,2396405,12:42:00,12:42:00,13,0,76,http://www.ripta.com/76,Weekday
57145,"""G BENNET FS CENTRAL""",41.884979,-71.366979,2396405,12:44:00,12:44:00,14,0,76,http://www.ripta.com/76,Weekday
23170,"""ARMISTICE FS GEORGE BENNETT""",41.880634,-71.366218,2396405,12:45:00,12:45:00,15,0,76,http://www.ripta.com/76,Weekday
23145,"""ARMISTICE OPP 209 ARMISTICE""",41.88025,-71.367845,2396405,12:45:00,12:45:00,16,0,76,http://www.ripta.com/76,Weekday
23050,"""ARMISTICE OPP SCHOFIELD""",41.879811,-71.36965,2396405,12:46:00,12:46:00,17,0,76,http://www.ripta.com/76,Weekday
23000,"""ARMISTICE OPP ASHTON""",41.879519,-71.370735,2396405,12:46:00,12:46:00,18,0,76,http://www.ripta.com/76,Weekday
22980,"""ARMISTICE NS N BEND""",41.8791,-71.372425,2396405,12:47:00,12:47:00,19,0,76,http://www.ripta.com/76,Weekday
57685,"""NORTH BEND NS WALCOTT""",41.878161,-71.37297,2396405,12:47:00,12:47:00,20,0,76,http://www.ripta.com/76,Weekday
57690,"""WALCOTT FS WALNUT""",41.877327,-71.375563,2396405,12:48:00,12:48:00,21,0,76,http://www.ripta.com/76,Weekday
22750,"""WALCOTT FS MAYNARD""",41.8772,-71.37626,2396405,12:48:00,12:48:00,22,0,76,http://www.ripta.com/76,Weekday
22725,"""WALCOTT FS GROVE""",41.87705,-71.37719,2396405,12:48:00,12:48:00,23,0,76,http://www.ripta.com/76,Weekday
56560,"""WALCOTT NS UNDERWOOD""",41.876971,-71.377645,2396405,12:49:00,12:49:00,24,0,76,http://www.ripta.com/76,Weekday
58040,"""UNDERWOOD FS WALCOTT""",41.877392,-71.378397,2396405,12:49:00,12:49:00,25,0,76,http://www.ripta.com/76,Weekday
58045,"""UNDERWOOD NS GROVE""",41.878526,-71.378151,2396405,12:49:00,12:49:00,26,0,76,http://www.ripta.com/76,Weekday
60080,"""EXCHANGE AT TOLMAN HIGH SCHOOL""",41.87982,-71.380381,2396405,12:50:00,12:50:00,27,0,76,http://www.ripta.com/76,Weekday
22765,"""PAWTUCKET TRANSIT CTR (TRANSIT CTR SIDE)""",41.877298,-71.383417,2396405,12:52:00,12:52:00,28,0,76,http://www.ripta.com/76,Weekday
22765,"""PAWTUCKET TRANSIT CTR (TRANSIT CTR SIDE)""",41.877298,-71.383417,2396408,13:45:00,13:45:00,1,1,76,http://www.ripta.com/76,Weekday
56275,"""MAIN NS WALCOTT""",41.875954,-71.380754,2396408,13:46:00,13:46:00,2,1,76,http://www.ripta.com/76,Weekday
22645,"""WALCOTT FS SUMMIT""",41.87663,-71.37902,2396408,13:47:00,13:47:00,3,1,76,http://www.ripta.com/76,Weekday
22670,"""WALCOTT NS ARLINGTON""",41.876934,-71.377349,2396408,13:47:00,13:47:00,4,1,76,http://www.ripta.com/76,Weekday
56495,"""WALCOTT NS MAYNARD""",41.877129,-71.37625,2396408,13:48:00,13:48:00,5,1,76,http://www.ripta.com/76,Weekday
56500,"""WALCOTT FS FRENCH""",41.877299,-71.375125,2396408,13:48:00,13:48:00,6,1,76,http://www.ripta.com/76,Weekday
56505,"""WALCOTT NS DENVER""",41.87749,-71.37428,2396408,13:48:00,13:48:00,7,1,76,http://www.ripta.com/76,Weekday
57670,"""WALCOTT NS NORTH BEND""",41.87767,-71.372897,2396408,13:49:00,13:49:00,8,1,76,http://www.ripta.com/76,Weekday
57675,"""NORTH BEND FS WALCOTT""",41.878109,-71.372851,2396408,13:49:00,13:49:00,9,1,76,http://www.ripta.com/76,Weekday
22981,"""ARMISTICE FS WALCOTT""",41.879033,-71.372465,2396408,13:49:00,13:49:00,10,1,76,http://www.ripta.com/76,Weekday
22995,"""ARMISTICE NS ASHTON""",41.879326,-71.371181,2396408,13:49:00,13:49:00,11,1,76,http://www.ripta.com/76,Weekday
23035,"""ARMISTICE FS SCHOEFIELD""",41.879768,-71.369401,2396408,13:50:00,13:50:00,12,1,76,http://www.ripta.com/76,Weekday
23090,"""ARMISTICE AT 209 ARMISTICE""",41.88002,-71.368329,2396408,13:50:00,13:50:00,13,1,76,http://www.ripta.com/76,Weekday
23165,"""ARMISTICE OPP 270 ARMISTICE""",41.880592,-71.365972,2396408,13:51:00,13:51:00,14,1,76,http://www.ripta.com/76,Weekday
57185,"""G BENNET NS CENTRAL""",41.885084,-71.366903,2396408,13:53:00,13:53:00,15,1,76,http://www.ripta.com/76,Weekday
30175,"""STOP&SHOP (COTTAGE STREET - PAWTUCKET)""",41.888327,-71.367365,2396408,13:54:00,13:54:00,16,1,76,http://www.ripta.com/76,Weekday
56311,"""CENTRAL FS FREEMAN""",41.885281,-71.366046,2396408,13:56:00,13:56:00,17,1,76,http://www.ripta.com/76,Weekday
56310,"""CENTRAL FS MENDON""",41.885529,-71.364033,2396408,13:56:00,13:56:00,18,1,76,http://www.ripta.com/76,Weekday
23470,"""CENTRAL NS YORK""",41.886124,-71.36156,2396408,13:56:00,13:56:00,19,1,76,http://www.ripta.com/76,Weekday
23460,"""CENTRAL FS TWEED""",41.887311,-71.356538,2396408,13:57:00,13:57:00,20,1,76,http://www.ripta.com/76,Weekday
23610,"""CENTRAL NS NEWPORT""",41.887832,-71.354455,2396408,13:58:00,13:58:00,21,1,76,http://www.ripta.com/76,Weekday
57660,"""CENTRAL FS NEWPORT""",41.888024,-71.353617,2396408,13:58:00,13:58:00,22,1,76,http://www.ripta.com/76,Weekday
23600,"""CENTRAL FS GRAND""",41.888413,-71.352052,2396408,13:59:00,13:59:00,23,1,76,http://www.ripta.com/76,Weekday
23655,"""CENTRAL NS LIVERPOOL""",41.888965,-71.349708,2396408,13:59:00,13:59:00,24,1,76,http://www.ripta.com/76,Weekday
23690,"""CENTRAL NS DAGGETT""",41.889467,-71.347534,2396408,14:00:00,14:00:00,25,1,76,http://www.ripta.com/76,Weekday
23715,"""CENTRAL OPP FARNUM""",41.890122,-71.344859,2396408,14:01:00,14:01:00,26,1,76,http://www.ripta.com/76,Weekday
57665,"""BRADLEY NS BENEFIT""",41.891425,-71.344334,2396408,14:01:00,14:01:00,27,1,76,http://www.ripta.com/76,Weekday
60235,"""BENEFIT AT THURBER""",41.891577,-71.345995,2396408,14:02:00,14:02:00,28,1,76,http://www.ripta.com/76,Weekday
60235,"""BENEFIT AT THURBER""",41.891577,-71.345995,2396409,14:04:00,14:04:00,1,0,76,http://www.ripta.com/76,Weekday
23750,"""CENTRAL FS BRADLEY""",41.890344,-71.344476,2396409,14:06:00,14:06:00,2,0,76,http://www.ripta.com/76,Weekday
23735,"""CENTRAL NS CLARNER""",41.889855,-71.346532,2396409,14:06:00,14:06:00,3,0,76,http://www.ripta.com/76,Weekday
23705,"""CENTRAL NS DRAPER""",41.889245,-71.34907,2396409,14:07:00,14:07:00,4,0,76,http://www.ripta.com/76,Weekday
56335,"""CENTRAL FS CHASE""",41.888859,-71.350611,2396409,14:07:00,14:07:00,5,0,76,http://www.ripta.com/76,Weekday
23670,"""CENTRAL NS GRAND""",41.88852,-71.352024,2396409,14:08:00,14:08:00,6,0,76,http://www.ripta.com/76,Weekday
57680,"""CENTRAL NS NEWPORT""",41.888115,-71.353627,2396409,14:08:00,14:08:00,7,0,76,http://www.ripta.com/76,Weekday
23585,"""CENTRAL NS TWEED""",41.887476,-71.356493,2396409,14:09:00,14:09:00,8,0,76,http://www.ripta.com/76,Weekday
23545,"""CENTRAL NS MAKIN""",41.886854,-71.358979,2396409,14:09:00,14:09:00,9,0,76,http://www.ripta.com/76,Weekday
23505,"""CENTRAL NS HARDING""",41.886306,-71.361456,2396409,14:10:00,14:10:00,10,0,76,http://www.ripta.com/76,Weekday
23475,"""CENTRAL NS MENDON""",41.88568,-71.363992,2396409,14:10:00,14:10:00,11,0,76,http://www.ripta.com/76,Weekday
23450,"""CENTRAL BETWEEN FREEMAN & KENYON""",41.885408,-71.365929,2396409,14:11:00,14:11:00,12,0,76,http://www.ripta.com/76,Weekday
30175,"""STOP&SHOP (COTTAGE STREET - PAWTUCKET)""",41.888327,-71.367365,2396409,14:12:00,14:12:00,13,0,76,http://www.ripta.com/76,Weekday
57145,"""G BENNET FS CENTRAL""",41.884979,-71.366979,2396409,14:14:00,14:14:00,14,0,76,http://www.ripta.com/76,Weekday
23170,"""ARMISTICE FS GEORGE BENNETT""",41.880634,-71.366218,2396409,14:15:00,14:15:00,15,0,76,http://www.ripta.com/76,Weekday
23145,"""ARMISTICE OPP 209 ARMISTICE""",41.88025,-71.367845,2396409,14:15:00,14:15:00,16,0,76,http://www.ripta.com/76,Weekday
23050,"""ARMISTICE OPP SCHOFIELD""",41.879811,-71.36965,2396409,14:16:00,14:16:00,17,0,76,http://www.ripta.com/76,Weekday
23000,"""ARMISTICE OPP ASHTON""",41.879519,-71.370735,2396409,14:16:00,14:16:00,18,0,76,http://www.ripta.com/76,Weekday
22980,"""ARMISTICE NS N BEND""",41.8791,-71.372425,2396409,14:17:00,14:17:00,19,0,76,http://www.ripta.com/76,Weekday
57685,"""NORTH BEND NS WALCOTT""",41.878161,-71.37297,2396409,14:17:00,14:17:00,20,0,76,http://www.ripta.com/76,Weekday
57690,"""WALCOTT FS WALNUT""",41.877327,-71.375563,2396409,14:18:00,14:18:00,21,0,76,http://www.ripta.com/76,Weekday
22750,"""WALCOTT FS MAYNARD""",41.8772,-71.37626,2396409,14:18:00,14:18:00,22,0,76,http://www.ripta.com/76,Weekday
22725,"""WALCOTT FS GROVE""",41.87705,-71.37719,2396409,14:18:00,14:18:00,23,0,76,http://www.ripta.com/76,Weekday
56560,"""WALCOTT NS UNDERWOOD""",41.876971,-71.377645,2396409,14:19:00,14:19:00,24,0,76,http://www.ripta.com/76,Weekday
58040,"""UNDERWOOD FS WALCOTT""",41.877392,-71.378397,2396409,14:19:00,14:19:00,25,0,76,http://www.ripta.com/76,Weekday
58045,"""UNDERWOOD NS GROVE""",41.878526,-71.378151,2396409,14:19:00,14:19:00,26,0,76,http://www.ripta.com/76,Weekday
60080,"""EXCHANGE AT TOLMAN HIGH SCHOOL""",41.87982,-71.380381,2396409,14:20:00,14:20:00,27,0,76,http://www.ripta.com/76,Weekday
22765,"""PAWTUCKET TRANSIT CTR (TRANSIT CTR SIDE)""",41.877298,-71.383417,2396409,14:22:00,14:22:00,28,0,76,http://www.ripta.com/76,Weekday
22765,"""PAWTUCKET TRANSIT CTR (TRANSIT CTR SIDE)""",41.877298,-71.383417,2396412,15:15:00,15:15:00,1,1,76,http://www.ripta.com/76,Weekday
56275,"""MAIN NS WALCOTT""",41.875954,-71.380754,2396412,15:16:00,15:16:00,2,1,76,http://www.ripta.com/76,Weekday
22645,"""WALCOTT FS SUMMIT""",41.87663,-71.37902,2396412,15:17:00,15:17:00,3,1,76,http://www.ripta.com/76,Weekday
22670,"""WALCOTT NS ARLINGTON""",41.876934,-71.377349,2396412,15:17:00,15:17:00,4,1,76,http://www.ripta.com/76,Weekday
56495,"""WALCOTT NS MAYNARD""",41.877129,-71.37625,2396412,15:18:00,15:18:00,5,1,76,http://www.ripta.com/76,Weekday
56500,"""WALCOTT FS FRENCH""",41.877299,-71.375125,2396412,15:18:00,15:18:00,6,1,76,http://www.ripta.com/76,Weekday
56505,"""WALCOTT NS DENVER""",41.87749,-71.37428,2396412,15:18:00,15:18:00,7,1,76,http://www.ripta.com/76,Weekday
57670,"""WALCOTT NS NORTH BEND""",41.87767,-71.372897,2396412,15:19:00,15:19:00,8,1,76,http://www.ripta.com/76,Weekday
57675,"""NORTH BEND FS WALCOTT""",41.878109,-71.372851,2396412,15:19:00,15:19:00,9,1,76,http://www.ripta.com/76,Weekday
22981,"""ARMISTICE FS WALCOTT""",41.879033,-71.372465,2396412,15:19:00,15:19:00,10,1,76,http://www.ripta.com/76,Weekday
22995,"""ARMISTICE NS ASHTON""",41.879326,-71.371181,2396412,15:19:00,15:19:00,11,1,76,http://www.ripta.com/76,Weekday
23035,"""ARMISTICE FS SCHOEFIELD""",41.879768,-71.369401,2396412,15:20:00,15:20:00,12,1,76,http://www.ripta.com/76,Weekday
23090,"""ARMISTICE AT 209 ARMISTICE""",41.88002,-71.368329,2396412,15:20:00,15:20:00,13,1,76,http://www.ripta.com/76,Weekday
23165,"""ARMISTICE OPP 270 ARMISTICE""",41.880592,-71.365972,2396412,15:21:00,15:21:00,14,1,76,http://www.ripta.com/76,Weekday
57185,"""G BENNET NS CENTRAL""",41.885084,-71.366903,2396412,15:23:00,15:23:00,15,1,76,http://www.ripta.com/76,Weekday
30175,"""STOP&SHOP (COTTAGE STREET - PAWTUCKET)""",41.888327,-71.367365,2396412,15:24:00,15:24:00,16,1,76,http://www.ripta.com/76,Weekday
56311,"""CENTRAL FS FREEMAN""",41.885281,-71.366046,2396412,15:26:00,15:26:00,17,1,76,http://www.ripta.com/76,Weekday
56310,"""CENTRAL FS MENDON""",41.885529,-71.364033,2396412,15:26:00,15:26:00,18,1,76,http://www.ripta.com/76,Weekday
23470,"""CENTRAL NS YORK""",41.886124,-71.36156,2396412,15:26:00,15:26:00,19,1,76,http://www.ripta.com/76,Weekday
23460,"""CENTRAL FS TWEED""",41.887311,-71.356538,2396412,15:27:00,15:27:00,20,1,76,http://www.ripta.com/76,Weekday
23610,"""CENTRAL NS NEWPORT""",41.887832,-71.354455,2396412,15:28:00,15:28:00,21,1,76,http://www.ripta.com/76,Weekday
57660,"""CENTRAL FS NEWPORT""",41.888024,-71.353617,2396412,15:28:00,15:28:00,22,1,76,http://www.ripta.com/76,Weekday
23600,"""CENTRAL FS GRAND""",41.888413,-71.352052,2396412,15:29:00,15:29:00,23,1,76,http://www.ripta.com/76,Weekday
23655,"""CENTRAL NS LIVERPOOL""",41.888965,-71.349708,2396412,15:29:00,15:29:00,24,1,76,http://www.ripta.com/76,Weekday
23690,"""CENTRAL NS DAGGETT""",41.889467,-71.347534,2396412,15:30:00,15:30:00,25,1,76,http://www.ripta.com/76,Weekday
23715,"""CENTRAL OPP FARNUM""",41.890122,-71.344859,2396412,15:31:00,15:31:00,26,1,76,http://www.ripta.com/76,Weekday
57665,"""BRADLEY NS BENEFIT""",41.891425,-71.344334,2396412,15:31:00,15:31:00,27,1,76,http://www.ripta.com/76,Weekday
60235,"""BENEFIT AT THURBER""",41.891577,-71.345995,2396412,15:32:00,15:32:00,28,1,76,http://www.ripta.com/76,Weekday
60235,"""BENEFIT AT THURBER""",41.891577,-71.345995,2396413,15:34:00,15:34:00,1,0,76,http://www.ripta.com/76,Weekday
23750,"""CENTRAL FS BRADLEY""",41.890344,-71.344476,2396413,15:36:00,15:36:00,2,0,76,http://www.ripta.com/76,Weekday
23735,"""CENTRAL NS CLARNER""",41.889855,-71.346532,2396413,15:36:00,15:36:00,3,0,76,http://www.ripta.com/76,Weekday
23705,"""CENTRAL NS DRAPER""",41.889245,-71.34907,2396413,15:37:00,15:37:00,4,0,76,http://www.ripta.com/76,Weekday
56335,"""CENTRAL FS CHASE""",41.888859,-71.350611,2396413,15:37:00,15:37:00,5,0,76,http://www.ripta.com/76,Weekday
23670,"""CENTRAL NS GRAND""",41.88852,-71.352024,2396413,15:38:00,15:38:00,6,0,76,http://www.ripta.com/76,Weekday
57680,"""CENTRAL NS NEWPORT""",41.888115,-71.353627,2396413,15:38:00,15:38:00,7,0,76,http://www.ripta.com/76,Weekday
23585,"""CENTRAL NS TWEED""",41.887476,-71.356493,2396413,15:39:00,15:39:00,8,0,76,http://www.ripta.com/76,Weekday
23545,"""CENTRAL NS MAKIN""",41.886854,-71.358979,2396413,15:39:00,15:39:00,9,0,76,http://www.ripta.com/76,Weekday
23505,"""CENTRAL NS HARDING""",41.886306,-71.361456,2396413,15:40:00,15:40:00,10,0,76,http://www.ripta.com/76,Weekday
23475,"""CENTRAL NS MENDON""",41.88568,-71.363992,2396413,15:40:00,15:40:00,11,0,76,http://www.ripta.com/76,Weekday
23450,"""CENTRAL BETWEEN FREEMAN & KENYON""",41.885408,-71.365929,2396413,15:41:00,15:41:00,12,0,76,http://www.ripta.com/76,Weekday
30175,"""STOP&SHOP (COTTAGE STREET - PAWTUCKET)""",41.888327,-71.367365,2396413,15:42:00,15:42:00,13,0,76,http://www.ripta.com/76,Weekday
57145,"""G BENNET FS CENTRAL""",41.884979,-71.366979,2396413,15:44:00,15:44:00,14,0,76,http://www.ripta.com/76,Weekday
23170,"""ARMISTICE FS GEORGE BENNETT""",41.880634,-71.366218,2396413,15:45:00,15:45:00,15,0,76,http://www.ripta.com/76,Weekday
23145,"""ARMISTICE OPP 209 ARMISTICE""",41.88025,-71.367845,2396413,15:45:00,15:45:00,16,0,76,http://www.ripta.com/76,Weekday
23050,"""ARMISTICE OPP SCHOFIELD""",41.879811,-71.36965,2396413,15:46:00,15:46:00,17,0,76,http://www.ripta.com/76,Weekday
23000,"""ARMISTICE OPP ASHTON""",41.879519,-71.370735,2396413,15:46:00,15:46:00,18,0,76,http://www.ripta.com/76,Weekday
22980,"""ARMISTICE NS N BEND""",41.8791,-71.372425,2396413,15:47:00,15:47:00,19,0,76,http://www.ripta.com/76,Weekday
57685,"""NORTH BEND NS WALCOTT""",41.878161,-71.37297,2396413,15:47:00,15:47:00,20,0,76,http://www.ripta.com/76,Weekday
57690,"""WALCOTT FS WALNUT""",41.877327,-71.375563,2396413,15:48:00,15:48:00,21,0,76,http://www.ripta.com/76,Weekday
22750,"""WALCOTT FS MAYNARD""",41.8772,-71.37626,2396413,15:48:00,15:48:00,22,0,76,http://www.ripta.com/76,Weekday
22725,"""WALCOTT FS GROVE""",41.87705,-71.37719,2396413,15:48:00,15:48:00,23,0,76,http://www.ripta.com/76,Weekday
56560,"""WALCOTT NS UNDERWOOD""",41.876971,-71.377645,2396413,15:49:00,15:49:00,24,0,76,http://www.ripta.com/76,Weekday
58040,"""UNDERWOOD FS WALCOTT""",41.877392,-71.378397,2396413,15:49:00,15:49:00,25,0,76,http://www.ripta.com/76,Weekday
58045,"""UNDERWOOD NS GROVE""",41.878526,-71.378151,2396413,15:49:00,15:49:00,26,0,76,http://www.ripta.com/76,Weekday
60080,"""EXCHANGE AT TOLMAN HIGH SCHOOL""",41.87982,-71.380381,2396413,15:50:00,15:50:00,27,0,76,http://www.ripta.com/76,Weekday
22765,"""PAWTUCKET TRANSIT CTR (TRANSIT CTR SIDE)""",41.877298,-71.383417,2396413,15:52:00,15:52:00,28,0,76,http://www.ripta.com/76,Weekday
22765,"""PAWTUCKET TRANSIT CTR (TRANSIT CTR SIDE)""",41.877298,-71.383417,2396416,16:45:00,16:45:00,1,1,76,http://www.ripta.com/76,Weekday
56275,"""MAIN NS WALCOTT""",41.875954,-71.380754,2396416,16:46:00,16:46:00,2,1,76,http://www.ripta.com/76,Weekday
22645,"""WALCOTT FS SUMMIT""",41.87663,-71.37902,2396416,16:47:00,16:47:00,3,1,76,http://www.ripta.com/76,Weekday
22670,"""WALCOTT NS ARLINGTON""",41.876934,-71.377349,2396416,16:47:00,16:47:00,4,1,76,http://www.ripta.com/76,Weekday
56495,"""WALCOTT NS MAYNARD""",41.877129,-71.37625,2396416,16:48:00,16:48:00,5,1,76,http://www.ripta.com/76,Weekday
56500,"""WALCOTT FS FRENCH""",41.877299,-71.375125,2396416,16:48:00,16:48:00,6,1,76,http://www.ripta.com/76,Weekday
56505,"""WALCOTT NS DENVER""",41.87749,-71.37428,2396416,16:48:00,16:48:00,7,1,76,http://www.ripta.com/76,Weekday
57670,"""WALCOTT NS NORTH BEND""",41.87767,-71.372897,2396416,16:49:00,16:49:00,8,1,76,http://www.ripta.com/76,Weekday
57675,"""NORTH BEND FS WALCOTT""",41.878109,-71.372851,2396416,16:49:00,16:49:00,9,1,76,http://www.ripta.com/76,Weekday
22981,"""ARMISTICE FS WALCOTT""",41.879033,-71.372465,2396416,16:49:00,16:49:00,10,1,76,http://www.ripta.com/76,Weekday
22995,"""ARMISTICE NS ASHTON""",41.879326,-71.371181,2396416,16:49:00,16:49:00,11,1,76,http://www.ripta.com/76,Weekday
23035,"""ARMISTICE FS SCHOEFIELD""",41.879768,-71.369401,2396416,16:50:00,16:50:00,12,1,76,http://www.ripta.com/76,Weekday
23090,"""ARMISTICE AT 209 ARMISTICE""",41.88002,-71.368329,2396416,16:50:00,16:50:00,13,1,76,http://www.ripta.com/76,Weekday
23165,"""ARMISTICE OPP 270 ARMISTICE""",41.880592,-71.365972,2396416,16:51:00,16:51:00,14,1,76,http://www.ripta.com/76,Weekday
57185,"""G BENNET NS CENTRAL""",41.885084,-71.366903,2396416,16:53:00,16:53:00,15,1,76,http://www.ripta.com/76,Weekday
30175,"""STOP&SHOP (COTTAGE STREET - PAWTUCKET)""",41.888327,-71.367365,2396416,16:54:00,16:54:00,16,1,76,http://www.ripta.com/76,Weekday
56311,"""CENTRAL FS FREEMAN""",41.885281,-71.366046,2396416,16:56:00,16:56:00,17,1,76,http://www.ripta.com/76,Weekday
56310,"""CENTRAL FS MENDON""",41.885529,-71.364033,2396416,16:56:00,16:56:00,18,1,76,http://www.ripta.com/76,Weekday
23470,"""CENTRAL NS YORK""",41.886124,-71.36156,2396416,16:56:00,16:56:00,19,1,76,http://www.ripta.com/76,Weekday
23460,"""CENTRAL FS TWEED""",41.887311,-71.356538,2396416,16:57:00,16:57:00,20,1,76,http://www.ripta.com/76,Weekday
23610,"""CENTRAL NS NEWPORT""",41.887832,-71.354455,2396416,16:58:00,16:58:00,21,1,76,http://www.ripta.com/76,Weekday
57660,"""CENTRAL FS NEWPORT""",41.888024,-71.353617,2396416,16:58:00,16:58:00,22,1,76,http://www.ripta.com/76,Weekday
23600,"""CENTRAL FS GRAND""",41.888413,-71.352052,2396416,16:59:00,16:59:00,23,1,76,http://www.ripta.com/76,Weekday
23655,"""CENTRAL NS LIVERPOOL""",41.888965,-71.349708,2396416,16:59:00,16:59:00,24,1,76,http://www.ripta.com/76,Weekday
23690,"""CENTRAL NS DAGGETT""",41.889467,-71.347534,2396416,17:00:00,17:00:00,25,1,76,http://www.ripta.com/76,Weekday
23715,"""CENTRAL OPP FARNUM""",41.890122,-71.344859,2396416,17:01:00,17:01:00,26,1,76,http://www.ripta.com/76,Weekday
57665,"""BRADLEY NS BENEFIT""",41.891425,-71.344334,2396416,17:01:00,17:01:00,27,1,76,http://www.ripta.com/76,Weekday
60235,"""BENEFIT AT THURBER""",41.891577,-71.345995,2396416,17:02:00,17:02:00,28,1,76,http://www.ripta.com/76,Weekday
60235,"""BENEFIT AT THURBER""",41.891577,-71.345995,2396417,17:04:00,17:04:00,1,0,76,http://www.ripta.com/76,Weekday
23750,"""CENTRAL FS BRADLEY""",41.890344,-71.344476,2396417,17:06:00,17:06:00,2,0,76,http://www.ripta.com/76,Weekday
23735,"""CENTRAL NS CLARNER""",41.889855,-71.346532,2396417,17:06:00,17:06:00,3,0,76,http://www.ripta.com/76,Weekday
23705,"""CENTRAL NS DRAPER""",41.889245,-71.34907,2396417,17:07:00,17:07:00,4,0,76,http://www.ripta.com/76,Weekday
56335,"""CENTRAL FS CHASE""",41.888859,-71.350611,2396417,17:07:00,17:07:00,5,0,76,http://www.ripta.com/76,Weekday
23670,"""CENTRAL NS GRAND""",41.88852,-71.352024,2396417,17:08:00,17:08:00,6,0,76,http://www.ripta.com/76,Weekday
57680,"""CENTRAL NS NEWPORT""",41.888115,-71.353627,2396417,17:08:00,17:08:00,7,0,76,http://www.ripta.com/76,Weekday
23585,"""CENTRAL NS TWEED""",41.887476,-71.356493,2396417,17:09:00,17:09:00,8,0,76,http://www.ripta.com/76,Weekday
23545,"""CENTRAL NS MAKIN""",41.886854,-71.358979,2396417,17:09:00,17:09:00,9,0,76,http://www.ripta.com/76,Weekday
23505,"""CENTRAL NS HARDING""",41.886306,-71.361456,2396417,17:10:00,17:10:00,10,0,76,http://www.ripta.com/76,Weekday
23475,"""CENTRAL NS MENDON""",41.88568,-71.363992,2396417,17:10:00,17:10:00,11,0,76,http://www.ripta.com/76,Weekday
23450,"""CENTRAL BETWEEN FREEMAN & KENYON""",41.885408,-71.365929,2396417,17:11:00,17:11:00,12,0,76,http://www.ripta.com/76,Weekday
30175,"""STOP&SHOP (COTTAGE STREET - PAWTUCKET)""",41.888327,-71.367365,2396417,17:12:00,17:12:00,13,0,76,http://www.ripta.com/76,Weekday
57145,"""G BENNET FS CENTRAL""",41.884979,-71.366979,2396417,17:14:00,17:14:00,14,0,76,http://www.ripta.com/76,Weekday
23170,"""ARMISTICE FS GEORGE BENNETT""",41.880634,-71.366218,2396417,17:15:00,17:15:00,15,0,76,http://www.ripta.com/76,Weekday
23145,"""ARMISTICE OPP 209 ARMISTICE""",41.88025,-71.367845,2396417,17:15:00,17:15:00,16,0,76,http://www.ripta.com/76,Weekday
23050,"""ARMISTICE OPP SCHOFIELD""",41.879811,-71.36965,2396417,17:16:00,17:16:00,17,0,76,http://www.ripta.com/76,Weekday
23000,"""ARMISTICE OPP ASHTON""",41.879519,-71.370735,2396417,17:16:00,17:16:00,18,0,76,http://www.ripta.com/76,Weekday
22980,"""ARMISTICE NS N BEND""",41.8791,-71.372425,2396417,17:17:00,17:17:00,19,0,76,http://www.ripta.com/76,Weekday
57685,"""NORTH BEND NS WALCOTT""",41.878161,-71.37297,2396417,17:17:00,17:17:00,20,0,76,http://www.ripta.com/76,Weekday
57690,"""WALCOTT FS WALNUT""",41.877327,-71.375563,2396417,17:18:00,17:18:00,21,0,76,http://www.ripta.com/76,Weekday
22750,"""WALCOTT FS MAYNARD""",41.8772,-71.37626,2396417,17:18:00,17:18:00,22,0,76,http://www.ripta.com/76,Weekday
22725,"""WALCOTT FS GROVE""",41.87705,-71.37719,2396417,17:18:00,17:18:00,23,0,76,http://www.ripta.com/76,Weekday
56560,"""WALCOTT NS UNDERWOOD""",41.876971,-71.377645,2396417,17:19:00,17:19:00,24,0,76,http://www.ripta.com/76,Weekday
58040,"""UNDERWOOD FS WALCOTT""",41.877392,-71.378397,2396417,17:19:00,17:19:00,25,0,76,http://www.ripta.com/76,Weekday
58045,"""UNDERWOOD NS GROVE""",41.878526,-71.378151,2396417,17:19:00,17:19:00,26,0,76,http://www.ripta.com/76,Weekday
60080,"""EXCHANGE AT TOLMAN HIGH SCHOOL""",41.87982,-71.380381,2396417,17:20:00,17:20:00,27,0,76,http://www.ripta.com/76,Weekday
22765,"""PAWTUCKET TRANSIT CTR (TRANSIT CTR SIDE)""",41.877298,-71.383417,2396417,17:22:00,17:22:00,28,0,76,http://www.ripta.com/76,Weekday
22765,"""PAWTUCKET TRANSIT CTR (TRANSIT CTR SIDE)""",41.877298,-71.383417,2396420,18:15:00,18:15:00,1,1,76,http://www.ripta.com/76,Weekday
56275,"""MAIN NS WALCOTT""",41.875954,-71.380754,2396420,18:16:00,18:16:00,2,1,76,http://www.ripta.com/76,Weekday
22645,"""WALCOTT FS SUMMIT""",41.87663,-71.37902,2396420,18:16:00,18:16:00,3,1,76,http://www.ripta.com/76,Weekday
22670,"""WALCOTT NS ARLINGTON""",41.876934,-71.377349,2396420,18:17:00,18:17:00,4,1,76,http://www.ripta.com/76,Weekday
56495,"""WALCOTT NS MAYNARD""",41.877129,-71.37625,2396420,18:17:00,18:17:00,5,1,76,http://www.ripta.com/76,Weekday
56500,"""WALCOTT FS FRENCH""",41.877299,-71.375125,2396420,18:17:00,18:17:00,6,1,76,http://www.ripta.com/76,Weekday
56505,"""WALCOTT NS DENVER""",41.87749,-71.37428,2396420,18:18:00,18:18:00,7,1,76,http://www.ripta.com/76,Weekday
57670,"""WALCOTT NS NORTH BEND""",41.87767,-71.372897,2396420,18:18:00,18:18:00,8,1,76,http://www.ripta.com/76,Weekday
57675,"""NORTH BEND FS WALCOTT""",41.878109,-71.372851,2396420,18:18:00,18:18:00,9,1,76,http://www.ripta.com/76,Weekday
22981,"""ARMISTICE FS WALCOTT""",41.879033,-71.372465,2396420,18:18:00,18:18:00,10,1,76,http://www.ripta.com/76,Weekday
22995,"""ARMISTICE NS ASHTON""",41.879326,-71.371181,2396420,18:19:00,18:19:00,11,1,76,http://www.ripta.com/76,Weekday
23035,"""ARMISTICE FS SCHOEFIELD""",41.879768,-71.369401,2396420,18:19:00,18:19:00,12,1,76,http://www.ripta.com/76,Weekday
23090,"""ARMISTICE AT 209 ARMISTICE""",41.88002,-71.368329,2396420,18:19:00,18:19:00,13,1,76,http://www.ripta.com/76,Weekday
23165,"""ARMISTICE OPP 270 ARMISTICE""",41.880592,-71.365972,2396420,18:20:00,18:20:00,14,1,76,http://www.ripta.com/76,Weekday
57185,"""G BENNET NS CENTRAL""",41.885084,-71.366903,2396420,18:22:00,18:22:00,15,1,76,http://www.ripta.com/76,Weekday
30175,"""STOP&SHOP (COTTAGE STREET - PAWTUCKET)""",41.888327,-71.367365,2396420,18:23:00,18:23:00,16,1,76,http://www.ripta.com/76,Weekday
56311,"""CENTRAL FS FREEMAN""",41.885281,-71.366046,2396420,18:25:00,18:25:00,17,1,76,http://www.ripta.com/76,Weekday
56310,"""CENTRAL FS MENDON""",41.885529,-71.364033,2396420,18:25:00,18:25:00,18,1,76,http://www.ripta.com/76,Weekday
23470,"""CENTRAL NS YORK""",41.886124,-71.36156,2396420,18:25:00,18:25:00,19,1,76,http://www.ripta.com/76,Weekday
23460,"""CENTRAL FS TWEED""",41.887311,-71.356538,2396420,18:26:00,18:26:00,20,1,76,http://www.ripta.com/76,Weekday
23610,"""CENTRAL NS NEWPORT""",41.887832,-71.354455,2396420,18:27:00,18:27:00,21,1,76,http://www.ripta.com/76,Weekday
57660,"""CENTRAL FS NEWPORT""",41.888024,-71.353617,2396420,18:27:00,18:27:00,22,1,76,http://www.ripta.com/76,Weekday
23600,"""CENTRAL FS GRAND""",41.888413,-71.352052,2396420,18:27:00,18:27:00,23,1,76,http://www.ripta.com/76,Weekday
23655,"""CENTRAL NS LIVERPOOL""",41.888965,-71.349708,2396420,18:28:00,18:28:00,24,1,76,http://www.ripta.com/76,Weekday
23690,"""CENTRAL NS DAGGETT""",41.889467,-71.347534,2396420,18:28:00,18:28:00,25,1,76,http://www.ripta.com/76,Weekday
23715,"""CENTRAL OPP FARNUM""",41.890122,-71.344859,2396420,18:29:00,18:29:00,26,1,76,http://www.ripta.com/76,Weekday
57665,"""BRADLEY NS BENEFIT""",41.891425,-71.344334,2396420,18:30:00,18:30:00,27,1,76,http://www.ripta.com/76,Weekday
60235,"""BENEFIT AT THURBER""",41.891577,-71.345995,2396420,18:30:00,18:30:00,28,1,76,http://www.ripta.com/76,Weekday
60235,"""BENEFIT AT THURBER""",41.891577,-71.345995,2396421,18:34:00,18:34:00,1,0,76,http://www.ripta.com/76,Weekday
23750,"""CENTRAL FS BRADLEY""",41.890344,-71.344476,2396421,18:35:00,18:35:00,2,0,76,http://www.ripta.com/76,Weekday
23735,"""CENTRAL NS CLARNER""",41.889855,-71.346532,2396421,18:36:00,18:36:00,3,0,76,http://www.ripta.com/76,Weekday
23705,"""CENTRAL NS DRAPER""",41.889245,-71.34907,2396421,18:36:00,18:36:00,4,0,76,http://www.ripta.com/76,Weekday
56335,"""CENTRAL FS CHASE""",41.888859,-71.350611,2396421,18:36:00,18:36:00,5,0,76,http://www.ripta.com/76,Weekday
23670,"""CENTRAL NS GRAND""",41.88852,-71.352024,2396421,18:37:00,18:37:00,6,0,76,http://www.ripta.com/76,Weekday
57680,"""CENTRAL NS NEWPORT""",41.888115,-71.353627,2396421,18:37:00,18:37:00,7,0,76,http://www.ripta.com/76,Weekday
23585,"""CENTRAL NS TWEED""",41.887476,-71.356493,2396421,18:38:00,18:38:00,8,0,76,http://www.ripta.com/76,Weekday
23545,"""CENTRAL NS MAKIN""",41.886854,-71.358979,2396421,18:38:00,18:38:00,9,0,76,http://www.ripta.com/76,Weekday
23505,"""CENTRAL NS HARDING""",41.886306,-71.361456,2396421,18:39:00,18:39:00,10,0,76,http://www.ripta.com/76,Weekday
23475,"""CENTRAL NS MENDON""",41.88568,-71.363992,2396421,18:39:00,18:39:00,11,0,76,http://www.ripta.com/76,Weekday
23450,"""CENTRAL BETWEEN FREEMAN & KENYON""",41.885408,-71.365929,2396421,18:40:00,18:40:00,12,0,76,http://www.ripta.com/76,Weekday
30175,"""STOP&SHOP (COTTAGE STREET - PAWTUCKET)""",41.888327,-71.367365,2396421,18:41:00,18:41:00,13,0,76,http://www.ripta.com/76,Weekday
57145,"""G BENNET FS CENTRAL""",41.884979,-71.366979,2396421,18:43:00,18:43:00,14,0,76,http://www.ripta.com/76,Weekday
23170,"""ARMISTICE FS GEORGE BENNETT""",41.880634,-71.366218,2396421,18:44:00,18:44:00,15,0,76,http://www.ripta.com/76,Weekday
23145,"""ARMISTICE OPP 209 ARMISTICE""",41.88025,-71.367845,2396421,18:44:00,18:44:00,16,0,76,http://www.ripta.com/76,Weekday
23050,"""ARMISTICE OPP SCHOFIELD""",41.879811,-71.36965,2396421,18:45:00,18:45:00,17,0,76,http://www.ripta.com/76,Weekday
23000,"""ARMISTICE OPP ASHTON""",41.879519,-71.370735,2396421,18:45:00,18:45:00,18,0,76,http://www.ripta.com/76,Weekday
22980,"""ARMISTICE NS N BEND""",41.8791,-71.372425,2396421,18:45:00,18:45:00,19,0,76,http://www.ripta.com/76,Weekday
57685,"""NORTH BEND NS WALCOTT""",41.878161,-71.37297,2396421,18:46:00,18:46:00,20,0,76,http://www.ripta.com/76,Weekday
57690,"""WALCOTT FS WALNUT""",41.877327,-71.375563,2396421,18:47:00,18:47:00,21,0,76,http://www.ripta.com/76,Weekday
22750,"""WALCOTT FS MAYNARD""",41.8772,-71.37626,2396421,18:47:00,18:47:00,22,0,76,http://www.ripta.com/76,Weekday
22725,"""WALCOTT FS GROVE""",41.87705,-71.37719,2396421,18:47:00,18:47:00,23,0,76,http://www.ripta.com/76,Weekday
56560,"""WALCOTT NS UNDERWOOD""",41.876971,-71.377645,2396421,18:47:00,18:47:00,24,0,76,http://www.ripta.com/76,Weekday
58040,"""UNDERWOOD FS WALCOTT""",41.877392,-71.378397,2396421,18:47:00,18:47:00,25,0,76,http://www.ripta.com/76,Weekday
58045,"""UNDERWOOD NS GROVE""",41.878526,-71.378151,2396421,18:48:00,18:48:00,26,0,76,http://www.ripta.com/76,Weekday
60080,"""EXCHANGE AT TOLMAN HIGH SCHOOL""",41.87982,-71.380381,2396421,18:49:00,18:49:00,27,0,76,http://www.ripta.com/76,Weekday
22765,"""PAWTUCKET TRANSIT CTR (TRANSIT CTR SIDE)""",41.877298,-71.383417,2396421,18:50:00,18:50:00,28,0,76,http://www.ripta.com/76,Weekday
