stop_id,stop_name,stop_lat,stop_lon,trip_id,arrival_time,departure_time,stop_sequence,direction_id,route_id,route_url,serviceid
17045,"""TUNNEL FS THAYER""",41.827682,-71.400886,2351197,08:20:00,08:20:00,1,0,40,http://www.ripta.com/40,Weekday
16890,"""TUNNEL NS S MAIN""",41.826842,-71.408585,2351197,08:22:00,08:22:00,2,0,40,http://www.ripta.com/40,Weekday
16590,"""KENNEDY PLAZA (STOP I)""",41.825407,-71.411262,2351197,08:25:00,08:25:00,3,0,40,http://www.ripta.com/40,Weekday
16590,"""KENNEDY PLAZA (STOP I)""",41.825407,-71.411262,2351198,08:15:00,08:15:00,1,1,40,http://www.ripta.com/40,Weekday
16855,"""TUNNEL FS S MAIN""",41.82678,-71.408541,2351198,08:17:00,08:17:00,2,1,40,http://www.ripta.com/40,Weekday
16905,"""TUNNEL NS THAYER""",41.827607,-71.400864,2351198,08:20:00,08:20:00,3,1,40,http://www.ripta.com/40,Weekday
19245,"""BUTLER HOSPITAL""",41.843352,-71.381404,2396690,07:24:00,07:24:00,1,0,40,http://www.ripta.com/40,Weekday
19605,"""BUTLER HOSPITAL ACCESS RD NS BLACKSTONE""",41.845932,-71.383297,2396690,07:25:00,07:25:00,2,0,40,http://www.ripta.com/40,Weekday
19725,"""BLACKSTONE AT SWAN PT CEMETARY""",41.847884,-71.386777,2396690,07:26:00,07:26:00,3,0,40,http://www.ripta.com/40,Weekday
19815,"""BLACKSTONE AT POLE 105""",41.850485,-71.386864,2396690,07:26:00,07:26:00,4,0,40,http://www.ripta.com/40,Weekday
19930,"""BLACKSTONE AT POLE 107""",41.85142,-71.387072,2396690,07:26:00,07:26:00,5,0,40,http://www.ripta.com/40,Weekday
19905,"""BLACKSTONE FS HARWICH""",41.85,-71.387436,2396690,07:27:00,07:27:00,6,0,40,http://www.ripta.com/40,Weekday
19810,"""BLACKSTONE FS HARTFORD""",41.848629,-71.387392,2396690,07:27:00,07:27:00,7,0,40,http://www.ripta.com/40,Weekday
19735,"""BLACKSTONE AT 420 BLACKSTONE""",41.847545,-71.387336,2396690,07:27:00,07:27:00,8,0,40,http://www.ripta.com/40,Weekday
60025,"""BLACKSTONE NS ROCHAMBEAU""",41.845893,-71.387265,2396690,07:28:00,07:28:00,9,0,40,http://www.ripta.com/40,Weekday
58050,"""ROCHAMBEAU OPP 405 ROCHAMBEAU""",41.84606,-71.389531,2396690,07:28:00,07:28:00,10,0,40,http://www.ripta.com/40,Weekday
58060,"""ELMGROVE OPP 311 ELMGROVE""",41.845182,-71.391926,2396690,07:28:00,07:28:00,11,0,40,http://www.ripta.com/40,Weekday
58070,"""ELMGROVE OPP JEWISH CENTET""",41.842002,-71.392696,2396690,07:29:00,07:29:00,12,0,40,http://www.ripta.com/40,Weekday
58105,"""ELMGROVE OPP 341 ELMGROVE""",41.840439,-71.392572,2396690,07:30:00,07:30:00,13,0,40,http://www.ripta.com/40,Weekday
58110,"""ELMGROVE AT POLE 58""",41.837813,-71.392045,2396690,07:30:00,07:30:00,14,0,40,http://www.ripta.com/40,Weekday
58120,"""ELMGROVE AT 152 ELMGROVE""",41.834888,-71.391099,2396690,07:32:00,07:32:00,15,0,40,http://www.ripta.com/40,Weekday
60030,"""ELMGROVE NS ADELPHI""",41.830869,-71.389706,2396690,07:33:00,07:33:00,16,0,40,http://www.ripta.com/40,Weekday
17290,"""ANGELL FS ELMGROVE""",41.829826,-71.389833,2396690,07:34:00,07:34:00,17,0,40,http://www.ripta.com/40,Weekday
17170,"""ANGELL OPP IVES""",41.829218,-71.393025,2396690,07:34:00,07:34:00,18,0,40,http://www.ripta.com/40,Weekday
17100,"""ANGELL NS HOPE""",41.828462,-71.397302,2396690,07:36:00,07:36:00,19,0,40,http://www.ripta.com/40,Weekday
17085,"""ANGELL AT PRESCOTT LIBRARY""",41.828357,-71.398382,2396690,07:36:00,07:36:00,20,0,40,http://www.ripta.com/40,Weekday
17045,"""TUNNEL FS THAYER""",41.827682,-71.400886,2396690,07:37:00,07:37:00,21,0,40,http://www.ripta.com/40,Weekday
16890,"""TUNNEL NS S MAIN""",41.826842,-71.408585,2396690,07:40:00,07:40:00,22,0,40,http://www.ripta.com/40,Weekday
16400,"""KENNEDY PLAZA (STOP B)""",41.824733,-71.411583,2396690,07:42:00,07:42:00,23,0,40,http://www.ripta.com/40,Weekday
16590,"""KENNEDY PLAZA (STOP I)""",41.825407,-71.411262,2396729,15:03:00,15:03:00,1,1,40,http://www.ripta.com/40,Weekday
16855,"""TUNNEL FS S MAIN""",41.82678,-71.408541,2396729,15:05:00,15:05:00,2,1,40,http://www.ripta.com/40,Weekday
16905,"""TUNNEL NS THAYER""",41.827607,-71.400864,2396729,15:08:00,15:08:00,3,1,40,http://www.ripta.com/40,Weekday
16970,"""WATERMAN NS HOPE""",41.827592,-71.397452,2396729,15:09:00,15:09:00,4,1,40,http://www.ripta.com/40,Weekday
17000,"""WATERMAN FS GOVERNOR""",41.827639,-71.393764,2396729,15:10:00,15:10:00,5,1,40,http://www.ripta.com/40,Weekday
17055,"""WATERMAN FS GANO""",41.82823,-71.390443,2396729,15:11:00,15:11:00,6,1,40,http://www.ripta.com/40,Weekday
17135,"""WAYLAND FS WATERMAN""",41.828921,-71.388232,2396729,15:12:00,15:12:00,7,1,40,http://www.ripta.com/40,Weekday
17255,"""WAYLAND NS S ANGELL""",41.829991,-71.387948,2396729,15:12:00,15:12:00,8,1,40,http://www.ripta.com/40,Weekday
17285,"""ANGELL FS WAYLAND""",41.830134,-71.388391,2396729,15:13:00,15:13:00,9,1,40,http://www.ripta.com/40,Weekday
17985,"""ELMGROVE NS UNIVERSITY""",41.833322,-71.390444,2396729,15:14:00,15:14:00,10,1,40,http://www.ripta.com/40,Weekday
18255,"""ELMGROVE NS PRESIDENT""",41.835144,-71.391098,2396729,15:15:00,15:15:00,11,1,40,http://www.ripta.com/40,Weekday
18530,"""ELMGROVE NS FREEMAN PKWAY""",41.837719,-71.391875,2396729,15:15:00,15:15:00,12,1,40,http://www.ripta.com/40,Weekday
59265,"""ELMGROVE NS SESSIONS""",41.841097,-71.392475,2396729,15:17:00,15:17:00,13,1,40,http://www.ripta.com/40,Weekday
18935,"""ELMGROVE FS SESSIONS""",41.84225,-71.392595,2396729,15:17:00,15:17:00,14,1,40,http://www.ripta.com/40,Weekday
55895,"""ELMGROVE NS WOODBURY""",41.845001,-71.391836,2396729,15:17:00,15:17:00,15,1,40,http://www.ripta.com/40,Weekday
19425,"""ELMGROVE NS ROCHAMBEAU""",41.846153,-71.391385,2396729,15:17:00,15:17:00,16,1,40,http://www.ripta.com/40,Weekday
19520,"""ROCHAMBEAU NS COLE""",41.845872,-71.389364,2396729,15:18:00,15:18:00,17,1,40,http://www.ripta.com/40,Weekday
19460,"""ROCHAMBEAU NS BLACKSTONE""",41.845541,-71.387306,2396729,15:18:00,15:18:00,18,1,40,http://www.ripta.com/40,Weekday
19530,"""BLACKSTONE FS ROCHAMBEAU""",41.846121,-71.386708,2396729,15:18:00,15:18:00,19,1,40,http://www.ripta.com/40,Weekday
19550,"""BUTLER HOSPITAL ACCESS RD FS BLACKSTONE""",41.845879,-71.383373,2396729,15:18:00,15:18:00,20,1,40,http://www.ripta.com/40,Weekday
19245,"""BUTLER HOSPITAL""",41.843352,-71.381404,2396729,15:18:00,15:18:00,21,1,40,http://www.ripta.com/40,Weekday
20615,"""HOPE NS CHACE""",41.856289,-71.391505,2396729,15:20:00,15:20:00,22,1,40,http://www.ripta.com/40,Weekday
16590,"""KENNEDY PLAZA (STOP I)""",41.825407,-71.411262,2396730,15:03:00,15:03:00,1,1,40,http://www.ripta.com/40,Weekday
16855,"""TUNNEL FS S MAIN""",41.82678,-71.408541,2396730,15:05:00,15:05:00,2,1,40,http://www.ripta.com/40,Weekday
16905,"""TUNNEL NS THAYER""",41.827607,-71.400864,2396730,15:08:00,15:08:00,3,1,40,http://www.ripta.com/40,Weekday
16970,"""WATERMAN NS HOPE""",41.827592,-71.397452,2396730,15:09:00,15:09:00,4,1,40,http://www.ripta.com/40,Weekday
17000,"""WATERMAN FS GOVERNOR""",41.827639,-71.393764,2396730,15:10:00,15:10:00,5,1,40,http://www.ripta.com/40,Weekday
17055,"""WATERMAN FS GANO""",41.82823,-71.390443,2396730,15:11:00,15:11:00,6,1,40,http://www.ripta.com/40,Weekday
17135,"""WAYLAND FS WATERMAN""",41.828921,-71.388232,2396730,15:12:00,15:12:00,7,1,40,http://www.ripta.com/40,Weekday
17255,"""WAYLAND NS S ANGELL""",41.829991,-71.387948,2396730,15:12:00,15:12:00,8,1,40,http://www.ripta.com/40,Weekday
17285,"""ANGELL FS WAYLAND""",41.830134,-71.388391,2396730,15:13:00,15:13:00,9,1,40,http://www.ripta.com/40,Weekday
17985,"""ELMGROVE NS UNIVERSITY""",41.833322,-71.390444,2396730,15:14:00,15:14:00,10,1,40,http://www.ripta.com/40,Weekday
18255,"""ELMGROVE NS PRESIDENT""",41.835144,-71.391098,2396730,15:15:00,15:15:00,11,1,40,http://www.ripta.com/40,Weekday
18530,"""ELMGROVE NS FREEMAN PKWAY""",41.837719,-71.391875,2396730,15:15:00,15:15:00,12,1,40,http://www.ripta.com/40,Weekday
59265,"""ELMGROVE NS SESSIONS""",41.841097,-71.392475,2396730,15:17:00,15:17:00,13,1,40,http://www.ripta.com/40,Weekday
18935,"""ELMGROVE FS SESSIONS""",41.84225,-71.392595,2396730,15:17:00,15:17:00,14,1,40,http://www.ripta.com/40,Weekday
55895,"""ELMGROVE NS WOODBURY""",41.845001,-71.391836,2396730,15:17:00,15:17:00,15,1,40,http://www.ripta.com/40,Weekday
19425,"""ELMGROVE NS ROCHAMBEAU""",41.846153,-71.391385,2396730,15:17:00,15:17:00,16,1,40,http://www.ripta.com/40,Weekday
19520,"""ROCHAMBEAU NS COLE""",41.845872,-71.389364,2396730,15:18:00,15:18:00,17,1,40,http://www.ripta.com/40,Weekday
19460,"""ROCHAMBEAU NS BLACKSTONE""",41.845541,-71.387306,2396730,15:18:00,15:18:00,18,1,40,http://www.ripta.com/40,Weekday
19530,"""BLACKSTONE FS ROCHAMBEAU""",41.846121,-71.386708,2396730,15:18:00,15:18:00,19,1,40,http://www.ripta.com/40,Weekday
19550,"""BUTLER HOSPITAL ACCESS RD FS BLACKSTONE""",41.845879,-71.383373,2396730,15:18:00,15:18:00,20,1,40,http://www.ripta.com/40,Weekday
19245,"""BUTLER HOSPITAL""",41.843352,-71.381404,2396730,15:18:00,15:18:00,21,1,40,http://www.ripta.com/40,Weekday
20615,"""HOPE NS CHACE""",41.856289,-71.391505,2396730,15:20:00,15:20:00,22,1,40,http://www.ripta.com/40,Weekday
16590,"""KENNEDY PLAZA (STOP I)""",41.825407,-71.411262,2396780,19:45:00,19:45:00,1,1,40,http://www.ripta.com/40,Weekday
16855,"""TUNNEL FS S MAIN""",41.82678,-71.408541,2396780,19:46:00,19:46:00,2,1,40,http://www.ripta.com/40,Weekday
16905,"""TUNNEL NS THAYER""",41.827607,-71.400864,2396780,19:49:00,19:49:00,3,1,40,http://www.ripta.com/40,Weekday
16970,"""WATERMAN NS HOPE""",41.827592,-71.397452,2396780,19:50:00,19:50:00,4,1,40,http://www.ripta.com/40,Weekday
17000,"""WATERMAN FS GOVERNOR""",41.827639,-71.393764,2396780,19:51:00,19:51:00,5,1,40,http://www.ripta.com/40,Weekday
17055,"""WATERMAN FS GANO""",41.82823,-71.390443,2396780,19:51:00,19:51:00,6,1,40,http://www.ripta.com/40,Weekday
17135,"""WAYLAND FS WATERMAN""",41.828921,-71.388232,2396780,19:52:00,19:52:00,7,1,40,http://www.ripta.com/40,Weekday
17255,"""WAYLAND NS S ANGELL""",41.829991,-71.387948,2396780,19:52:00,19:52:00,8,1,40,http://www.ripta.com/40,Weekday
17285,"""ANGELL FS WAYLAND""",41.830134,-71.388391,2396780,19:52:00,19:52:00,9,1,40,http://www.ripta.com/40,Weekday
17985,"""ELMGROVE NS UNIVERSITY""",41.833322,-71.390444,2396780,19:54:00,19:54:00,10,1,40,http://www.ripta.com/40,Weekday
18255,"""ELMGROVE NS PRESIDENT""",41.835144,-71.391098,2396780,19:54:00,19:54:00,11,1,40,http://www.ripta.com/40,Weekday
18530,"""ELMGROVE NS FREEMAN PKWAY""",41.837719,-71.391875,2396780,19:55:00,19:55:00,12,1,40,http://www.ripta.com/40,Weekday
59265,"""ELMGROVE NS SESSIONS""",41.841097,-71.392475,2396780,19:56:00,19:56:00,13,1,40,http://www.ripta.com/40,Weekday
18935,"""ELMGROVE FS SESSIONS""",41.84225,-71.392595,2396780,19:56:00,19:56:00,14,1,40,http://www.ripta.com/40,Weekday
55895,"""ELMGROVE NS WOODBURY""",41.845001,-71.391836,2396780,19:57:00,19:57:00,15,1,40,http://www.ripta.com/40,Weekday
19425,"""ELMGROVE NS ROCHAMBEAU""",41.846153,-71.391385,2396780,19:57:00,19:57:00,16,1,40,http://www.ripta.com/40,Weekday
19520,"""ROCHAMBEAU NS COLE""",41.845872,-71.389364,2396780,19:58:00,19:58:00,17,1,40,http://www.ripta.com/40,Weekday
19460,"""ROCHAMBEAU NS BLACKSTONE""",41.845541,-71.387306,2396780,19:58:00,19:58:00,18,1,40,http://www.ripta.com/40,Weekday
19530,"""BLACKSTONE FS ROCHAMBEAU""",41.846121,-71.386708,2396780,19:59:00,19:59:00,19,1,40,http://www.ripta.com/40,Weekday
19550,"""BUTLER HOSPITAL ACCESS RD FS BLACKSTONE""",41.845879,-71.383373,2396780,20:00:00,20:00:00,20,1,40,http://www.ripta.com/40,Weekday
19245,"""BUTLER HOSPITAL""",41.843352,-71.381404,2396780,20:01:00,20:01:00,21,1,40,http://www.ripta.com/40,Weekday
19245,"""BUTLER HOSPITAL""",41.843352,-71.381404,2396783,19:25:00,19:25:00,1,0,40,http://www.ripta.com/40,Weekday
19605,"""BUTLER HOSPITAL ACCESS RD NS BLACKSTONE""",41.845932,-71.383297,2396783,19:26:00,19:26:00,2,0,40,http://www.ripta.com/40,Weekday
19725,"""BLACKSTONE AT SWAN PT CEMETARY""",41.847884,-71.386777,2396783,19:27:00,19:27:00,3,0,40,http://www.ripta.com/40,Weekday
19815,"""BLACKSTONE AT POLE 105""",41.850485,-71.386864,2396783,19:27:00,19:27:00,4,0,40,http://www.ripta.com/40,Weekday
19930,"""BLACKSTONE AT POLE 107""",41.85142,-71.387072,2396783,19:27:00,19:27:00,5,0,40,http://www.ripta.com/40,Weekday
19905,"""BLACKSTONE FS HARWICH""",41.85,-71.387436,2396783,19:28:00,19:28:00,6,0,40,http://www.ripta.com/40,Weekday
19810,"""BLACKSTONE FS HARTFORD""",41.848629,-71.387392,2396783,19:28:00,19:28:00,7,0,40,http://www.ripta.com/40,Weekday
19735,"""BLACKSTONE AT 420 BLACKSTONE""",41.847545,-71.387336,2396783,19:28:00,19:28:00,8,0,40,http://www.ripta.com/40,Weekday
60025,"""BLACKSTONE NS ROCHAMBEAU""",41.845893,-71.387265,2396783,19:29:00,19:29:00,9,0,40,http://www.ripta.com/40,Weekday
58050,"""ROCHAMBEAU OPP 405 ROCHAMBEAU""",41.84606,-71.389531,2396783,19:29:00,19:29:00,10,0,40,http://www.ripta.com/40,Weekday
58060,"""ELMGROVE OPP 311 ELMGROVE""",41.845182,-71.391926,2396783,19:29:00,19:29:00,11,0,40,http://www.ripta.com/40,Weekday
58070,"""ELMGROVE OPP JEWISH CENTET""",41.842002,-71.392696,2396783,19:30:00,19:30:00,12,0,40,http://www.ripta.com/40,Weekday
58105,"""ELMGROVE OPP 341 ELMGROVE""",41.840439,-71.392572,2396783,19:30:00,19:30:00,13,0,40,http://www.ripta.com/40,Weekday
58110,"""ELMGROVE AT POLE 58""",41.837813,-71.392045,2396783,19:31:00,19:31:00,14,0,40,http://www.ripta.com/40,Weekday
58120,"""ELMGROVE AT 152 ELMGROVE""",41.834888,-71.391099,2396783,19:32:00,19:32:00,15,0,40,http://www.ripta.com/40,Weekday
60030,"""ELMGROVE NS ADELPHI""",41.830869,-71.389706,2396783,19:33:00,19:33:00,16,0,40,http://www.ripta.com/40,Weekday
17290,"""ANGELL FS ELMGROVE""",41.829826,-71.389833,2396783,19:33:00,19:33:00,17,0,40,http://www.ripta.com/40,Weekday
17170,"""ANGELL OPP IVES""",41.829218,-71.393025,2396783,19:34:00,19:34:00,18,0,40,http://www.ripta.com/40,Weekday
17100,"""ANGELL NS HOPE""",41.828462,-71.397302,2396783,19:35:00,19:35:00,19,0,40,http://www.ripta.com/40,Weekday
17085,"""ANGELL AT PRESCOTT LIBRARY""",41.828357,-71.398382,2396783,19:35:00,19:35:00,20,0,40,http://www.ripta.com/40,Weekday
17045,"""TUNNEL FS THAYER""",41.827682,-71.400886,2396783,19:36:00,19:36:00,21,0,40,http://www.ripta.com/40,Weekday
16890,"""TUNNEL NS S MAIN""",41.826842,-71.408585,2396783,19:38:00,19:38:00,22,0,40,http://www.ripta.com/40,Weekday
16590,"""KENNEDY PLAZA (STOP I)""",41.825407,-71.411262,2396783,19:40:00,19:40:00,23,0,40,http://www.ripta.com/40,Weekday
16590,"""KENNEDY PLAZA (STOP I)""",41.825407,-71.411262,2396800,18:45:00,18:45:00,1,1,40,http://www.ripta.com/40,Weekday
16855,"""TUNNEL FS S MAIN""",41.82678,-71.408541,2396800,18:46:00,18:46:00,2,1,40,http://www.ripta.com/40,Weekday
16905,"""TUNNEL NS THAYER""",41.827607,-71.400864,2396800,18:49:00,18:49:00,3,1,40,http://www.ripta.com/40,Weekday
16970,"""WATERMAN NS HOPE""",41.827592,-71.397452,2396800,18:50:00,18:50:00,4,1,40,http://www.ripta.com/40,Weekday
17000,"""WATERMAN FS GOVERNOR""",41.827639,-71.393764,2396800,18:51:00,18:51:00,5,1,40,http://www.ripta.com/40,Weekday
17055,"""WATERMAN FS GANO""",41.82823,-71.390443,2396800,18:51:00,18:51:00,6,1,40,http://www.ripta.com/40,Weekday
17135,"""WAYLAND FS WATERMAN""",41.828921,-71.388232,2396800,18:52:00,18:52:00,7,1,40,http://www.ripta.com/40,Weekday
17255,"""WAYLAND NS S ANGELL""",41.829991,-71.387948,2396800,18:52:00,18:52:00,8,1,40,http://www.ripta.com/40,Weekday
17285,"""ANGELL FS WAYLAND""",41.830134,-71.388391,2396800,18:52:00,18:52:00,9,1,40,http://www.ripta.com/40,Weekday
17985,"""ELMGROVE NS UNIVERSITY""",41.833322,-71.390444,2396800,18:54:00,18:54:00,10,1,40,http://www.ripta.com/40,Weekday
18255,"""ELMGROVE NS PRESIDENT""",41.835144,-71.391098,2396800,18:54:00,18:54:00,11,1,40,http://www.ripta.com/40,Weekday
18530,"""ELMGROVE NS FREEMAN PKWAY""",41.837719,-71.391875,2396800,18:55:00,18:55:00,12,1,40,http://www.ripta.com/40,Weekday
59265,"""ELMGROVE NS SESSIONS""",41.841097,-71.392475,2396800,18:56:00,18:56:00,13,1,40,http://www.ripta.com/40,Weekday
18935,"""ELMGROVE FS SESSIONS""",41.84225,-71.392595,2396800,18:56:00,18:56:00,14,1,40,http://www.ripta.com/40,Weekday
55895,"""ELMGROVE NS WOODBURY""",41.845001,-71.391836,2396800,18:57:00,18:57:00,15,1,40,http://www.ripta.com/40,Weekday
19425,"""ELMGROVE NS ROCHAMBEAU""",41.846153,-71.391385,2396800,18:57:00,18:57:00,16,1,40,http://www.ripta.com/40,Weekday
19520,"""ROCHAMBEAU NS COLE""",41.845872,-71.389364,2396800,18:58:00,18:58:00,17,1,40,http://www.ripta.com/40,Weekday
19460,"""ROCHAMBEAU NS BLACKSTONE""",41.845541,-71.387306,2396800,18:58:00,18:58:00,18,1,40,http://www.ripta.com/40,Weekday
19530,"""BLACKSTONE FS ROCHAMBEAU""",41.846121,-71.386708,2396800,18:59:00,18:59:00,19,1,40,http://www.ripta.com/40,Weekday
19550,"""BUTLER HOSPITAL ACCESS RD FS BLACKSTONE""",41.845879,-71.383373,2396800,19:00:00,19:00:00,20,1,40,http://www.ripta.com/40,Weekday
19245,"""BUTLER HOSPITAL""",41.843352,-71.381404,2396800,19:01:00,19:01:00,21,1,40,http://www.ripta.com/40,Weekday
19245,"""BUTLER HOSPITAL""",41.843352,-71.381404,2396805,18:25:00,18:25:00,1,0,40,http://www.ripta.com/40,Weekday
19605,"""BUTLER HOSPITAL ACCESS RD NS BLACKSTONE""",41.845932,-71.383297,2396805,18:26:00,18:26:00,2,0,40,http://www.ripta.com/40,Weekday
19725,"""BLACKSTONE AT SWAN PT CEMETARY""",41.847884,-71.386777,2396805,18:27:00,18:27:00,3,0,40,http://www.ripta.com/40,Weekday
19815,"""BLACKSTONE AT POLE 105""",41.850485,-71.386864,2396805,18:27:00,18:27:00,4,0,40,http://www.ripta.com/40,Weekday
19930,"""BLACKSTONE AT POLE 107""",41.85142,-71.387072,2396805,18:27:00,18:27:00,5,0,40,http://www.ripta.com/40,Weekday
19905,"""BLACKSTONE FS HARWICH""",41.85,-71.387436,2396805,18:28:00,18:28:00,6,0,40,http://www.ripta.com/40,Weekday
19810,"""BLACKSTONE FS HARTFORD""",41.848629,-71.387392,2396805,18:28:00,18:28:00,7,0,40,http://www.ripta.com/40,Weekday
19735,"""BLACKSTONE AT 420 BLACKSTONE""",41.847545,-71.387336,2396805,18:28:00,18:28:00,8,0,40,http://www.ripta.com/40,Weekday
60025,"""BLACKSTONE NS ROCHAMBEAU""",41.845893,-71.387265,2396805,18:29:00,18:29:00,9,0,40,http://www.ripta.com/40,Weekday
58050,"""ROCHAMBEAU OPP 405 ROCHAMBEAU""",41.84606,-71.389531,2396805,18:29:00,18:29:00,10,0,40,http://www.ripta.com/40,Weekday
58060,"""ELMGROVE OPP 311 ELMGROVE""",41.845182,-71.391926,2396805,18:29:00,18:29:00,11,0,40,http://www.ripta.com/40,Weekday
58070,"""ELMGROVE OPP JEWISH CENTET""",41.842002,-71.392696,2396805,18:30:00,18:30:00,12,0,40,http://www.ripta.com/40,Weekday
58105,"""ELMGROVE OPP 341 ELMGROVE""",41.840439,-71.392572,2396805,18:30:00,18:30:00,13,0,40,http://www.ripta.com/40,Weekday
58110,"""ELMGROVE AT POLE 58""",41.837813,-71.392045,2396805,18:31:00,18:31:00,14,0,40,http://www.ripta.com/40,Weekday
58120,"""ELMGROVE AT 152 ELMGROVE""",41.834888,-71.391099,2396805,18:32:00,18:32:00,15,0,40,http://www.ripta.com/40,Weekday
60030,"""ELMGROVE NS ADELPHI""",41.830869,-71.389706,2396805,18:33:00,18:33:00,16,0,40,http://www.ripta.com/40,Weekday
17290,"""ANGELL FS ELMGROVE""",41.829826,-71.389833,2396805,18:33:00,18:33:00,17,0,40,http://www.ripta.com/40,Weekday
17170,"""ANGELL OPP IVES""",41.829218,-71.393025,2396805,18:34:00,18:34:00,18,0,40,http://www.ripta.com/40,Weekday
17100,"""ANGELL NS HOPE""",41.828462,-71.397302,2396805,18:35:00,18:35:00,19,0,40,http://www.ripta.com/40,Weekday
17085,"""ANGELL AT PRESCOTT LIBRARY""",41.828357,-71.398382,2396805,18:35:00,18:35:00,20,0,40,http://www.ripta.com/40,Weekday
17045,"""TUNNEL FS THAYER""",41.827682,-71.400886,2396805,18:36:00,18:36:00,21,0,40,http://www.ripta.com/40,Weekday
16890,"""TUNNEL NS S MAIN""",41.826842,-71.408585,2396805,18:38:00,18:38:00,22,0,40,http://www.ripta.com/40,Weekday
16590,"""KENNEDY PLAZA (STOP I)""",41.825407,-71.411262,2396805,18:40:00,18:40:00,23,0,40,http://www.ripta.com/40,Weekday
16590,"""KENNEDY PLAZA (STOP I)""",41.825407,-71.411262,2396817,17:45:00,17:45:00,1,1,40,http://www.ripta.com/40,Weekday
16855,"""TUNNEL FS S MAIN""",41.82678,-71.408541,2396817,17:47:00,17:47:00,2,1,40,http://www.ripta.com/40,Weekday
16905,"""TUNNEL NS THAYER""",41.827607,-71.400864,2396817,17:50:00,17:50:00,3,1,40,http://www.ripta.com/40,Weekday
16970,"""WATERMAN NS HOPE""",41.827592,-71.397452,2396817,17:51:00,17:51:00,4,1,40,http://www.ripta.com/40,Weekday
17000,"""WATERMAN FS GOVERNOR""",41.827639,-71.393764,2396817,17:52:00,17:52:00,5,1,40,http://www.ripta.com/40,Weekday
17055,"""WATERMAN FS GANO""",41.82823,-71.390443,2396817,17:53:00,17:53:00,6,1,40,http://www.ripta.com/40,Weekday
17135,"""WAYLAND FS WATERMAN""",41.828921,-71.388232,2396817,17:54:00,17:54:00,7,1,40,http://www.ripta.com/40,Weekday
17255,"""WAYLAND NS S ANGELL""",41.829991,-71.387948,2396817,17:54:00,17:54:00,8,1,40,http://www.ripta.com/40,Weekday
17285,"""ANGELL FS WAYLAND""",41.830134,-71.388391,2396817,17:55:00,17:55:00,9,1,40,http://www.ripta.com/40,Weekday
17985,"""ELMGROVE NS UNIVERSITY""",41.833322,-71.390444,2396817,17:56:00,17:56:00,10,1,40,http://www.ripta.com/40,Weekday
18255,"""ELMGROVE NS PRESIDENT""",41.835144,-71.391098,2396817,17:57:00,17:57:00,11,1,40,http://www.ripta.com/40,Weekday
18530,"""ELMGROVE NS FREEMAN PKWAY""",41.837719,-71.391875,2396817,17:57:00,17:57:00,12,1,40,http://www.ripta.com/40,Weekday
59265,"""ELMGROVE NS SESSIONS""",41.841097,-71.392475,2396817,17:59:00,17:59:00,13,1,40,http://www.ripta.com/40,Weekday
18935,"""ELMGROVE FS SESSIONS""",41.84225,-71.392595,2396817,17:59:00,17:59:00,14,1,40,http://www.ripta.com/40,Weekday
55895,"""ELMGROVE NS WOODBURY""",41.845001,-71.391836,2396817,18:00:00,18:00:00,15,1,40,http://www.ripta.com/40,Weekday
19425,"""ELMGROVE NS ROCHAMBEAU""",41.846153,-71.391385,2396817,18:00:00,18:00:00,16,1,40,http://www.ripta.com/40,Weekday
19520,"""ROCHAMBEAU NS COLE""",41.845872,-71.389364,2396817,18:01:00,18:01:00,17,1,40,http://www.ripta.com/40,Weekday
19460,"""ROCHAMBEAU NS BLACKSTONE""",41.845541,-71.387306,2396817,18:01:00,18:01:00,18,1,40,http://www.ripta.com/40,Weekday
19530,"""BLACKSTONE FS ROCHAMBEAU""",41.846121,-71.386708,2396817,18:02:00,18:02:00,19,1,40,http://www.ripta.com/40,Weekday
19550,"""BUTLER HOSPITAL ACCESS RD FS BLACKSTONE""",41.845879,-71.383373,2396817,18:03:00,18:03:00,20,1,40,http://www.ripta.com/40,Weekday
19245,"""BUTLER HOSPITAL""",41.843352,-71.381404,2396817,18:04:00,18:04:00,21,1,40,http://www.ripta.com/40,Weekday
19245,"""BUTLER HOSPITAL""",41.843352,-71.381404,2396826,17:25:00,17:25:00,1,0,40,http://www.ripta.com/40,Weekday
19605,"""BUTLER HOSPITAL ACCESS RD NS BLACKSTONE""",41.845932,-71.383297,2396826,17:26:00,17:26:00,2,0,40,http://www.ripta.com/40,Weekday
19725,"""BLACKSTONE AT SWAN PT CEMETARY""",41.847884,-71.386777,2396826,17:27:00,17:27:00,3,0,40,http://www.ripta.com/40,Weekday
19815,"""BLACKSTONE AT POLE 105""",41.850485,-71.386864,2396826,17:27:00,17:27:00,4,0,40,http://www.ripta.com/40,Weekday
19930,"""BLACKSTONE AT POLE 107""",41.85142,-71.387072,2396826,17:27:00,17:27:00,5,0,40,http://www.ripta.com/40,Weekday
19905,"""BLACKSTONE FS HARWICH""",41.85,-71.387436,2396826,17:28:00,17:28:00,6,0,40,http://www.ripta.com/40,Weekday
19810,"""BLACKSTONE FS HARTFORD""",41.848629,-71.387392,2396826,17:28:00,17:28:00,7,0,40,http://www.ripta.com/40,Weekday
19735,"""BLACKSTONE AT 420 BLACKSTONE""",41.847545,-71.387336,2396826,17:28:00,17:28:00,8,0,40,http://www.ripta.com/40,Weekday
60025,"""BLACKSTONE NS ROCHAMBEAU""",41.845893,-71.387265,2396826,17:29:00,17:29:00,9,0,40,http://www.ripta.com/40,Weekday
58050,"""ROCHAMBEAU OPP 405 ROCHAMBEAU""",41.84606,-71.389531,2396826,17:29:00,17:29:00,10,0,40,http://www.ripta.com/40,Weekday
58060,"""ELMGROVE OPP 311 ELMGROVE""",41.845182,-71.391926,2396826,17:29:00,17:29:00,11,0,40,http://www.ripta.com/40,Weekday
58070,"""ELMGROVE OPP JEWISH CENTET""",41.842002,-71.392696,2396826,17:30:00,17:30:00,12,0,40,http://www.ripta.com/40,Weekday
58105,"""ELMGROVE OPP 341 ELMGROVE""",41.840439,-71.392572,2396826,17:31:00,17:31:00,13,0,40,http://www.ripta.com/40,Weekday
58110,"""ELMGROVE AT POLE 58""",41.837813,-71.392045,2396826,17:31:00,17:31:00,14,0,40,http://www.ripta.com/40,Weekday
58120,"""ELMGROVE AT 152 ELMGROVE""",41.834888,-71.391099,2396826,17:33:00,17:33:00,15,0,40,http://www.ripta.com/40,Weekday
60030,"""ELMGROVE NS ADELPHI""",41.830869,-71.389706,2396826,17:34:00,17:34:00,16,0,40,http://www.ripta.com/40,Weekday
17290,"""ANGELL FS ELMGROVE""",41.829826,-71.389833,2396826,17:35:00,17:35:00,17,0,40,http://www.ripta.com/40,Weekday
17170,"""ANGELL OPP IVES""",41.829218,-71.393025,2396826,17:35:00,17:35:00,18,0,40,http://www.ripta.com/40,Weekday
17100,"""ANGELL NS HOPE""",41.828462,-71.397302,2396826,17:37:00,17:37:00,19,0,40,http://www.ripta.com/40,Weekday
17085,"""ANGELL AT PRESCOTT LIBRARY""",41.828357,-71.398382,2396826,17:37:00,17:37:00,20,0,40,http://www.ripta.com/40,Weekday
17045,"""TUNNEL FS THAYER""",41.827682,-71.400886,2396826,17:38:00,17:38:00,21,0,40,http://www.ripta.com/40,Weekday
16890,"""TUNNEL NS S MAIN""",41.826842,-71.408585,2396826,17:40:00,17:40:00,22,0,40,http://www.ripta.com/40,Weekday
16590,"""KENNEDY PLAZA (STOP I)""",41.825407,-71.411262,2396826,17:43:00,17:43:00,23,0,40,http://www.ripta.com/40,Weekday
16590,"""KENNEDY PLAZA (STOP I)""",41.825407,-71.411262,2396835,16:45:00,16:45:00,1,1,40,http://www.ripta.com/40,Weekday
16855,"""TUNNEL FS S MAIN""",41.82678,-71.408541,2396835,16:47:00,16:47:00,2,1,40,http://www.ripta.com/40,Weekday
16905,"""TUNNEL NS THAYER""",41.827607,-71.400864,2396835,16:50:00,16:50:00,3,1,40,http://www.ripta.com/40,Weekday
16970,"""WATERMAN NS HOPE""",41.827592,-71.397452,2396835,16:51:00,16:51:00,4,1,40,http://www.ripta.com/40,Weekday
17000,"""WATERMAN FS GOVERNOR""",41.827639,-71.393764,2396835,16:52:00,16:52:00,5,1,40,http://www.ripta.com/40,Weekday
17055,"""WATERMAN FS GANO""",41.82823,-71.390443,2396835,16:53:00,16:53:00,6,1,40,http://www.ripta.com/40,Weekday
17135,"""WAYLAND FS WATERMAN""",41.828921,-71.388232,2396835,16:54:00,16:54:00,7,1,40,http://www.ripta.com/40,Weekday
17255,"""WAYLAND NS S ANGELL""",41.829991,-71.387948,2396835,16:54:00,16:54:00,8,1,40,http://www.ripta.com/40,Weekday
17285,"""ANGELL FS WAYLAND""",41.830134,-71.388391,2396835,16:55:00,16:55:00,9,1,40,http://www.ripta.com/40,Weekday
17985,"""ELMGROVE NS UNIVERSITY""",41.833322,-71.390444,2396835,16:56:00,16:56:00,10,1,40,http://www.ripta.com/40,Weekday
18255,"""ELMGROVE NS PRESIDENT""",41.835144,-71.391098,2396835,16:57:00,16:57:00,11,1,40,http://www.ripta.com/40,Weekday
18530,"""ELMGROVE NS FREEMAN PKWAY""",41.837719,-71.391875,2396835,16:57:00,16:57:00,12,1,40,http://www.ripta.com/40,Weekday
59265,"""ELMGROVE NS SESSIONS""",41.841097,-71.392475,2396835,16:59:00,16:59:00,13,1,40,http://www.ripta.com/40,Weekday
18935,"""ELMGROVE FS SESSIONS""",41.84225,-71.392595,2396835,16:59:00,16:59:00,14,1,40,http://www.ripta.com/40,Weekday
55895,"""ELMGROVE NS WOODBURY""",41.845001,-71.391836,2396835,17:00:00,17:00:00,15,1,40,http://www.ripta.com/40,Weekday
19425,"""ELMGROVE NS ROCHAMBEAU""",41.846153,-71.391385,2396835,17:00:00,17:00:00,16,1,40,http://www.ripta.com/40,Weekday
19520,"""ROCHAMBEAU NS COLE""",41.845872,-71.389364,2396835,17:01:00,17:01:00,17,1,40,http://www.ripta.com/40,Weekday
19460,"""ROCHAMBEAU NS BLACKSTONE""",41.845541,-71.387306,2396835,17:01:00,17:01:00,18,1,40,http://www.ripta.com/40,Weekday
19530,"""BLACKSTONE FS ROCHAMBEAU""",41.846121,-71.386708,2396835,17:02:00,17:02:00,19,1,40,http://www.ripta.com/40,Weekday
19550,"""BUTLER HOSPITAL ACCESS RD FS BLACKSTONE""",41.845879,-71.383373,2396835,17:03:00,17:03:00,20,1,40,http://www.ripta.com/40,Weekday
19245,"""BUTLER HOSPITAL""",41.843352,-71.381404,2396835,17:04:00,17:04:00,21,1,40,http://www.ripta.com/40,Weekday
19245,"""BUTLER HOSPITAL""",41.843352,-71.381404,2396846,16:25:00,16:25:00,1,0,40,http://www.ripta.com/40,Weekday
19605,"""BUTLER HOSPITAL ACCESS RD NS BLACKSTONE""",41.845932,-71.383297,2396846,16:26:00,16:26:00,2,0,40,http://www.ripta.com/40,Weekday
19725,"""BLACKSTONE AT SWAN PT CEMETARY""",41.847884,-71.386777,2396846,16:27:00,16:27:00,3,0,40,http://www.ripta.com/40,Weekday
19815,"""BLACKSTONE AT POLE 105""",41.850485,-71.386864,2396846,16:27:00,16:27:00,4,0,40,http://www.ripta.com/40,Weekday
19930,"""BLACKSTONE AT POLE 107""",41.85142,-71.387072,2396846,16:27:00,16:27:00,5,0,40,http://www.ripta.com/40,Weekday
19905,"""BLACKSTONE FS HARWICH""",41.85,-71.387436,2396846,16:28:00,16:28:00,6,0,40,http://www.ripta.com/40,Weekday
19810,"""BLACKSTONE FS HARTFORD""",41.848629,-71.387392,2396846,16:28:00,16:28:00,7,0,40,http://www.ripta.com/40,Weekday
19735,"""BLACKSTONE AT 420 BLACKSTONE""",41.847545,-71.387336,2396846,16:28:00,16:28:00,8,0,40,http://www.ripta.com/40,Weekday
60025,"""BLACKSTONE NS ROCHAMBEAU""",41.845893,-71.387265,2396846,16:29:00,16:29:00,9,0,40,http://www.ripta.com/40,Weekday
58050,"""ROCHAMBEAU OPP 405 ROCHAMBEAU""",41.84606,-71.389531,2396846,16:29:00,16:29:00,10,0,40,http://www.ripta.com/40,Weekday
58060,"""ELMGROVE OPP 311 ELMGROVE""",41.845182,-71.391926,2396846,16:29:00,16:29:00,11,0,40,http://www.ripta.com/40,Weekday
58070,"""ELMGROVE OPP JEWISH CENTET""",41.842002,-71.392696,2396846,16:30:00,16:30:00,12,0,40,http://www.ripta.com/40,Weekday
58105,"""ELMGROVE OPP 341 ELMGROVE""",41.840439,-71.392572,2396846,16:31:00,16:31:00,13,0,40,http://www.ripta.com/40,Weekday
58110,"""ELMGROVE AT POLE 58""",41.837813,-71.392045,2396846,16:31:00,16:31:00,14,0,40,http://www.ripta.com/40,Weekday
58120,"""ELMGROVE AT 152 ELMGROVE""",41.834888,-71.391099,2396846,16:33:00,16:33:00,15,0,40,http://www.ripta.com/40,Weekday
60030,"""ELMGROVE NS ADELPHI""",41.830869,-71.389706,2396846,16:34:00,16:34:00,16,0,40,http://www.ripta.com/40,Weekday
17290,"""ANGELL FS ELMGROVE""",41.829826,-71.389833,2396846,16:35:00,16:35:00,17,0,40,http://www.ripta.com/40,Weekday
17170,"""ANGELL OPP IVES""",41.829218,-71.393025,2396846,16:35:00,16:35:00,18,0,40,http://www.ripta.com/40,Weekday
17100,"""ANGELL NS HOPE""",41.828462,-71.397302,2396846,16:37:00,16:37:00,19,0,40,http://www.ripta.com/40,Weekday
17085,"""ANGELL AT PRESCOTT LIBRARY""",41.828357,-71.398382,2396846,16:37:00,16:37:00,20,0,40,http://www.ripta.com/40,Weekday
17045,"""TUNNEL FS THAYER""",41.827682,-71.400886,2396846,16:38:00,16:38:00,21,0,40,http://www.ripta.com/40,Weekday
16890,"""TUNNEL NS S MAIN""",41.826842,-71.408585,2396846,16:40:00,16:40:00,22,0,40,http://www.ripta.com/40,Weekday
16590,"""KENNEDY PLAZA (STOP I)""",41.825407,-71.411262,2396846,16:43:00,16:43:00,23,0,40,http://www.ripta.com/40,Weekday
16590,"""KENNEDY PLAZA (STOP I)""",41.825407,-71.411262,2396854,15:45:00,15:45:00,1,1,40,http://www.ripta.com/40,Weekday
16855,"""TUNNEL FS S MAIN""",41.82678,-71.408541,2396854,15:47:00,15:47:00,2,1,40,http://www.ripta.com/40,Weekday
16905,"""TUNNEL NS THAYER""",41.827607,-71.400864,2396854,15:50:00,15:50:00,3,1,40,http://www.ripta.com/40,Weekday
16970,"""WATERMAN NS HOPE""",41.827592,-71.397452,2396854,15:51:00,15:51:00,4,1,40,http://www.ripta.com/40,Weekday
17000,"""WATERMAN FS GOVERNOR""",41.827639,-71.393764,2396854,15:52:00,15:52:00,5,1,40,http://www.ripta.com/40,Weekday
17055,"""WATERMAN FS GANO""",41.82823,-71.390443,2396854,15:53:00,15:53:00,6,1,40,http://www.ripta.com/40,Weekday
17135,"""WAYLAND FS WATERMAN""",41.828921,-71.388232,2396854,15:54:00,15:54:00,7,1,40,http://www.ripta.com/40,Weekday
17255,"""WAYLAND NS S ANGELL""",41.829991,-71.387948,2396854,15:54:00,15:54:00,8,1,40,http://www.ripta.com/40,Weekday
17285,"""ANGELL FS WAYLAND""",41.830134,-71.388391,2396854,15:55:00,15:55:00,9,1,40,http://www.ripta.com/40,Weekday
17985,"""ELMGROVE NS UNIVERSITY""",41.833322,-71.390444,2396854,15:56:00,15:56:00,10,1,40,http://www.ripta.com/40,Weekday
18255,"""ELMGROVE NS PRESIDENT""",41.835144,-71.391098,2396854,15:57:00,15:57:00,11,1,40,http://www.ripta.com/40,Weekday
18530,"""ELMGROVE NS FREEMAN PKWAY""",41.837719,-71.391875,2396854,15:57:00,15:57:00,12,1,40,http://www.ripta.com/40,Weekday
59265,"""ELMGROVE NS SESSIONS""",41.841097,-71.392475,2396854,15:59:00,15:59:00,13,1,40,http://www.ripta.com/40,Weekday
18935,"""ELMGROVE FS SESSIONS""",41.84225,-71.392595,2396854,15:59:00,15:59:00,14,1,40,http://www.ripta.com/40,Weekday
55895,"""ELMGROVE NS WOODBURY""",41.845001,-71.391836,2396854,16:00:00,16:00:00,15,1,40,http://www.ripta.com/40,Weekday
19425,"""ELMGROVE NS ROCHAMBEAU""",41.846153,-71.391385,2396854,16:00:00,16:00:00,16,1,40,http://www.ripta.com/40,Weekday
19520,"""ROCHAMBEAU NS COLE""",41.845872,-71.389364,2396854,16:01:00,16:01:00,17,1,40,http://www.ripta.com/40,Weekday
19460,"""ROCHAMBEAU NS BLACKSTONE""",41.845541,-71.387306,2396854,16:01:00,16:01:00,18,1,40,http://www.ripta.com/40,Weekday
19530,"""BLACKSTONE FS ROCHAMBEAU""",41.846121,-71.386708,2396854,16:02:00,16:02:00,19,1,40,http://www.ripta.com/40,Weekday
19550,"""BUTLER HOSPITAL ACCESS RD FS BLACKSTONE""",41.845879,-71.383373,2396854,16:03:00,16:03:00,20,1,40,http://www.ripta.com/40,Weekday
19245,"""BUTLER HOSPITAL""",41.843352,-71.381404,2396854,16:04:00,16:04:00,21,1,40,http://www.ripta.com/40,Weekday
19245,"""BUTLER HOSPITAL""",41.843352,-71.381404,2396867,15:25:00,15:25:00,1,0,40,http://www.ripta.com/40,Weekday
19605,"""BUTLER HOSPITAL ACCESS RD NS BLACKSTONE""",41.845932,-71.383297,2396867,15:26:00,15:26:00,2,0,40,http://www.ripta.com/40,Weekday
19725,"""BLACKSTONE AT SWAN PT CEMETARY""",41.847884,-71.386777,2396867,15:27:00,15:27:00,3,0,40,http://www.ripta.com/40,Weekday
19815,"""BLACKSTONE AT POLE 105""",41.850485,-71.386864,2396867,15:27:00,15:27:00,4,0,40,http://www.ripta.com/40,Weekday
19930,"""BLACKSTONE AT POLE 107""",41.85142,-71.387072,2396867,15:27:00,15:27:00,5,0,40,http://www.ripta.com/40,Weekday
19905,"""BLACKSTONE FS HARWICH""",41.85,-71.387436,2396867,15:28:00,15:28:00,6,0,40,http://www.ripta.com/40,Weekday
19810,"""BLACKSTONE FS HARTFORD""",41.848629,-71.387392,2396867,15:28:00,15:28:00,7,0,40,http://www.ripta.com/40,Weekday
19735,"""BLACKSTONE AT 420 BLACKSTONE""",41.847545,-71.387336,2396867,15:28:00,15:28:00,8,0,40,http://www.ripta.com/40,Weekday
60025,"""BLACKSTONE NS ROCHAMBEAU""",41.845893,-71.387265,2396867,15:29:00,15:29:00,9,0,40,http://www.ripta.com/40,Weekday
58050,"""ROCHAMBEAU OPP 405 ROCHAMBEAU""",41.84606,-71.389531,2396867,15:29:00,15:29:00,10,0,40,http://www.ripta.com/40,Weekday
58060,"""ELMGROVE OPP 311 ELMGROVE""",41.845182,-71.391926,2396867,15:29:00,15:29:00,11,0,40,http://www.ripta.com/40,Weekday
58070,"""ELMGROVE OPP JEWISH CENTET""",41.842002,-71.392696,2396867,15:30:00,15:30:00,12,0,40,http://www.ripta.com/40,Weekday
58105,"""ELMGROVE OPP 341 ELMGROVE""",41.840439,-71.392572,2396867,15:31:00,15:31:00,13,0,40,http://www.ripta.com/40,Weekday
58110,"""ELMGROVE AT POLE 58""",41.837813,-71.392045,2396867,15:31:00,15:31:00,14,0,40,http://www.ripta.com/40,Weekday
58120,"""ELMGROVE AT 152 ELMGROVE""",41.834888,-71.391099,2396867,15:33:00,15:33:00,15,0,40,http://www.ripta.com/40,Weekday
60030,"""ELMGROVE NS ADELPHI""",41.830869,-71.389706,2396867,15:34:00,15:34:00,16,0,40,http://www.ripta.com/40,Weekday
17290,"""ANGELL FS ELMGROVE""",41.829826,-71.389833,2396867,15:35:00,15:35:00,17,0,40,http://www.ripta.com/40,Weekday
17170,"""ANGELL OPP IVES""",41.829218,-71.393025,2396867,15:35:00,15:35:00,18,0,40,http://www.ripta.com/40,Weekday
17100,"""ANGELL NS HOPE""",41.828462,-71.397302,2396867,15:37:00,15:37:00,19,0,40,http://www.ripta.com/40,Weekday
17085,"""ANGELL AT PRESCOTT LIBRARY""",41.828357,-71.398382,2396867,15:37:00,15:37:00,20,0,40,http://www.ripta.com/40,Weekday
17045,"""TUNNEL FS THAYER""",41.827682,-71.400886,2396867,15:38:00,15:38:00,21,0,40,http://www.ripta.com/40,Weekday
16890,"""TUNNEL NS S MAIN""",41.826842,-71.408585,2396867,15:40:00,15:40:00,22,0,40,http://www.ripta.com/40,Weekday
16590,"""KENNEDY PLAZA (STOP I)""",41.825407,-71.411262,2396867,15:43:00,15:43:00,23,0,40,http://www.ripta.com/40,Weekday
16590,"""KENNEDY PLAZA (STOP I)""",41.825407,-71.411262,2396873,14:45:00,14:45:00,1,1,40,http://www.ripta.com/40,Weekday
16855,"""TUNNEL FS S MAIN""",41.82678,-71.408541,2396873,14:47:00,14:47:00,2,1,40,http://www.ripta.com/40,Weekday
16905,"""TUNNEL NS THAYER""",41.827607,-71.400864,2396873,14:50:00,14:50:00,3,1,40,http://www.ripta.com/40,Weekday
16970,"""WATERMAN NS HOPE""",41.827592,-71.397452,2396873,14:51:00,14:51:00,4,1,40,http://www.ripta.com/40,Weekday
17000,"""WATERMAN FS GOVERNOR""",41.827639,-71.393764,2396873,14:52:00,14:52:00,5,1,40,http://www.ripta.com/40,Weekday
17055,"""WATERMAN FS GANO""",41.82823,-71.390443,2396873,14:53:00,14:53:00,6,1,40,http://www.ripta.com/40,Weekday
17135,"""WAYLAND FS WATERMAN""",41.828921,-71.388232,2396873,14:54:00,14:54:00,7,1,40,http://www.ripta.com/40,Weekday
17255,"""WAYLAND NS S ANGELL""",41.829991,-71.387948,2396873,14:54:00,14:54:00,8,1,40,http://www.ripta.com/40,Weekday
17285,"""ANGELL FS WAYLAND""",41.830134,-71.388391,2396873,14:55:00,14:55:00,9,1,40,http://www.ripta.com/40,Weekday
17985,"""ELMGROVE NS UNIVERSITY""",41.833322,-71.390444,2396873,14:56:00,14:56:00,10,1,40,http://www.ripta.com/40,Weekday
18255,"""ELMGROVE NS PRESIDENT""",41.835144,-71.391098,2396873,14:57:00,14:57:00,11,1,40,http://www.ripta.com/40,Weekday
18530,"""ELMGROVE NS FREEMAN PKWAY""",41.837719,-71.391875,2396873,14:57:00,14:57:00,12,1,40,http://www.ripta.com/40,Weekday
59265,"""ELMGROVE NS SESSIONS""",41.841097,-71.392475,2396873,14:59:00,14:59:00,13,1,40,http://www.ripta.com/40,Weekday
18935,"""ELMGROVE FS SESSIONS""",41.84225,-71.392595,2396873,14:59:00,14:59:00,14,1,40,http://www.ripta.com/40,Weekday
55895,"""ELMGROVE NS WOODBURY""",41.845001,-71.391836,2396873,15:00:00,15:00:00,15,1,40,http://www.ripta.com/40,Weekday
19425,"""ELMGROVE NS ROCHAMBEAU""",41.846153,-71.391385,2396873,15:00:00,15:00:00,16,1,40,http://www.ripta.com/40,Weekday
19520,"""ROCHAMBEAU NS COLE""",41.845872,-71.389364,2396873,15:01:00,15:01:00,17,1,40,http://www.ripta.com/40,Weekday
19460,"""ROCHAMBEAU NS BLACKSTONE""",41.845541,-71.387306,2396873,15:01:00,15:01:00,18,1,40,http://www.ripta.com/40,Weekday
19530,"""BLACKSTONE FS ROCHAMBEAU""",41.846121,-71.386708,2396873,15:02:00,15:02:00,19,1,40,http://www.ripta.com/40,Weekday
19550,"""BUTLER HOSPITAL ACCESS RD FS BLACKSTONE""",41.845879,-71.383373,2396873,15:03:00,15:03:00,20,1,40,http://www.ripta.com/40,Weekday
19245,"""BUTLER HOSPITAL""",41.843352,-71.381404,2396873,15:04:00,15:04:00,21,1,40,http://www.ripta.com/40,Weekday
19245,"""BUTLER HOSPITAL""",41.843352,-71.381404,2396884,14:25:00,14:25:00,1,0,40,http://www.ripta.com/40,Weekday
19605,"""BUTLER HOSPITAL ACCESS RD NS BLACKSTONE""",41.845932,-71.383297,2396884,14:26:00,14:26:00,2,0,40,http://www.ripta.com/40,Weekday
19725,"""BLACKSTONE AT SWAN PT CEMETARY""",41.847884,-71.386777,2396884,14:27:00,14:27:00,3,0,40,http://www.ripta.com/40,Weekday
19815,"""BLACKSTONE AT POLE 105""",41.850485,-71.386864,2396884,14:27:00,14:27:00,4,0,40,http://www.ripta.com/40,Weekday
19930,"""BLACKSTONE AT POLE 107""",41.85142,-71.387072,2396884,14:27:00,14:27:00,5,0,40,http://www.ripta.com/40,Weekday
19905,"""BLACKSTONE FS HARWICH""",41.85,-71.387436,2396884,14:28:00,14:28:00,6,0,40,http://www.ripta.com/40,Weekday
19810,"""BLACKSTONE FS HARTFORD""",41.848629,-71.387392,2396884,14:28:00,14:28:00,7,0,40,http://www.ripta.com/40,Weekday
19735,"""BLACKSTONE AT 420 BLACKSTONE""",41.847545,-71.387336,2396884,14:28:00,14:28:00,8,0,40,http://www.ripta.com/40,Weekday
60025,"""BLACKSTONE NS ROCHAMBEAU""",41.845893,-71.387265,2396884,14:29:00,14:29:00,9,0,40,http://www.ripta.com/40,Weekday
58050,"""ROCHAMBEAU OPP 405 ROCHAMBEAU""",41.84606,-71.389531,2396884,14:29:00,14:29:00,10,0,40,http://www.ripta.com/40,Weekday
58060,"""ELMGROVE OPP 311 ELMGROVE""",41.845182,-71.391926,2396884,14:29:00,14:29:00,11,0,40,http://www.ripta.com/40,Weekday
58070,"""ELMGROVE OPP JEWISH CENTET""",41.842002,-71.392696,2396884,14:30:00,14:30:00,12,0,40,http://www.ripta.com/40,Weekday
58105,"""ELMGROVE OPP 341 ELMGROVE""",41.840439,-71.392572,2396884,14:31:00,14:31:00,13,0,40,http://www.ripta.com/40,Weekday
58110,"""ELMGROVE AT POLE 58""",41.837813,-71.392045,2396884,14:31:00,14:31:00,14,0,40,http://www.ripta.com/40,Weekday
58120,"""ELMGROVE AT 152 ELMGROVE""",41.834888,-71.391099,2396884,14:33:00,14:33:00,15,0,40,http://www.ripta.com/40,Weekday
60030,"""ELMGROVE NS ADELPHI""",41.830869,-71.389706,2396884,14:34:00,14:34:00,16,0,40,http://www.ripta.com/40,Weekday
17290,"""ANGELL FS ELMGROVE""",41.829826,-71.389833,2396884,14:35:00,14:35:00,17,0,40,http://www.ripta.com/40,Weekday
17170,"""ANGELL OPP IVES""",41.829218,-71.393025,2396884,14:35:00,14:35:00,18,0,40,http://www.ripta.com/40,Weekday
17100,"""ANGELL NS HOPE""",41.828462,-71.397302,2396884,14:37:00,14:37:00,19,0,40,http://www.ripta.com/40,Weekday
17085,"""ANGELL AT PRESCOTT LIBRARY""",41.828357,-71.398382,2396884,14:37:00,14:37:00,20,0,40,http://www.ripta.com/40,Weekday
17045,"""TUNNEL FS THAYER""",41.827682,-71.400886,2396884,14:38:00,14:38:00,21,0,40,http://www.ripta.com/40,Weekday
16890,"""TUNNEL NS S MAIN""",41.826842,-71.408585,2396884,14:40:00,14:40:00,22,0,40,http://www.ripta.com/40,Weekday
16590,"""KENNEDY PLAZA (STOP I)""",41.825407,-71.411262,2396884,14:43:00,14:43:00,23,0,40,http://www.ripta.com/40,Weekday
16590,"""KENNEDY PLAZA (STOP I)""",41.825407,-71.411262,2396897,13:45:00,13:45:00,1,1,40,http://www.ripta.com/40,Weekday
16855,"""TUNNEL FS S MAIN""",41.82678,-71.408541,2396897,13:47:00,13:47:00,2,1,40,http://www.ripta.com/40,Weekday
16905,"""TUNNEL NS THAYER""",41.827607,-71.400864,2396897,13:50:00,13:50:00,3,1,40,http://www.ripta.com/40,Weekday
16970,"""WATERMAN NS HOPE""",41.827592,-71.397452,2396897,13:51:00,13:51:00,4,1,40,http://www.ripta.com/40,Weekday
17000,"""WATERMAN FS GOVERNOR""",41.827639,-71.393764,2396897,13:52:00,13:52:00,5,1,40,http://www.ripta.com/40,Weekday
17055,"""WATERMAN FS GANO""",41.82823,-71.390443,2396897,13:53:00,13:53:00,6,1,40,http://www.ripta.com/40,Weekday
17135,"""WAYLAND FS WATERMAN""",41.828921,-71.388232,2396897,13:54:00,13:54:00,7,1,40,http://www.ripta.com/40,Weekday
17255,"""WAYLAND NS S ANGELL""",41.829991,-71.387948,2396897,13:54:00,13:54:00,8,1,40,http://www.ripta.com/40,Weekday
17285,"""ANGELL FS WAYLAND""",41.830134,-71.388391,2396897,13:55:00,13:55:00,9,1,40,http://www.ripta.com/40,Weekday
17985,"""ELMGROVE NS UNIVERSITY""",41.833322,-71.390444,2396897,13:56:00,13:56:00,10,1,40,http://www.ripta.com/40,Weekday
18255,"""ELMGROVE NS PRESIDENT""",41.835144,-71.391098,2396897,13:57:00,13:57:00,11,1,40,http://www.ripta.com/40,Weekday
18530,"""ELMGROVE NS FREEMAN PKWAY""",41.837719,-71.391875,2396897,13:57:00,13:57:00,12,1,40,http://www.ripta.com/40,Weekday
59265,"""ELMGROVE NS SESSIONS""",41.841097,-71.392475,2396897,13:59:00,13:59:00,13,1,40,http://www.ripta.com/40,Weekday
18935,"""ELMGROVE FS SESSIONS""",41.84225,-71.392595,2396897,13:59:00,13:59:00,14,1,40,http://www.ripta.com/40,Weekday
55895,"""ELMGROVE NS WOODBURY""",41.845001,-71.391836,2396897,14:00:00,14:00:00,15,1,40,http://www.ripta.com/40,Weekday
19425,"""ELMGROVE NS ROCHAMBEAU""",41.846153,-71.391385,2396897,14:00:00,14:00:00,16,1,40,http://www.ripta.com/40,Weekday
19520,"""ROCHAMBEAU NS COLE""",41.845872,-71.389364,2396897,14:01:00,14:01:00,17,1,40,http://www.ripta.com/40,Weekday
19460,"""ROCHAMBEAU NS BLACKSTONE""",41.845541,-71.387306,2396897,14:01:00,14:01:00,18,1,40,http://www.ripta.com/40,Weekday
19530,"""BLACKSTONE FS ROCHAMBEAU""",41.846121,-71.386708,2396897,14:02:00,14:02:00,19,1,40,http://www.ripta.com/40,Weekday
19550,"""BUTLER HOSPITAL ACCESS RD FS BLACKSTONE""",41.845879,-71.383373,2396897,14:03:00,14:03:00,20,1,40,http://www.ripta.com/40,Weekday
19245,"""BUTLER HOSPITAL""",41.843352,-71.381404,2396897,14:04:00,14:04:00,21,1,40,http://www.ripta.com/40,Weekday
19245,"""BUTLER HOSPITAL""",41.843352,-71.381404,2396904,13:25:00,13:25:00,1,0,40,http://www.ripta.com/40,Weekday
19605,"""BUTLER HOSPITAL ACCESS RD NS BLACKSTONE""",41.845932,-71.383297,2396904,13:26:00,13:26:00,2,0,40,http://www.ripta.com/40,Weekday
19725,"""BLACKSTONE AT SWAN PT CEMETARY""",41.847884,-71.386777,2396904,13:27:00,13:27:00,3,0,40,http://www.ripta.com/40,Weekday
19815,"""BLACKSTONE AT POLE 105""",41.850485,-71.386864,2396904,13:27:00,13:27:00,4,0,40,http://www.ripta.com/40,Weekday
19930,"""BLACKSTONE AT POLE 107""",41.85142,-71.387072,2396904,13:27:00,13:27:00,5,0,40,http://www.ripta.com/40,Weekday
19905,"""BLACKSTONE FS HARWICH""",41.85,-71.387436,2396904,13:28:00,13:28:00,6,0,40,http://www.ripta.com/40,Weekday
19810,"""BLACKSTONE FS HARTFORD""",41.848629,-71.387392,2396904,13:28:00,13:28:00,7,0,40,http://www.ripta.com/40,Weekday
19735,"""BLACKSTONE AT 420 BLACKSTONE""",41.847545,-71.387336,2396904,13:28:00,13:28:00,8,0,40,http://www.ripta.com/40,Weekday
60025,"""BLACKSTONE NS ROCHAMBEAU""",41.845893,-71.387265,2396904,13:29:00,13:29:00,9,0,40,http://www.ripta.com/40,Weekday
58050,"""ROCHAMBEAU OPP 405 ROCHAMBEAU""",41.84606,-71.389531,2396904,13:29:00,13:29:00,10,0,40,http://www.ripta.com/40,Weekday
58060,"""ELMGROVE OPP 311 ELMGROVE""",41.845182,-71.391926,2396904,13:29:00,13:29:00,11,0,40,http://www.ripta.com/40,Weekday
58070,"""ELMGROVE OPP JEWISH CENTET""",41.842002,-71.392696,2396904,13:30:00,13:30:00,12,0,40,http://www.ripta.com/40,Weekday
58105,"""ELMGROVE OPP 341 ELMGROVE""",41.840439,-71.392572,2396904,13:31:00,13:31:00,13,0,40,http://www.ripta.com/40,Weekday
58110,"""ELMGROVE AT POLE 58""",41.837813,-71.392045,2396904,13:31:00,13:31:00,14,0,40,http://www.ripta.com/40,Weekday
58120,"""ELMGROVE AT 152 ELMGROVE""",41.834888,-71.391099,2396904,13:33:00,13:33:00,15,0,40,http://www.ripta.com/40,Weekday
60030,"""ELMGROVE NS ADELPHI""",41.830869,-71.389706,2396904,13:34:00,13:34:00,16,0,40,http://www.ripta.com/40,Weekday
17290,"""ANGELL FS ELMGROVE""",41.829826,-71.389833,2396904,13:35:00,13:35:00,17,0,40,http://www.ripta.com/40,Weekday
17170,"""ANGELL OPP IVES""",41.829218,-71.393025,2396904,13:35:00,13:35:00,18,0,40,http://www.ripta.com/40,Weekday
17100,"""ANGELL NS HOPE""",41.828462,-71.397302,2396904,13:37:00,13:37:00,19,0,40,http://www.ripta.com/40,Weekday
17085,"""ANGELL AT PRESCOTT LIBRARY""",41.828357,-71.398382,2396904,13:37:00,13:37:00,20,0,40,http://www.ripta.com/40,Weekday
17045,"""TUNNEL FS THAYER""",41.827682,-71.400886,2396904,13:38:00,13:38:00,21,0,40,http://www.ripta.com/40,Weekday
16890,"""TUNNEL NS S MAIN""",41.826842,-71.408585,2396904,13:40:00,13:40:00,22,0,40,http://www.ripta.com/40,Weekday
16590,"""KENNEDY PLAZA (STOP I)""",41.825407,-71.411262,2396904,13:43:00,13:43:00,23,0,40,http://www.ripta.com/40,Weekday
16590,"""KENNEDY PLAZA (STOP I)""",41.825407,-71.411262,2396911,12:45:00,12:45:00,1,1,40,http://www.ripta.com/40,Weekday
16855,"""TUNNEL FS S MAIN""",41.82678,-71.408541,2396911,12:47:00,12:47:00,2,1,40,http://www.ripta.com/40,Weekday
16905,"""TUNNEL NS THAYER""",41.827607,-71.400864,2396911,12:50:00,12:50:00,3,1,40,http://www.ripta.com/40,Weekday
16970,"""WATERMAN NS HOPE""",41.827592,-71.397452,2396911,12:51:00,12:51:00,4,1,40,http://www.ripta.com/40,Weekday
17000,"""WATERMAN FS GOVERNOR""",41.827639,-71.393764,2396911,12:52:00,12:52:00,5,1,40,http://www.ripta.com/40,Weekday
17055,"""WATERMAN FS GANO""",41.82823,-71.390443,2396911,12:53:00,12:53:00,6,1,40,http://www.ripta.com/40,Weekday
17135,"""WAYLAND FS WATERMAN""",41.828921,-71.388232,2396911,12:54:00,12:54:00,7,1,40,http://www.ripta.com/40,Weekday
17255,"""WAYLAND NS S ANGELL""",41.829991,-71.387948,2396911,12:54:00,12:54:00,8,1,40,http://www.ripta.com/40,Weekday
17285,"""ANGELL FS WAYLAND""",41.830134,-71.388391,2396911,12:55:00,12:55:00,9,1,40,http://www.ripta.com/40,Weekday
17985,"""ELMGROVE NS UNIVERSITY""",41.833322,-71.390444,2396911,12:56:00,12:56:00,10,1,40,http://www.ripta.com/40,Weekday
18255,"""ELMGROVE NS PRESIDENT""",41.835144,-71.391098,2396911,12:57:00,12:57:00,11,1,40,http://www.ripta.com/40,Weekday
18530,"""ELMGROVE NS FREEMAN PKWAY""",41.837719,-71.391875,2396911,12:57:00,12:57:00,12,1,40,http://www.ripta.com/40,Weekday
59265,"""ELMGROVE NS SESSIONS""",41.841097,-71.392475,2396911,12:59:00,12:59:00,13,1,40,http://www.ripta.com/40,Weekday
18935,"""ELMGROVE FS SESSIONS""",41.84225,-71.392595,2396911,12:59:00,12:59:00,14,1,40,http://www.ripta.com/40,Weekday
55895,"""ELMGROVE NS WOODBURY""",41.845001,-71.391836,2396911,13:00:00,13:00:00,15,1,40,http://www.ripta.com/40,Weekday
19425,"""ELMGROVE NS ROCHAMBEAU""",41.846153,-71.391385,2396911,13:00:00,13:00:00,16,1,40,http://www.ripta.com/40,Weekday
19520,"""ROCHAMBEAU NS COLE""",41.845872,-71.389364,2396911,13:01:00,13:01:00,17,1,40,http://www.ripta.com/40,Weekday
19460,"""ROCHAMBEAU NS BLACKSTONE""",41.845541,-71.387306,2396911,13:01:00,13:01:00,18,1,40,http://www.ripta.com/40,Weekday
19530,"""BLACKSTONE FS ROCHAMBEAU""",41.846121,-71.386708,2396911,13:02:00,13:02:00,19,1,40,http://www.ripta.com/40,Weekday
19550,"""BUTLER HOSPITAL ACCESS RD FS BLACKSTONE""",41.845879,-71.383373,2396911,13:03:00,13:03:00,20,1,40,http://www.ripta.com/40,Weekday
19245,"""BUTLER HOSPITAL""",41.843352,-71.381404,2396911,13:04:00,13:04:00,21,1,40,http://www.ripta.com/40,Weekday
19245,"""BUTLER HOSPITAL""",41.843352,-71.381404,2396921,12:25:00,12:25:00,1,0,40,http://www.ripta.com/40,Weekday
19605,"""BUTLER HOSPITAL ACCESS RD NS BLACKSTONE""",41.845932,-71.383297,2396921,12:26:00,12:26:00,2,0,40,http://www.ripta.com/40,Weekday
19725,"""BLACKSTONE AT SWAN PT CEMETARY""",41.847884,-71.386777,2396921,12:27:00,12:27:00,3,0,40,http://www.ripta.com/40,Weekday
19815,"""BLACKSTONE AT POLE 105""",41.850485,-71.386864,2396921,12:27:00,12:27:00,4,0,40,http://www.ripta.com/40,Weekday
19930,"""BLACKSTONE AT POLE 107""",41.85142,-71.387072,2396921,12:27:00,12:27:00,5,0,40,http://www.ripta.com/40,Weekday
19905,"""BLACKSTONE FS HARWICH""",41.85,-71.387436,2396921,12:28:00,12:28:00,6,0,40,http://www.ripta.com/40,Weekday
19810,"""BLACKSTONE FS HARTFORD""",41.848629,-71.387392,2396921,12:28:00,12:28:00,7,0,40,http://www.ripta.com/40,Weekday
19735,"""BLACKSTONE AT 420 BLACKSTONE""",41.847545,-71.387336,2396921,12:28:00,12:28:00,8,0,40,http://www.ripta.com/40,Weekday
60025,"""BLACKSTONE NS ROCHAMBEAU""",41.845893,-71.387265,2396921,12:29:00,12:29:00,9,0,40,http://www.ripta.com/40,Weekday
58050,"""ROCHAMBEAU OPP 405 ROCHAMBEAU""",41.84606,-71.389531,2396921,12:29:00,12:29:00,10,0,40,http://www.ripta.com/40,Weekday
58060,"""ELMGROVE OPP 311 ELMGROVE""",41.845182,-71.391926,2396921,12:29:00,12:29:00,11,0,40,http://www.ripta.com/40,Weekday
58070,"""ELMGROVE OPP JEWISH CENTET""",41.842002,-71.392696,2396921,12:30:00,12:30:00,12,0,40,http://www.ripta.com/40,Weekday
58105,"""ELMGROVE OPP 341 ELMGROVE""",41.840439,-71.392572,2396921,12:31:00,12:31:00,13,0,40,http://www.ripta.com/40,Weekday
58110,"""ELMGROVE AT POLE 58""",41.837813,-71.392045,2396921,12:31:00,12:31:00,14,0,40,http://www.ripta.com/40,Weekday
58120,"""ELMGROVE AT 152 ELMGROVE""",41.834888,-71.391099,2396921,12:33:00,12:33:00,15,0,40,http://www.ripta.com/40,Weekday
60030,"""ELMGROVE NS ADELPHI""",41.830869,-71.389706,2396921,12:34:00,12:34:00,16,0,40,http://www.ripta.com/40,Weekday
17290,"""ANGELL FS ELMGROVE""",41.829826,-71.389833,2396921,12:35:00,12:35:00,17,0,40,http://www.ripta.com/40,Weekday
17170,"""ANGELL OPP IVES""",41.829218,-71.393025,2396921,12:35:00,12:35:00,18,0,40,http://www.ripta.com/40,Weekday
17100,"""ANGELL NS HOPE""",41.828462,-71.397302,2396921,12:37:00,12:37:00,19,0,40,http://www.ripta.com/40,Weekday
17085,"""ANGELL AT PRESCOTT LIBRARY""",41.828357,-71.398382,2396921,12:37:00,12:37:00,20,0,40,http://www.ripta.com/40,Weekday
17045,"""TUNNEL FS THAYER""",41.827682,-71.400886,2396921,12:38:00,12:38:00,21,0,40,http://www.ripta.com/40,Weekday
16890,"""TUNNEL NS S MAIN""",41.826842,-71.408585,2396921,12:40:00,12:40:00,22,0,40,http://www.ripta.com/40,Weekday
16590,"""KENNEDY PLAZA (STOP I)""",41.825407,-71.411262,2396921,12:43:00,12:43:00,23,0,40,http://www.ripta.com/40,Weekday
16590,"""KENNEDY PLAZA (STOP I)""",41.825407,-71.411262,2396932,11:45:00,11:45:00,1,1,40,http://www.ripta.com/40,Weekday
16855,"""TUNNEL FS S MAIN""",41.82678,-71.408541,2396932,11:47:00,11:47:00,2,1,40,http://www.ripta.com/40,Weekday
16905,"""TUNNEL NS THAYER""",41.827607,-71.400864,2396932,11:50:00,11:50:00,3,1,40,http://www.ripta.com/40,Weekday
16970,"""WATERMAN NS HOPE""",41.827592,-71.397452,2396932,11:51:00,11:51:00,4,1,40,http://www.ripta.com/40,Weekday
17000,"""WATERMAN FS GOVERNOR""",41.827639,-71.393764,2396932,11:52:00,11:52:00,5,1,40,http://www.ripta.com/40,Weekday
17055,"""WATERMAN FS GANO""",41.82823,-71.390443,2396932,11:53:00,11:53:00,6,1,40,http://www.ripta.com/40,Weekday
17135,"""WAYLAND FS WATERMAN""",41.828921,-71.388232,2396932,11:54:00,11:54:00,7,1,40,http://www.ripta.com/40,Weekday
17255,"""WAYLAND NS S ANGELL""",41.829991,-71.387948,2396932,11:54:00,11:54:00,8,1,40,http://www.ripta.com/40,Weekday
17285,"""ANGELL FS WAYLAND""",41.830134,-71.388391,2396932,11:55:00,11:55:00,9,1,40,http://www.ripta.com/40,Weekday
17985,"""ELMGROVE NS UNIVERSITY""",41.833322,-71.390444,2396932,11:56:00,11:56:00,10,1,40,http://www.ripta.com/40,Weekday
18255,"""ELMGROVE NS PRESIDENT""",41.835144,-71.391098,2396932,11:57:00,11:57:00,11,1,40,http://www.ripta.com/40,Weekday
18530,"""ELMGROVE NS FREEMAN PKWAY""",41.837719,-71.391875,2396932,11:57:00,11:57:00,12,1,40,http://www.ripta.com/40,Weekday
59265,"""ELMGROVE NS SESSIONS""",41.841097,-71.392475,2396932,11:59:00,11:59:00,13,1,40,http://www.ripta.com/40,Weekday
18935,"""ELMGROVE FS SESSIONS""",41.84225,-71.392595,2396932,11:59:00,11:59:00,14,1,40,http://www.ripta.com/40,Weekday
55895,"""ELMGROVE NS WOODBURY""",41.845001,-71.391836,2396932,12:00:00,12:00:00,15,1,40,http://www.ripta.com/40,Weekday
19425,"""ELMGROVE NS ROCHAMBEAU""",41.846153,-71.391385,2396932,12:00:00,12:00:00,16,1,40,http://www.ripta.com/40,Weekday
19520,"""ROCHAMBEAU NS COLE""",41.845872,-71.389364,2396932,12:01:00,12:01:00,17,1,40,http://www.ripta.com/40,Weekday
19460,"""ROCHAMBEAU NS BLACKSTONE""",41.845541,-71.387306,2396932,12:01:00,12:01:00,18,1,40,http://www.ripta.com/40,Weekday
19530,"""BLACKSTONE FS ROCHAMBEAU""",41.846121,-71.386708,2396932,12:02:00,12:02:00,19,1,40,http://www.ripta.com/40,Weekday
19550,"""BUTLER HOSPITAL ACCESS RD FS BLACKSTONE""",41.845879,-71.383373,2396932,12:03:00,12:03:00,20,1,40,http://www.ripta.com/40,Weekday
19245,"""BUTLER HOSPITAL""",41.843352,-71.381404,2396932,12:04:00,12:04:00,21,1,40,http://www.ripta.com/40,Weekday
19245,"""BUTLER HOSPITAL""",41.843352,-71.381404,2396943,11:25:00,11:25:00,1,0,40,http://www.ripta.com/40,Weekday
19605,"""BUTLER HOSPITAL ACCESS RD NS BLACKSTONE""",41.845932,-71.383297,2396943,11:26:00,11:26:00,2,0,40,http://www.ripta.com/40,Weekday
19725,"""BLACKSTONE AT SWAN PT CEMETARY""",41.847884,-71.386777,2396943,11:27:00,11:27:00,3,0,40,http://www.ripta.com/40,Weekday
19815,"""BLACKSTONE AT POLE 105""",41.850485,-71.386864,2396943,11:27:00,11:27:00,4,0,40,http://www.ripta.com/40,Weekday
19930,"""BLACKSTONE AT POLE 107""",41.85142,-71.387072,2396943,11:27:00,11:27:00,5,0,40,http://www.ripta.com/40,Weekday
19905,"""BLACKSTONE FS HARWICH""",41.85,-71.387436,2396943,11:28:00,11:28:00,6,0,40,http://www.ripta.com/40,Weekday
19810,"""BLACKSTONE FS HARTFORD""",41.848629,-71.387392,2396943,11:28:00,11:28:00,7,0,40,http://www.ripta.com/40,Weekday
19735,"""BLACKSTONE AT 420 BLACKSTONE""",41.847545,-71.387336,2396943,11:28:00,11:28:00,8,0,40,http://www.ripta.com/40,Weekday
60025,"""BLACKSTONE NS ROCHAMBEAU""",41.845893,-71.387265,2396943,11:29:00,11:29:00,9,0,40,http://www.ripta.com/40,Weekday
58050,"""ROCHAMBEAU OPP 405 ROCHAMBEAU""",41.84606,-71.389531,2396943,11:29:00,11:29:00,10,0,40,http://www.ripta.com/40,Weekday
58060,"""ELMGROVE OPP 311 ELMGROVE""",41.845182,-71.391926,2396943,11:29:00,11:29:00,11,0,40,http://www.ripta.com/40,Weekday
58070,"""ELMGROVE OPP JEWISH CENTET""",41.842002,-71.392696,2396943,11:30:00,11:30:00,12,0,40,http://www.ripta.com/40,Weekday
58105,"""ELMGROVE OPP 341 ELMGROVE""",41.840439,-71.392572,2396943,11:31:00,11:31:00,13,0,40,http://www.ripta.com/40,Weekday
58110,"""ELMGROVE AT POLE 58""",41.837813,-71.392045,2396943,11:31:00,11:31:00,14,0,40,http://www.ripta.com/40,Weekday
58120,"""ELMGROVE AT 152 ELMGROVE""",41.834888,-71.391099,2396943,11:33:00,11:33:00,15,0,40,http://www.ripta.com/40,Weekday
60030,"""ELMGROVE NS ADELPHI""",41.830869,-71.389706,2396943,11:34:00,11:34:00,16,0,40,http://www.ripta.com/40,Weekday
17290,"""ANGELL FS ELMGROVE""",41.829826,-71.389833,2396943,11:35:00,11:35:00,17,0,40,http://www.ripta.com/40,Weekday
17170,"""ANGELL OPP IVES""",41.829218,-71.393025,2396943,11:35:00,11:35:00,18,0,40,http://www.ripta.com/40,Weekday
17100,"""ANGELL NS HOPE""",41.828462,-71.397302,2396943,11:37:00,11:37:00,19,0,40,http://www.ripta.com/40,Weekday
17085,"""ANGELL AT PRESCOTT LIBRARY""",41.828357,-71.398382,2396943,11:37:00,11:37:00,20,0,40,http://www.ripta.com/40,Weekday
17045,"""TUNNEL FS THAYER""",41.827682,-71.400886,2396943,11:38:00,11:38:00,21,0,40,http://www.ripta.com/40,Weekday
16890,"""TUNNEL NS S MAIN""",41.826842,-71.408585,2396943,11:40:00,11:40:00,22,0,40,http://www.ripta.com/40,Weekday
16590,"""KENNEDY PLAZA (STOP I)""",41.825407,-71.411262,2396943,11:43:00,11:43:00,23,0,40,http://www.ripta.com/40,Weekday
16590,"""KENNEDY PLAZA (STOP I)""",41.825407,-71.411262,2396950,10:45:00,10:45:00,1,1,40,http://www.ripta.com/40,Weekday
16855,"""TUNNEL FS S MAIN""",41.82678,-71.408541,2396950,10:47:00,10:47:00,2,1,40,http://www.ripta.com/40,Weekday
16905,"""TUNNEL NS THAYER""",41.827607,-71.400864,2396950,10:50:00,10:50:00,3,1,40,http://www.ripta.com/40,Weekday
16970,"""WATERMAN NS HOPE""",41.827592,-71.397452,2396950,10:51:00,10:51:00,4,1,40,http://www.ripta.com/40,Weekday
17000,"""WATERMAN FS GOVERNOR""",41.827639,-71.393764,2396950,10:52:00,10:52:00,5,1,40,http://www.ripta.com/40,Weekday
17055,"""WATERMAN FS GANO""",41.82823,-71.390443,2396950,10:53:00,10:53:00,6,1,40,http://www.ripta.com/40,Weekday
17135,"""WAYLAND FS WATERMAN""",41.828921,-71.388232,2396950,10:54:00,10:54:00,7,1,40,http://www.ripta.com/40,Weekday
17255,"""WAYLAND NS S ANGELL""",41.829991,-71.387948,2396950,10:54:00,10:54:00,8,1,40,http://www.ripta.com/40,Weekday
17285,"""ANGELL FS WAYLAND""",41.830134,-71.388391,2396950,10:55:00,10:55:00,9,1,40,http://www.ripta.com/40,Weekday
17985,"""ELMGROVE NS UNIVERSITY""",41.833322,-71.390444,2396950,10:56:00,10:56:00,10,1,40,http://www.ripta.com/40,Weekday
18255,"""ELMGROVE NS PRESIDENT""",41.835144,-71.391098,2396950,10:57:00,10:57:00,11,1,40,http://www.ripta.com/40,Weekday
18530,"""ELMGROVE NS FREEMAN PKWAY""",41.837719,-71.391875,2396950,10:57:00,10:57:00,12,1,40,http://www.ripta.com/40,Weekday
59265,"""ELMGROVE NS SESSIONS""",41.841097,-71.392475,2396950,10:59:00,10:59:00,13,1,40,http://www.ripta.com/40,Weekday
18935,"""ELMGROVE FS SESSIONS""",41.84225,-71.392595,2396950,10:59:00,10:59:00,14,1,40,http://www.ripta.com/40,Weekday
55895,"""ELMGROVE NS WOODBURY""",41.845001,-71.391836,2396950,11:00:00,11:00:00,15,1,40,http://www.ripta.com/40,Weekday
19425,"""ELMGROVE NS ROCHAMBEAU""",41.846153,-71.391385,2396950,11:00:00,11:00:00,16,1,40,http://www.ripta.com/40,Weekday
19520,"""ROCHAMBEAU NS COLE""",41.845872,-71.389364,2396950,11:01:00,11:01:00,17,1,40,http://www.ripta.com/40,Weekday
19460,"""ROCHAMBEAU NS BLACKSTONE""",41.845541,-71.387306,2396950,11:01:00,11:01:00,18,1,40,http://www.ripta.com/40,Weekday
19530,"""BLACKSTONE FS ROCHAMBEAU""",41.846121,-71.386708,2396950,11:02:00,11:02:00,19,1,40,http://www.ripta.com/40,Weekday
19550,"""BUTLER HOSPITAL ACCESS RD FS BLACKSTONE""",41.845879,-71.383373,2396950,11:03:00,11:03:00,20,1,40,http://www.ripta.com/40,Weekday
19245,"""BUTLER HOSPITAL""",41.843352,-71.381404,2396950,11:04:00,11:04:00,21,1,40,http://www.ripta.com/40,Weekday
19245,"""BUTLER HOSPITAL""",41.843352,-71.381404,2396959,10:25:00,10:25:00,1,0,40,http://www.ripta.com/40,Weekday
19605,"""BUTLER HOSPITAL ACCESS RD NS BLACKSTONE""",41.845932,-71.383297,2396959,10:26:00,10:26:00,2,0,40,http://www.ripta.com/40,Weekday
19725,"""BLACKSTONE AT SWAN PT CEMETARY""",41.847884,-71.386777,2396959,10:27:00,10:27:00,3,0,40,http://www.ripta.com/40,Weekday
19815,"""BLACKSTONE AT POLE 105""",41.850485,-71.386864,2396959,10:27:00,10:27:00,4,0,40,http://www.ripta.com/40,Weekday
19930,"""BLACKSTONE AT POLE 107""",41.85142,-71.387072,2396959,10:27:00,10:27:00,5,0,40,http://www.ripta.com/40,Weekday
19905,"""BLACKSTONE FS HARWICH""",41.85,-71.387436,2396959,10:28:00,10:28:00,6,0,40,http://www.ripta.com/40,Weekday
19810,"""BLACKSTONE FS HARTFORD""",41.848629,-71.387392,2396959,10:28:00,10:28:00,7,0,40,http://www.ripta.com/40,Weekday
19735,"""BLACKSTONE AT 420 BLACKSTONE""",41.847545,-71.387336,2396959,10:28:00,10:28:00,8,0,40,http://www.ripta.com/40,Weekday
60025,"""BLACKSTONE NS ROCHAMBEAU""",41.845893,-71.387265,2396959,10:29:00,10:29:00,9,0,40,http://www.ripta.com/40,Weekday
58050,"""ROCHAMBEAU OPP 405 ROCHAMBEAU""",41.84606,-71.389531,2396959,10:29:00,10:29:00,10,0,40,http://www.ripta.com/40,Weekday
58060,"""ELMGROVE OPP 311 ELMGROVE""",41.845182,-71.391926,2396959,10:29:00,10:29:00,11,0,40,http://www.ripta.com/40,Weekday
58070,"""ELMGROVE OPP JEWISH CENTET""",41.842002,-71.392696,2396959,10:30:00,10:30:00,12,0,40,http://www.ripta.com/40,Weekday
58105,"""ELMGROVE OPP 341 ELMGROVE""",41.840439,-71.392572,2396959,10:31:00,10:31:00,13,0,40,http://www.ripta.com/40,Weekday
58110,"""ELMGROVE AT POLE 58""",41.837813,-71.392045,2396959,10:31:00,10:31:00,14,0,40,http://www.ripta.com/40,Weekday
58120,"""ELMGROVE AT 152 ELMGROVE""",41.834888,-71.391099,2396959,10:33:00,10:33:00,15,0,40,http://www.ripta.com/40,Weekday
60030,"""ELMGROVE NS ADELPHI""",41.830869,-71.389706,2396959,10:34:00,10:34:00,16,0,40,http://www.ripta.com/40,Weekday
17290,"""ANGELL FS ELMGROVE""",41.829826,-71.389833,2396959,10:35:00,10:35:00,17,0,40,http://www.ripta.com/40,Weekday
17170,"""ANGELL OPP IVES""",41.829218,-71.393025,2396959,10:35:00,10:35:00,18,0,40,http://www.ripta.com/40,Weekday
17100,"""ANGELL NS HOPE""",41.828462,-71.397302,2396959,10:37:00,10:37:00,19,0,40,http://www.ripta.com/40,Weekday
17085,"""ANGELL AT PRESCOTT LIBRARY""",41.828357,-71.398382,2396959,10:37:00,10:37:00,20,0,40,http://www.ripta.com/40,Weekday
17045,"""TUNNEL FS THAYER""",41.827682,-71.400886,2396959,10:38:00,10:38:00,21,0,40,http://www.ripta.com/40,Weekday
16890,"""TUNNEL NS S MAIN""",41.826842,-71.408585,2396959,10:40:00,10:40:00,22,0,40,http://www.ripta.com/40,Weekday
16590,"""KENNEDY PLAZA (STOP I)""",41.825407,-71.411262,2396959,10:43:00,10:43:00,23,0,40,http://www.ripta.com/40,Weekday
16590,"""KENNEDY PLAZA (STOP I)""",41.825407,-71.411262,2396968,09:45:00,09:45:00,1,1,40,http://www.ripta.com/40,Weekday
16855,"""TUNNEL FS S MAIN""",41.82678,-71.408541,2396968,09:47:00,09:47:00,2,1,40,http://www.ripta.com/40,Weekday
16905,"""TUNNEL NS THAYER""",41.827607,-71.400864,2396968,09:50:00,09:50:00,3,1,40,http://www.ripta.com/40,Weekday
16970,"""WATERMAN NS HOPE""",41.827592,-71.397452,2396968,09:51:00,09:51:00,4,1,40,http://www.ripta.com/40,Weekday
17000,"""WATERMAN FS GOVERNOR""",41.827639,-71.393764,2396968,09:52:00,09:52:00,5,1,40,http://www.ripta.com/40,Weekday
17055,"""WATERMAN FS GANO""",41.82823,-71.390443,2396968,09:53:00,09:53:00,6,1,40,http://www.ripta.com/40,Weekday
17135,"""WAYLAND FS WATERMAN""",41.828921,-71.388232,2396968,09:54:00,09:54:00,7,1,40,http://www.ripta.com/40,Weekday
17255,"""WAYLAND NS S ANGELL""",41.829991,-71.387948,2396968,09:54:00,09:54:00,8,1,40,http://www.ripta.com/40,Weekday
17285,"""ANGELL FS WAYLAND""",41.830134,-71.388391,2396968,09:55:00,09:55:00,9,1,40,http://www.ripta.com/40,Weekday
17985,"""ELMGROVE NS UNIVERSITY""",41.833322,-71.390444,2396968,09:56:00,09:56:00,10,1,40,http://www.ripta.com/40,Weekday
18255,"""ELMGROVE NS PRESIDENT""",41.835144,-71.391098,2396968,09:57:00,09:57:00,11,1,40,http://www.ripta.com/40,Weekday
18530,"""ELMGROVE NS FREEMAN PKWAY""",41.837719,-71.391875,2396968,09:57:00,09:57:00,12,1,40,http://www.ripta.com/40,Weekday
59265,"""ELMGROVE NS SESSIONS""",41.841097,-71.392475,2396968,09:59:00,09:59:00,13,1,40,http://www.ripta.com/40,Weekday
18935,"""ELMGROVE FS SESSIONS""",41.84225,-71.392595,2396968,09:59:00,09:59:00,14,1,40,http://www.ripta.com/40,Weekday
55895,"""ELMGROVE NS WOODBURY""",41.845001,-71.391836,2396968,10:00:00,10:00:00,15,1,40,http://www.ripta.com/40,Weekday
19425,"""ELMGROVE NS ROCHAMBEAU""",41.846153,-71.391385,2396968,10:00:00,10:00:00,16,1,40,http://www.ripta.com/40,Weekday
19520,"""ROCHAMBEAU NS COLE""",41.845872,-71.389364,2396968,10:01:00,10:01:00,17,1,40,http://www.ripta.com/40,Weekday
19460,"""ROCHAMBEAU NS BLACKSTONE""",41.845541,-71.387306,2396968,10:01:00,10:01:00,18,1,40,http://www.ripta.com/40,Weekday
19530,"""BLACKSTONE FS ROCHAMBEAU""",41.846121,-71.386708,2396968,10:02:00,10:02:00,19,1,40,http://www.ripta.com/40,Weekday
19550,"""BUTLER HOSPITAL ACCESS RD FS BLACKSTONE""",41.845879,-71.383373,2396968,10:03:00,10:03:00,20,1,40,http://www.ripta.com/40,Weekday
19245,"""BUTLER HOSPITAL""",41.843352,-71.381404,2396968,10:04:00,10:04:00,21,1,40,http://www.ripta.com/40,Weekday
19245,"""BUTLER HOSPITAL""",41.843352,-71.381404,2396994,09:25:00,09:25:00,1,0,40,http://www.ripta.com/40,Weekday
19605,"""BUTLER HOSPITAL ACCESS RD NS BLACKSTONE""",41.845932,-71.383297,2396994,09:26:00,09:26:00,2,0,40,http://www.ripta.com/40,Weekday
19725,"""BLACKSTONE AT SWAN PT CEMETARY""",41.847884,-71.386777,2396994,09:27:00,09:27:00,3,0,40,http://www.ripta.com/40,Weekday
19815,"""BLACKSTONE AT POLE 105""",41.850485,-71.386864,2396994,09:27:00,09:27:00,4,0,40,http://www.ripta.com/40,Weekday
19930,"""BLACKSTONE AT POLE 107""",41.85142,-71.387072,2396994,09:27:00,09:27:00,5,0,40,http://www.ripta.com/40,Weekday
19905,"""BLACKSTONE FS HARWICH""",41.85,-71.387436,2396994,09:28:00,09:28:00,6,0,40,http://www.ripta.com/40,Weekday
19810,"""BLACKSTONE FS HARTFORD""",41.848629,-71.387392,2396994,09:28:00,09:28:00,7,0,40,http://www.ripta.com/40,Weekday
19735,"""BLACKSTONE AT 420 BLACKSTONE""",41.847545,-71.387336,2396994,09:28:00,09:28:00,8,0,40,http://www.ripta.com/40,Weekday
60025,"""BLACKSTONE NS ROCHAMBEAU""",41.845893,-71.387265,2396994,09:29:00,09:29:00,9,0,40,http://www.ripta.com/40,Weekday
58050,"""ROCHAMBEAU OPP 405 ROCHAMBEAU""",41.84606,-71.389531,2396994,09:29:00,09:29:00,10,0,40,http://www.ripta.com/40,Weekday
58060,"""ELMGROVE OPP 311 ELMGROVE""",41.845182,-71.391926,2396994,09:29:00,09:29:00,11,0,40,http://www.ripta.com/40,Weekday
58070,"""ELMGROVE OPP JEWISH CENTET""",41.842002,-71.392696,2396994,09:30:00,09:30:00,12,0,40,http://www.ripta.com/40,Weekday
58105,"""ELMGROVE OPP 341 ELMGROVE""",41.840439,-71.392572,2396994,09:31:00,09:31:00,13,0,40,http://www.ripta.com/40,Weekday
58110,"""ELMGROVE AT POLE 58""",41.837813,-71.392045,2396994,09:31:00,09:31:00,14,0,40,http://www.ripta.com/40,Weekday
58120,"""ELMGROVE AT 152 ELMGROVE""",41.834888,-71.391099,2396994,09:33:00,09:33:00,15,0,40,http://www.ripta.com/40,Weekday
60030,"""ELMGROVE NS ADELPHI""",41.830869,-71.389706,2396994,09:34:00,09:34:00,16,0,40,http://www.ripta.com/40,Weekday
17290,"""ANGELL FS ELMGROVE""",41.829826,-71.389833,2396994,09:35:00,09:35:00,17,0,40,http://www.ripta.com/40,Weekday
17170,"""ANGELL OPP IVES""",41.829218,-71.393025,2396994,09:35:00,09:35:00,18,0,40,http://www.ripta.com/40,Weekday
17100,"""ANGELL NS HOPE""",41.828462,-71.397302,2396994,09:37:00,09:37:00,19,0,40,http://www.ripta.com/40,Weekday
17085,"""ANGELL AT PRESCOTT LIBRARY""",41.828357,-71.398382,2396994,09:37:00,09:37:00,20,0,40,http://www.ripta.com/40,Weekday
17045,"""TUNNEL FS THAYER""",41.827682,-71.400886,2396994,09:38:00,09:38:00,21,0,40,http://www.ripta.com/40,Weekday
16890,"""TUNNEL NS S MAIN""",41.826842,-71.408585,2396994,09:40:00,09:40:00,22,0,40,http://www.ripta.com/40,Weekday
16590,"""KENNEDY PLAZA (STOP I)""",41.825407,-71.411262,2396994,09:43:00,09:43:00,23,0,40,http://www.ripta.com/40,Weekday
16590,"""KENNEDY PLAZA (STOP I)""",41.825407,-71.411262,2397003,08:45:00,08:45:00,1,1,40,http://www.ripta.com/40,Weekday
16855,"""TUNNEL FS S MAIN""",41.82678,-71.408541,2397003,08:47:00,08:47:00,2,1,40,http://www.ripta.com/40,Weekday
16905,"""TUNNEL NS THAYER""",41.827607,-71.400864,2397003,08:50:00,08:50:00,3,1,40,http://www.ripta.com/40,Weekday
16970,"""WATERMAN NS HOPE""",41.827592,-71.397452,2397003,08:51:00,08:51:00,4,1,40,http://www.ripta.com/40,Weekday
17000,"""WATERMAN FS GOVERNOR""",41.827639,-71.393764,2397003,08:52:00,08:52:00,5,1,40,http://www.ripta.com/40,Weekday
17055,"""WATERMAN FS GANO""",41.82823,-71.390443,2397003,08:53:00,08:53:00,6,1,40,http://www.ripta.com/40,Weekday
17135,"""WAYLAND FS WATERMAN""",41.828921,-71.388232,2397003,08:54:00,08:54:00,7,1,40,http://www.ripta.com/40,Weekday
17255,"""WAYLAND NS S ANGELL""",41.829991,-71.387948,2397003,08:54:00,08:54:00,8,1,40,http://www.ripta.com/40,Weekday
17285,"""ANGELL FS WAYLAND""",41.830134,-71.388391,2397003,08:55:00,08:55:00,9,1,40,http://www.ripta.com/40,Weekday
17985,"""ELMGROVE NS UNIVERSITY""",41.833322,-71.390444,2397003,08:56:00,08:56:00,10,1,40,http://www.ripta.com/40,Weekday
18255,"""ELMGROVE NS PRESIDENT""",41.835144,-71.391098,2397003,08:57:00,08:57:00,11,1,40,http://www.ripta.com/40,Weekday
18530,"""ELMGROVE NS FREEMAN PKWAY""",41.837719,-71.391875,2397003,08:57:00,08:57:00,12,1,40,http://www.ripta.com/40,Weekday
59265,"""ELMGROVE NS SESSIONS""",41.841097,-71.392475,2397003,08:59:00,08:59:00,13,1,40,http://www.ripta.com/40,Weekday
18935,"""ELMGROVE FS SESSIONS""",41.84225,-71.392595,2397003,08:59:00,08:59:00,14,1,40,http://www.ripta.com/40,Weekday
55895,"""ELMGROVE NS WOODBURY""",41.845001,-71.391836,2397003,09:00:00,09:00:00,15,1,40,http://www.ripta.com/40,Weekday
19425,"""ELMGROVE NS ROCHAMBEAU""",41.846153,-71.391385,2397003,09:00:00,09:00:00,16,1,40,http://www.ripta.com/40,Weekday
19520,"""ROCHAMBEAU NS COLE""",41.845872,-71.389364,2397003,09:01:00,09:01:00,17,1,40,http://www.ripta.com/40,Weekday
19460,"""ROCHAMBEAU NS BLACKSTONE""",41.845541,-71.387306,2397003,09:01:00,09:01:00,18,1,40,http://www.ripta.com/40,Weekday
19530,"""BLACKSTONE FS ROCHAMBEAU""",41.846121,-71.386708,2397003,09:02:00,09:02:00,19,1,40,http://www.ripta.com/40,Weekday
19550,"""BUTLER HOSPITAL ACCESS RD FS BLACKSTONE""",41.845879,-71.383373,2397003,09:03:00,09:03:00,20,1,40,http://www.ripta.com/40,Weekday
19245,"""BUTLER HOSPITAL""",41.843352,-71.381404,2397003,09:04:00,09:04:00,21,1,40,http://www.ripta.com/40,Weekday
19245,"""BUTLER HOSPITAL""",41.843352,-71.381404,2397014,08:25:00,08:25:00,1,0,40,http://www.ripta.com/40,Weekday
19605,"""BUTLER HOSPITAL ACCESS RD NS BLACKSTONE""",41.845932,-71.383297,2397014,08:26:00,08:26:00,2,0,40,http://www.ripta.com/40,Weekday
19725,"""BLACKSTONE AT SWAN PT CEMETARY""",41.847884,-71.386777,2397014,08:27:00,08:27:00,3,0,40,http://www.ripta.com/40,Weekday
19815,"""BLACKSTONE AT POLE 105""",41.850485,-71.386864,2397014,08:27:00,08:27:00,4,0,40,http://www.ripta.com/40,Weekday
19930,"""BLACKSTONE AT POLE 107""",41.85142,-71.387072,2397014,08:27:00,08:27:00,5,0,40,http://www.ripta.com/40,Weekday
19905,"""BLACKSTONE FS HARWICH""",41.85,-71.387436,2397014,08:28:00,08:28:00,6,0,40,http://www.ripta.com/40,Weekday
19810,"""BLACKSTONE FS HARTFORD""",41.848629,-71.387392,2397014,08:28:00,08:28:00,7,0,40,http://www.ripta.com/40,Weekday
19735,"""BLACKSTONE AT 420 BLACKSTONE""",41.847545,-71.387336,2397014,08:28:00,08:28:00,8,0,40,http://www.ripta.com/40,Weekday
60025,"""BLACKSTONE NS ROCHAMBEAU""",41.845893,-71.387265,2397014,08:29:00,08:29:00,9,0,40,http://www.ripta.com/40,Weekday
58050,"""ROCHAMBEAU OPP 405 ROCHAMBEAU""",41.84606,-71.389531,2397014,08:29:00,08:29:00,10,0,40,http://www.ripta.com/40,Weekday
58060,"""ELMGROVE OPP 311 ELMGROVE""",41.845182,-71.391926,2397014,08:29:00,08:29:00,11,0,40,http://www.ripta.com/40,Weekday
58070,"""ELMGROVE OPP JEWISH CENTET""",41.842002,-71.392696,2397014,08:30:00,08:30:00,12,0,40,http://www.ripta.com/40,Weekday
58105,"""ELMGROVE OPP 341 ELMGROVE""",41.840439,-71.392572,2397014,08:31:00,08:31:00,13,0,40,http://www.ripta.com/40,Weekday
58110,"""ELMGROVE AT POLE 58""",41.837813,-71.392045,2397014,08:31:00,08:31:00,14,0,40,http://www.ripta.com/40,Weekday
58120,"""ELMGROVE AT 152 ELMGROVE""",41.834888,-71.391099,2397014,08:33:00,08:33:00,15,0,40,http://www.ripta.com/40,Weekday
60030,"""ELMGROVE NS ADELPHI""",41.830869,-71.389706,2397014,08:34:00,08:34:00,16,0,40,http://www.ripta.com/40,Weekday
17290,"""ANGELL FS ELMGROVE""",41.829826,-71.389833,2397014,08:35:00,08:35:00,17,0,40,http://www.ripta.com/40,Weekday
17170,"""ANGELL OPP IVES""",41.829218,-71.393025,2397014,08:35:00,08:35:00,18,0,40,http://www.ripta.com/40,Weekday
17100,"""ANGELL NS HOPE""",41.828462,-71.397302,2397014,08:37:00,08:37:00,19,0,40,http://www.ripta.com/40,Weekday
17085,"""ANGELL AT PRESCOTT LIBRARY""",41.828357,-71.398382,2397014,08:37:00,08:37:00,20,0,40,http://www.ripta.com/40,Weekday
17045,"""TUNNEL FS THAYER""",41.827682,-71.400886,2397014,08:38:00,08:38:00,21,0,40,http://www.ripta.com/40,Weekday
16890,"""TUNNEL NS S MAIN""",41.826842,-71.408585,2397014,08:40:00,08:40:00,22,0,40,http://www.ripta.com/40,Weekday
16590,"""KENNEDY PLAZA (STOP I)""",41.825407,-71.411262,2397014,08:43:00,08:43:00,23,0,40,http://www.ripta.com/40,Weekday
16590,"""KENNEDY PLAZA (STOP I)""",41.825407,-71.411262,2397023,07:45:00,07:45:00,1,1,40,http://www.ripta.com/40,Weekday
16855,"""TUNNEL FS S MAIN""",41.82678,-71.408541,2397023,07:47:00,07:47:00,2,1,40,http://www.ripta.com/40,Weekday
16905,"""TUNNEL NS THAYER""",41.827607,-71.400864,2397023,07:50:00,07:50:00,3,1,40,http://www.ripta.com/40,Weekday
16970,"""WATERMAN NS HOPE""",41.827592,-71.397452,2397023,07:51:00,07:51:00,4,1,40,http://www.ripta.com/40,Weekday
17000,"""WATERMAN FS GOVERNOR""",41.827639,-71.393764,2397023,07:52:00,07:52:00,5,1,40,http://www.ripta.com/40,Weekday
17055,"""WATERMAN FS GANO""",41.82823,-71.390443,2397023,07:53:00,07:53:00,6,1,40,http://www.ripta.com/40,Weekday
17135,"""WAYLAND FS WATERMAN""",41.828921,-71.388232,2397023,07:54:00,07:54:00,7,1,40,http://www.ripta.com/40,Weekday
17255,"""WAYLAND NS S ANGELL""",41.829991,-71.387948,2397023,07:54:00,07:54:00,8,1,40,http://www.ripta.com/40,Weekday
17285,"""ANGELL FS WAYLAND""",41.830134,-71.388391,2397023,07:55:00,07:55:00,9,1,40,http://www.ripta.com/40,Weekday
17985,"""ELMGROVE NS UNIVERSITY""",41.833322,-71.390444,2397023,07:56:00,07:56:00,10,1,40,http://www.ripta.com/40,Weekday
18255,"""ELMGROVE NS PRESIDENT""",41.835144,-71.391098,2397023,07:57:00,07:57:00,11,1,40,http://www.ripta.com/40,Weekday
18530,"""ELMGROVE NS FREEMAN PKWAY""",41.837719,-71.391875,2397023,07:57:00,07:57:00,12,1,40,http://www.ripta.com/40,Weekday
59265,"""ELMGROVE NS SESSIONS""",41.841097,-71.392475,2397023,07:59:00,07:59:00,13,1,40,http://www.ripta.com/40,Weekday
18935,"""ELMGROVE FS SESSIONS""",41.84225,-71.392595,2397023,07:59:00,07:59:00,14,1,40,http://www.ripta.com/40,Weekday
55895,"""ELMGROVE NS WOODBURY""",41.845001,-71.391836,2397023,08:00:00,08:00:00,15,1,40,http://www.ripta.com/40,Weekday
19425,"""ELMGROVE NS ROCHAMBEAU""",41.846153,-71.391385,2397023,08:00:00,08:00:00,16,1,40,http://www.ripta.com/40,Weekday
19520,"""ROCHAMBEAU NS COLE""",41.845872,-71.389364,2397023,08:01:00,08:01:00,17,1,40,http://www.ripta.com/40,Weekday
19460,"""ROCHAMBEAU NS BLACKSTONE""",41.845541,-71.387306,2397023,08:01:00,08:01:00,18,1,40,http://www.ripta.com/40,Weekday
19530,"""BLACKSTONE FS ROCHAMBEAU""",41.846121,-71.386708,2397023,08:02:00,08:02:00,19,1,40,http://www.ripta.com/40,Weekday
19550,"""BUTLER HOSPITAL ACCESS RD FS BLACKSTONE""",41.845879,-71.383373,2397023,08:03:00,08:03:00,20,1,40,http://www.ripta.com/40,Weekday
19245,"""BUTLER HOSPITAL""",41.843352,-71.381404,2397023,08:04:00,08:04:00,21,1,40,http://www.ripta.com/40,Weekday
19245,"""BUTLER HOSPITAL""",41.843352,-71.381404,2397036,07:25:00,07:25:00,1,0,40,http://www.ripta.com/40,Weekday
19605,"""BUTLER HOSPITAL ACCESS RD NS BLACKSTONE""",41.845932,-71.383297,2397036,07:26:00,07:26:00,2,0,40,http://www.ripta.com/40,Weekday
19725,"""BLACKSTONE AT SWAN PT CEMETARY""",41.847884,-71.386777,2397036,07:27:00,07:27:00,3,0,40,http://www.ripta.com/40,Weekday
19815,"""BLACKSTONE AT POLE 105""",41.850485,-71.386864,2397036,07:27:00,07:27:00,4,0,40,http://www.ripta.com/40,Weekday
19930,"""BLACKSTONE AT POLE 107""",41.85142,-71.387072,2397036,07:27:00,07:27:00,5,0,40,http://www.ripta.com/40,Weekday
19905,"""BLACKSTONE FS HARWICH""",41.85,-71.387436,2397036,07:28:00,07:28:00,6,0,40,http://www.ripta.com/40,Weekday
19810,"""BLACKSTONE FS HARTFORD""",41.848629,-71.387392,2397036,07:28:00,07:28:00,7,0,40,http://www.ripta.com/40,Weekday
19735,"""BLACKSTONE AT 420 BLACKSTONE""",41.847545,-71.387336,2397036,07:28:00,07:28:00,8,0,40,http://www.ripta.com/40,Weekday
60025,"""BLACKSTONE NS ROCHAMBEAU""",41.845893,-71.387265,2397036,07:29:00,07:29:00,9,0,40,http://www.ripta.com/40,Weekday
58050,"""ROCHAMBEAU OPP 405 ROCHAMBEAU""",41.84606,-71.389531,2397036,07:29:00,07:29:00,10,0,40,http://www.ripta.com/40,Weekday
58060,"""ELMGROVE OPP 311 ELMGROVE""",41.845182,-71.391926,2397036,07:29:00,07:29:00,11,0,40,http://www.ripta.com/40,Weekday
58070,"""ELMGROVE OPP JEWISH CENTET""",41.842002,-71.392696,2397036,07:30:00,07:30:00,12,0,40,http://www.ripta.com/40,Weekday
58105,"""ELMGROVE OPP 341 ELMGROVE""",41.840439,-71.392572,2397036,07:31:00,07:31:00,13,0,40,http://www.ripta.com/40,Weekday
58110,"""ELMGROVE AT POLE 58""",41.837813,-71.392045,2397036,07:31:00,07:31:00,14,0,40,http://www.ripta.com/40,Weekday
58120,"""ELMGROVE AT 152 ELMGROVE""",41.834888,-71.391099,2397036,07:33:00,07:33:00,15,0,40,http://www.ripta.com/40,Weekday
60030,"""ELMGROVE NS ADELPHI""",41.830869,-71.389706,2397036,07:34:00,07:34:00,16,0,40,http://www.ripta.com/40,Weekday
17290,"""ANGELL FS ELMGROVE""",41.829826,-71.389833,2397036,07:35:00,07:35:00,17,0,40,http://www.ripta.com/40,Weekday
17170,"""ANGELL OPP IVES""",41.829218,-71.393025,2397036,07:35:00,07:35:00,18,0,40,http://www.ripta.com/40,Weekday
17100,"""ANGELL NS HOPE""",41.828462,-71.397302,2397036,07:37:00,07:37:00,19,0,40,http://www.ripta.com/40,Weekday
17085,"""ANGELL AT PRESCOTT LIBRARY""",41.828357,-71.398382,2397036,07:37:00,07:37:00,20,0,40,http://www.ripta.com/40,Weekday
17045,"""TUNNEL FS THAYER""",41.827682,-71.400886,2397036,07:38:00,07:38:00,21,0,40,http://www.ripta.com/40,Weekday
16890,"""TUNNEL NS S MAIN""",41.826842,-71.408585,2397036,07:40:00,07:40:00,22,0,40,http://www.ripta.com/40,Weekday
16590,"""KENNEDY PLAZA (STOP I)""",41.825407,-71.411262,2397036,07:43:00,07:43:00,23,0,40,http://www.ripta.com/40,Weekday
16590,"""KENNEDY PLAZA (STOP I)""",41.825407,-71.411262,2397045,06:39:00,06:39:00,1,1,40,http://www.ripta.com/40,Weekday
16855,"""TUNNEL FS S MAIN""",41.82678,-71.408541,2397045,06:40:00,06:40:00,2,1,40,http://www.ripta.com/40,Weekday
16905,"""TUNNEL NS THAYER""",41.827607,-71.400864,2397045,06:43:00,06:43:00,3,1,40,http://www.ripta.com/40,Weekday
16970,"""WATERMAN NS HOPE""",41.827592,-71.397452,2397045,06:44:00,06:44:00,4,1,40,http://www.ripta.com/40,Weekday
17000,"""WATERMAN FS GOVERNOR""",41.827639,-71.393764,2397045,06:45:00,06:45:00,5,1,40,http://www.ripta.com/40,Weekday
17055,"""WATERMAN FS GANO""",41.82823,-71.390443,2397045,06:45:00,06:45:00,6,1,40,http://www.ripta.com/40,Weekday
17135,"""WAYLAND FS WATERMAN""",41.828921,-71.388232,2397045,06:46:00,06:46:00,7,1,40,http://www.ripta.com/40,Weekday
17255,"""WAYLAND NS S ANGELL""",41.829991,-71.387948,2397045,06:46:00,06:46:00,8,1,40,http://www.ripta.com/40,Weekday
17285,"""ANGELL FS WAYLAND""",41.830134,-71.388391,2397045,06:46:00,06:46:00,9,1,40,http://www.ripta.com/40,Weekday
17985,"""ELMGROVE NS UNIVERSITY""",41.833322,-71.390444,2397045,06:48:00,06:48:00,10,1,40,http://www.ripta.com/40,Weekday
18255,"""ELMGROVE NS PRESIDENT""",41.835144,-71.391098,2397045,06:48:00,06:48:00,11,1,40,http://www.ripta.com/40,Weekday
18530,"""ELMGROVE NS FREEMAN PKWAY""",41.837719,-71.391875,2397045,06:49:00,06:49:00,12,1,40,http://www.ripta.com/40,Weekday
59265,"""ELMGROVE NS SESSIONS""",41.841097,-71.392475,2397045,06:50:00,06:50:00,13,1,40,http://www.ripta.com/40,Weekday
18935,"""ELMGROVE FS SESSIONS""",41.84225,-71.392595,2397045,06:50:00,06:50:00,14,1,40,http://www.ripta.com/40,Weekday
55895,"""ELMGROVE NS WOODBURY""",41.845001,-71.391836,2397045,06:51:00,06:51:00,15,1,40,http://www.ripta.com/40,Weekday
19425,"""ELMGROVE NS ROCHAMBEAU""",41.846153,-71.391385,2397045,06:51:00,06:51:00,16,1,40,http://www.ripta.com/40,Weekday
19520,"""ROCHAMBEAU NS COLE""",41.845872,-71.389364,2397045,06:52:00,06:52:00,17,1,40,http://www.ripta.com/40,Weekday
19460,"""ROCHAMBEAU NS BLACKSTONE""",41.845541,-71.387306,2397045,06:52:00,06:52:00,18,1,40,http://www.ripta.com/40,Weekday
19530,"""BLACKSTONE FS ROCHAMBEAU""",41.846121,-71.386708,2397045,06:53:00,06:53:00,19,1,40,http://www.ripta.com/40,Weekday
19550,"""BUTLER HOSPITAL ACCESS RD FS BLACKSTONE""",41.845879,-71.383373,2397045,06:54:00,06:54:00,20,1,40,http://www.ripta.com/40,Weekday
19245,"""BUTLER HOSPITAL""",41.843352,-71.381404,2397045,06:55:00,06:55:00,21,1,40,http://www.ripta.com/40,Weekday
19245,"""BUTLER HOSPITAL""",41.843352,-71.381404,2407236,08:39:00,08:39:00,1,0,40,http://www.ripta.com/40,Weekday
19605,"""BUTLER HOSPITAL ACCESS RD NS BLACKSTONE""",41.845932,-71.383297,2407236,08:40:00,08:40:00,2,0,40,http://www.ripta.com/40,Weekday
19725,"""BLACKSTONE AT SWAN PT CEMETARY""",41.847884,-71.386777,2407236,08:41:00,08:41:00,3,0,40,http://www.ripta.com/40,Weekday
19815,"""BLACKSTONE AT POLE 105""",41.850485,-71.386864,2407236,08:41:00,08:41:00,4,0,40,http://www.ripta.com/40,Weekday
19930,"""BLACKSTONE AT POLE 107""",41.85142,-71.387072,2407236,08:41:00,08:41:00,5,0,40,http://www.ripta.com/40,Weekday
19905,"""BLACKSTONE FS HARWICH""",41.85,-71.387436,2407236,08:42:00,08:42:00,6,0,40,http://www.ripta.com/40,Weekday
19810,"""BLACKSTONE FS HARTFORD""",41.848629,-71.387392,2407236,08:42:00,08:42:00,7,0,40,http://www.ripta.com/40,Weekday
19735,"""BLACKSTONE AT 420 BLACKSTONE""",41.847545,-71.387336,2407236,08:42:00,08:42:00,8,0,40,http://www.ripta.com/40,Weekday
60025,"""BLACKSTONE NS ROCHAMBEAU""",41.845893,-71.387265,2407236,08:43:00,08:43:00,9,0,40,http://www.ripta.com/40,Weekday
58050,"""ROCHAMBEAU OPP 405 ROCHAMBEAU""",41.84606,-71.389531,2407236,08:43:00,08:43:00,10,0,40,http://www.ripta.com/40,Weekday
58060,"""ELMGROVE OPP 311 ELMGROVE""",41.845182,-71.391926,2407236,08:43:00,08:43:00,11,0,40,http://www.ripta.com/40,Weekday
58070,"""ELMGROVE OPP JEWISH CENTET""",41.842002,-71.392696,2407236,08:44:00,08:44:00,12,0,40,http://www.ripta.com/40,Weekday
58105,"""ELMGROVE OPP 341 ELMGROVE""",41.840439,-71.392572,2407236,08:45:00,08:45:00,13,0,40,http://www.ripta.com/40,Weekday
58110,"""ELMGROVE AT POLE 58""",41.837813,-71.392045,2407236,08:45:00,08:45:00,14,0,40,http://www.ripta.com/40,Weekday
58120,"""ELMGROVE AT 152 ELMGROVE""",41.834888,-71.391099,2407236,08:47:00,08:47:00,15,0,40,http://www.ripta.com/40,Weekday
60030,"""ELMGROVE NS ADELPHI""",41.830869,-71.389706,2407236,08:48:00,08:48:00,16,0,40,http://www.ripta.com/40,Weekday
17290,"""ANGELL FS ELMGROVE""",41.829826,-71.389833,2407236,08:49:00,08:49:00,17,0,40,http://www.ripta.com/40,Weekday
17170,"""ANGELL OPP IVES""",41.829218,-71.393025,2407236,08:49:00,08:49:00,18,0,40,http://www.ripta.com/40,Weekday
17100,"""ANGELL NS HOPE""",41.828462,-71.397302,2407236,08:51:00,08:51:00,19,0,40,http://www.ripta.com/40,Weekday
17085,"""ANGELL AT PRESCOTT LIBRARY""",41.828357,-71.398382,2407236,08:51:00,08:51:00,20,0,40,http://www.ripta.com/40,Weekday
17045,"""TUNNEL FS THAYER""",41.827682,-71.400886,2407236,08:52:00,08:52:00,21,0,40,http://www.ripta.com/40,Weekday
16890,"""TUNNEL NS S MAIN""",41.826842,-71.408585,2407236,08:55:00,08:55:00,22,0,40,http://www.ripta.com/40,Weekday
16400,"""KENNEDY PLAZA (STOP B)""",41.824733,-71.411583,2407236,08:57:00,08:57:00,23,0,40,http://www.ripta.com/40,Weekday
