stop_id,stop_name,stop_lat,stop_lon,trip_id,arrival_time,departure_time,stop_sequence,direction_id,route_id,route_url,serviceid
16525,"""KENNEDY PLAZA (STOP H)""",41.825212,-71.41155,2396785,19:00:00,19:00:00,1,1,32,http://www.ripta.com/32,Weekday
16855,"""TUNNEL FS S MAIN""",41.82678,-71.408541,2396785,19:01:00,19:01:00,2,1,32,http://www.ripta.com/32,Weekday
16905,"""TUNNEL NS THAYER""",41.827607,-71.400864,2396785,19:04:00,19:04:00,3,1,32,http://www.ripta.com/32,Weekday
16970,"""WATERMAN NS HOPE""",41.827592,-71.397452,2396785,19:05:00,19:05:00,4,1,32,http://www.ripta.com/32,Weekday
17000,"""WATERMAN FS GOVERNOR""",41.827639,-71.393764,2396785,19:06:00,19:06:00,5,1,32,http://www.ripta.com/32,Weekday
17055,"""WATERMAN FS GANO""",41.82823,-71.390443,2396785,19:07:00,19:07:00,6,1,32,http://www.ripta.com/32,Weekday
17105,"""WATERMAN FS WAYLAND""",41.828519,-71.388171,2396785,19:08:00,19:08:00,7,1,32,http://www.ripta.com/32,Weekday
17050,"""WATERMAN FS BUTLER""",41.827997,-71.385365,2396785,19:09:00,19:09:00,8,1,32,http://www.ripta.com/32,Weekday
17095,"""WATERMAN NS HENDERSON BRIDGE [ON-RAMP]""",41.827568,-71.383009,2396785,19:09:00,19:09:00,9,1,32,http://www.ripta.com/32,Weekday
16885,"""MASSASOIT OPP SUTTON""",41.82719,-71.376149,2396785,19:11:00,19:11:00,10,1,32,http://www.ripta.com/32,Weekday
16480,"""WATERMAN NS SUMMIT""",41.825279,-71.377191,2396785,19:12:00,19:12:00,11,1,32,http://www.ripta.com/32,Weekday
15955,"""WATERMAN NS JAMES""",41.8232,-71.373506,2396785,19:13:00,19:13:00,12,1,32,http://www.ripta.com/32,Weekday
15245,"""TAUNTON NS IVY""",41.819758,-71.37607,2396785,19:14:00,19:14:00,13,1,32,http://www.ripta.com/32,Weekday
15215,"""TAUNTON AVE / GROVE AVE""",41.819787,-71.377591,2396785,19:14:00,19:14:00,14,1,32,http://www.ripta.com/32,Weekday
14560,"""WARREN OPP S PHILLIPS""",41.816149,-71.378111,2396785,19:16:00,19:16:00,15,1,32,http://www.ripta.com/32,Weekday
14515,"""WARREN NS TENTH""",41.815628,-71.376591,2396785,19:16:00,19:16:00,16,1,32,http://www.ripta.com/32,Weekday
71050,"""WARREN FS LYON""",41.81524,-71.375479,2396785,19:16:00,19:16:00,17,1,32,http://www.ripta.com/32,Weekday
14460,"""WARREN NS BERKELEY""",41.814765,-71.374109,2396785,19:17:00,19:17:00,18,1,32,http://www.ripta.com/32,Weekday
14415,"""WARREN NS FRASER""",41.814053,-71.371889,2396785,19:17:00,19:17:00,19,1,32,http://www.ripta.com/32,Weekday
70810,"""S BROADWAY FS WINSOR""",41.813161,-71.370703,2396785,19:17:00,19:17:00,20,1,32,http://www.ripta.com/32,Weekday
13620,"""S BROADWAY FS FORT""",41.80855,-71.372187,2396785,19:18:00,19:18:00,21,1,32,http://www.ripta.com/32,Weekday
13460,"""S BROADWAY FS SETH""",41.807195,-71.372641,2396785,19:18:00,19:18:00,22,1,32,http://www.ripta.com/32,Weekday
13235,"""S BROADWAY OPP LEE""",41.805508,-71.37324,2396785,19:19:00,19:19:00,23,1,32,http://www.ripta.com/32,Weekday
12960,"""S BROADWAY OPP MARTIN""",41.802889,-71.3741,2396785,19:19:00,19:19:00,24,1,32,http://www.ripta.com/32,Weekday
70815,"""MARTIN OPP ANGELL""",41.801464,-71.367331,2396785,19:20:00,19:20:00,25,1,32,http://www.ripta.com/32,Weekday
12630,"""PAWTUCKET NS VINCENT""",41.799153,-71.363072,2396785,19:21:00,19:21:00,26,1,32,http://www.ripta.com/32,Weekday
70820,"""WAMPANOAG NS BUCK THORNE""",41.797289,-71.359453,2396785,19:22:00,19:22:00,27,1,32,http://www.ripta.com/32,Weekday
70825,"""WAMPANOAG FS GARDEN DR""",41.795855,-71.353412,2396785,19:23:00,19:23:00,28,1,32,http://www.ripta.com/32,Weekday
12115,"""TRIPPS LN FS WAMPANOAG TRAIL""",41.795579,-71.353166,2396785,19:23:00,19:23:00,29,1,32,http://www.ripta.com/32,Weekday
12015,"""TRIPPS LN OPP CITIZENS BANK""",41.794662,-71.353405,2396785,19:24:00,19:24:00,30,1,32,http://www.ripta.com/32,Weekday
11825,"""TRIPPS LN NS ORCHARD VIEW MANOR""",41.79134,-71.354289,2396785,19:24:00,19:24:00,31,1,32,http://www.ripta.com/32,Weekday
11700,"""CITIZENS OPERATIONS CTR - E PROVIDENCE""",41.790121,-71.356338,2396785,19:25:00,19:25:00,32,1,32,http://www.ripta.com/32,Weekday
11815,"""CITIZENS WAY NS TRIPPS LN""",41.791094,-71.354429,2396785,19:26:00,19:26:00,33,1,32,http://www.ripta.com/32,Weekday
11875,"""TRIPPS LN OPP MADELINE""",41.792115,-71.353956,2396785,19:26:00,19:26:00,34,1,32,http://www.ripta.com/32,Weekday
11970,"""TRIPPS LN AT 15 TRIPPS LANE""",41.794193,-71.353347,2396785,19:27:00,19:27:00,35,1,32,http://www.ripta.com/32,Weekday
12110,"""TRIPPS LN NS WAMPANOAG TRAIL""",41.795715,-71.352944,2396785,19:27:00,19:27:00,36,1,32,http://www.ripta.com/32,Weekday
72550,"""WAMPANOAG FS TRIPPS""",41.795641,-71.352418,2396785,19:27:00,19:27:00,37,1,32,http://www.ripta.com/32,Weekday
11715,"""WAMPANOAG OPP GATES OF HEAVEN""",41.791481,-71.344402,2396785,19:28:00,19:28:00,38,1,32,http://www.ripta.com/32,Weekday
11340,"""WAMPANOAG OPP 600 WAMPANOAG""",41.790814,-71.336598,2396785,19:29:00,19:29:00,39,1,32,http://www.ripta.com/32,Weekday
72555,"""RIVER FS MINK""",41.788883,-71.331974,2396785,19:30:00,19:30:00,40,1,32,http://www.ripta.com/32,Weekday
72530,"""SEEKONK SQUARE (COMMERCE WAY - SEEKONK)""",41.795428,-71.322655,2396785,19:33:00,19:33:00,41,1,32,http://www.ripta.com/32,Weekday
72530,"""SEEKONK SQUARE (COMMERCE WAY - SEEKONK)""",41.795428,-71.322655,2396801,18:25:00,18:25:00,1,0,32,http://www.ripta.com/32,Weekday
72540,"""WAMPANOAG FS AMARAL""",41.794488,-71.349167,2396801,18:29:00,18:29:00,2,0,32,http://www.ripta.com/32,Weekday
12115,"""TRIPPS LN FS WAMPANOAG TRAIL""",41.795579,-71.353166,2396801,18:31:00,18:31:00,3,0,32,http://www.ripta.com/32,Weekday
12015,"""TRIPPS LN OPP CITIZENS BANK""",41.794662,-71.353405,2396801,18:32:00,18:32:00,4,0,32,http://www.ripta.com/32,Weekday
11825,"""TRIPPS LN NS ORCHARD VIEW MANOR""",41.79134,-71.354289,2396801,18:33:00,18:33:00,5,0,32,http://www.ripta.com/32,Weekday
11700,"""CITIZENS OPERATIONS CTR - E PROVIDENCE""",41.790121,-71.356338,2396801,18:35:00,18:35:00,6,0,32,http://www.ripta.com/32,Weekday
11815,"""CITIZENS WAY NS TRIPPS LN""",41.791094,-71.354429,2396801,18:36:00,18:36:00,7,0,32,http://www.ripta.com/32,Weekday
11875,"""TRIPPS LN OPP MADELINE""",41.792115,-71.353956,2396801,18:37:00,18:37:00,8,0,32,http://www.ripta.com/32,Weekday
11970,"""TRIPPS LN AT 15 TRIPPS LANE""",41.794193,-71.353347,2396801,18:37:00,18:37:00,9,0,32,http://www.ripta.com/32,Weekday
12110,"""TRIPPS LN NS WAMPANOAG TRAIL""",41.795715,-71.352944,2396801,18:37:00,18:37:00,10,0,32,http://www.ripta.com/32,Weekday
70830,"""WAMPANOAG OPP GARDEN DR""",41.796644,-71.357025,2396801,18:38:00,18:38:00,11,0,32,http://www.ripta.com/32,Weekday
70835,"""WAMPANOAG OPP BUCK THORNE""",41.797319,-71.359184,2396801,18:38:00,18:38:00,12,0,32,http://www.ripta.com/32,Weekday
12605,"""PAWTUCKET OPP VINCENT""",41.799178,-71.362926,2396801,18:39:00,18:39:00,13,0,32,http://www.ripta.com/32,Weekday
70840,"""MARTIN FS PAWTUCKET""",41.801433,-71.366587,2396801,18:40:00,18:40:00,14,0,32,http://www.ripta.com/32,Weekday
70845,"""MARTIN OPP DODGE""",41.801833,-71.368737,2396801,18:41:00,18:41:00,15,0,32,http://www.ripta.com/32,Weekday
70850,"""S BROADWAY FS MARTIN""",41.803891,-71.373629,2396801,18:42:00,18:42:00,16,0,32,http://www.ripta.com/32,Weekday
13225,"""S BROADWAY FS RIDGE""",41.804984,-71.373294,2396801,18:42:00,18:42:00,17,0,32,http://www.ripta.com/32,Weekday
13435,"""S BROADWAY OPP 1253 S BROADWAY""",41.807274,-71.372493,2396801,18:42:00,18:42:00,18,0,32,http://www.ripta.com/32,Weekday
13645,"""S BROADWAY OPP 1149 S BROADWAY""",41.808281,-71.372168,2396801,18:43:00,18:43:00,19,0,32,http://www.ripta.com/32,Weekday
70855,"""S BROADWAY NS BELMONT""",41.809701,-71.371738,2396801,18:43:00,18:43:00,20,0,32,http://www.ripta.com/32,Weekday
70860,"""S BROADWAY NS WINSOR""",41.812959,-71.370659,2396801,18:44:00,18:44:00,21,0,32,http://www.ripta.com/32,Weekday
14420,"""WARREN NS S SHARON""",41.814364,-71.372559,2396801,18:44:00,18:44:00,22,0,32,http://www.ripta.com/32,Weekday
14465,"""WARREN  NS CARPENTER""",41.814951,-71.374393,2396801,18:44:00,18:44:00,23,0,32,http://www.ripta.com/32,Weekday
14525,"""WARREN AT 184 WARREN""",41.815713,-71.376568,2396801,18:45:00,18:45:00,24,0,32,http://www.ripta.com/32,Weekday
14630,"""WARREN OPP SEVENTH""",41.816458,-71.378666,2396801,18:46:00,18:46:00,25,0,32,http://www.ripta.com/32,Weekday
15150,"""TAUNTON FS POTTER""",41.819685,-71.379222,2396801,18:47:00,18:47:00,26,0,32,http://www.ripta.com/32,Weekday
72535,"""JAMES FS TAUNTON""",41.819968,-71.375085,2396801,18:47:00,18:47:00,27,0,32,http://www.ripta.com/32,Weekday
15975,"""WATERMAN FS JAMES""",41.823275,-71.373396,2396801,18:48:00,18:48:00,28,0,32,http://www.ripta.com/32,Weekday
16395,"""WATERMAN OPP SUMMIT""",41.825202,-71.376823,2396801,18:49:00,18:49:00,29,0,32,http://www.ripta.com/32,Weekday
16870,"""MASSASOIT FS SUTTON""",41.827277,-71.375701,2396801,18:49:00,18:49:00,30,0,32,http://www.ripta.com/32,Weekday
17125,"""MASSASOIT NS HENDERSON BRIDGE [ON-RAMP]""",41.828758,-71.371558,2396801,18:50:00,18:50:00,31,0,32,http://www.ripta.com/32,Weekday
17185,"""S ANGELL AT 120 S ANGELL""",41.829247,-71.383528,2396801,18:51:00,18:51:00,32,0,32,http://www.ripta.com/32,Weekday
17215,"""S ANGELL FS BUTLER""",41.829588,-71.385298,2396801,18:51:00,18:51:00,33,0,32,http://www.ripta.com/32,Weekday
59165,"""S ANGELL NS WAYLAND""",41.829994,-71.387362,2396801,18:52:00,18:52:00,34,0,32,http://www.ripta.com/32,Weekday
17285,"""ANGELL FS WAYLAND""",41.830134,-71.388391,2396801,18:52:00,18:52:00,35,0,32,http://www.ripta.com/32,Weekday
17290,"""ANGELL FS ELMGROVE""",41.829826,-71.389833,2396801,18:52:00,18:52:00,36,0,32,http://www.ripta.com/32,Weekday
17100,"""ANGELL NS HOPE""",41.828462,-71.397302,2396801,18:54:00,18:54:00,37,0,32,http://www.ripta.com/32,Weekday
17085,"""ANGELL AT PRESCOTT LIBRARY""",41.828357,-71.398382,2396801,18:54:00,18:54:00,38,0,32,http://www.ripta.com/32,Weekday
17045,"""TUNNEL FS THAYER""",41.827682,-71.400886,2396801,18:55:00,18:55:00,39,0,32,http://www.ripta.com/32,Weekday
16890,"""TUNNEL NS S MAIN""",41.826842,-71.408585,2396801,18:57:00,18:57:00,40,0,32,http://www.ripta.com/32,Weekday
16525,"""KENNEDY PLAZA (STOP H)""",41.825212,-71.41155,2396801,18:59:00,18:59:00,41,0,32,http://www.ripta.com/32,Weekday
16525,"""KENNEDY PLAZA (STOP H)""",41.825212,-71.41155,2396807,18:00:00,18:00:00,1,1,32,http://www.ripta.com/32,Weekday
16855,"""TUNNEL FS S MAIN""",41.82678,-71.408541,2396807,18:01:00,18:01:00,2,1,32,http://www.ripta.com/32,Weekday
16905,"""TUNNEL NS THAYER""",41.827607,-71.400864,2396807,18:04:00,18:04:00,3,1,32,http://www.ripta.com/32,Weekday
16970,"""WATERMAN NS HOPE""",41.827592,-71.397452,2396807,18:05:00,18:05:00,4,1,32,http://www.ripta.com/32,Weekday
17000,"""WATERMAN FS GOVERNOR""",41.827639,-71.393764,2396807,18:06:00,18:06:00,5,1,32,http://www.ripta.com/32,Weekday
17055,"""WATERMAN FS GANO""",41.82823,-71.390443,2396807,18:07:00,18:07:00,6,1,32,http://www.ripta.com/32,Weekday
17105,"""WATERMAN FS WAYLAND""",41.828519,-71.388171,2396807,18:08:00,18:08:00,7,1,32,http://www.ripta.com/32,Weekday
17050,"""WATERMAN FS BUTLER""",41.827997,-71.385365,2396807,18:09:00,18:09:00,8,1,32,http://www.ripta.com/32,Weekday
17095,"""WATERMAN NS HENDERSON BRIDGE [ON-RAMP]""",41.827568,-71.383009,2396807,18:09:00,18:09:00,9,1,32,http://www.ripta.com/32,Weekday
16885,"""MASSASOIT OPP SUTTON""",41.82719,-71.376149,2396807,18:11:00,18:11:00,10,1,32,http://www.ripta.com/32,Weekday
16480,"""WATERMAN NS SUMMIT""",41.825279,-71.377191,2396807,18:12:00,18:12:00,11,1,32,http://www.ripta.com/32,Weekday
15955,"""WATERMAN NS JAMES""",41.8232,-71.373506,2396807,18:13:00,18:13:00,12,1,32,http://www.ripta.com/32,Weekday
15245,"""TAUNTON NS IVY""",41.819758,-71.37607,2396807,18:14:00,18:14:00,13,1,32,http://www.ripta.com/32,Weekday
15215,"""TAUNTON AVE / GROVE AVE""",41.819787,-71.377591,2396807,18:14:00,18:14:00,14,1,32,http://www.ripta.com/32,Weekday
14560,"""WARREN OPP S PHILLIPS""",41.816149,-71.378111,2396807,18:16:00,18:16:00,15,1,32,http://www.ripta.com/32,Weekday
14515,"""WARREN NS TENTH""",41.815628,-71.376591,2396807,18:16:00,18:16:00,16,1,32,http://www.ripta.com/32,Weekday
71050,"""WARREN FS LYON""",41.81524,-71.375479,2396807,18:16:00,18:16:00,17,1,32,http://www.ripta.com/32,Weekday
14460,"""WARREN NS BERKELEY""",41.814765,-71.374109,2396807,18:17:00,18:17:00,18,1,32,http://www.ripta.com/32,Weekday
14415,"""WARREN NS FRASER""",41.814053,-71.371889,2396807,18:17:00,18:17:00,19,1,32,http://www.ripta.com/32,Weekday
70810,"""S BROADWAY FS WINSOR""",41.813161,-71.370703,2396807,18:17:00,18:17:00,20,1,32,http://www.ripta.com/32,Weekday
13620,"""S BROADWAY FS FORT""",41.80855,-71.372187,2396807,18:18:00,18:18:00,21,1,32,http://www.ripta.com/32,Weekday
13460,"""S BROADWAY FS SETH""",41.807195,-71.372641,2396807,18:18:00,18:18:00,22,1,32,http://www.ripta.com/32,Weekday
13235,"""S BROADWAY OPP LEE""",41.805508,-71.37324,2396807,18:19:00,18:19:00,23,1,32,http://www.ripta.com/32,Weekday
12960,"""S BROADWAY OPP MARTIN""",41.802889,-71.3741,2396807,18:19:00,18:19:00,24,1,32,http://www.ripta.com/32,Weekday
70815,"""MARTIN OPP ANGELL""",41.801464,-71.367331,2396807,18:20:00,18:20:00,25,1,32,http://www.ripta.com/32,Weekday
12630,"""PAWTUCKET NS VINCENT""",41.799153,-71.363072,2396807,18:21:00,18:21:00,26,1,32,http://www.ripta.com/32,Weekday
70820,"""WAMPANOAG NS BUCK THORNE""",41.797289,-71.359453,2396807,18:22:00,18:22:00,27,1,32,http://www.ripta.com/32,Weekday
70825,"""WAMPANOAG FS GARDEN DR""",41.795855,-71.353412,2396807,18:23:00,18:23:00,28,1,32,http://www.ripta.com/32,Weekday
12115,"""TRIPPS LN FS WAMPANOAG TRAIL""",41.795579,-71.353166,2396807,18:23:00,18:23:00,29,1,32,http://www.ripta.com/32,Weekday
12015,"""TRIPPS LN OPP CITIZENS BANK""",41.794662,-71.353405,2396807,18:24:00,18:24:00,30,1,32,http://www.ripta.com/32,Weekday
11825,"""TRIPPS LN NS ORCHARD VIEW MANOR""",41.79134,-71.354289,2396807,18:24:00,18:24:00,31,1,32,http://www.ripta.com/32,Weekday
11700,"""CITIZENS OPERATIONS CTR - E PROVIDENCE""",41.790121,-71.356338,2396807,18:25:00,18:25:00,32,1,32,http://www.ripta.com/32,Weekday
11815,"""CITIZENS WAY NS TRIPPS LN""",41.791094,-71.354429,2396807,18:26:00,18:26:00,33,1,32,http://www.ripta.com/32,Weekday
11875,"""TRIPPS LN OPP MADELINE""",41.792115,-71.353956,2396807,18:26:00,18:26:00,34,1,32,http://www.ripta.com/32,Weekday
11970,"""TRIPPS LN AT 15 TRIPPS LANE""",41.794193,-71.353347,2396807,18:27:00,18:27:00,35,1,32,http://www.ripta.com/32,Weekday
12110,"""TRIPPS LN NS WAMPANOAG TRAIL""",41.795715,-71.352944,2396807,18:27:00,18:27:00,36,1,32,http://www.ripta.com/32,Weekday
72550,"""WAMPANOAG FS TRIPPS""",41.795641,-71.352418,2396807,18:27:00,18:27:00,37,1,32,http://www.ripta.com/32,Weekday
11715,"""WAMPANOAG OPP GATES OF HEAVEN""",41.791481,-71.344402,2396807,18:28:00,18:28:00,38,1,32,http://www.ripta.com/32,Weekday
11340,"""WAMPANOAG OPP 600 WAMPANOAG""",41.790814,-71.336598,2396807,18:29:00,18:29:00,39,1,32,http://www.ripta.com/32,Weekday
72555,"""RIVER FS MINK""",41.788883,-71.331974,2396807,18:30:00,18:30:00,40,1,32,http://www.ripta.com/32,Weekday
72530,"""SEEKONK SQUARE (COMMERCE WAY - SEEKONK)""",41.795428,-71.322655,2396807,18:33:00,18:33:00,41,1,32,http://www.ripta.com/32,Weekday
72530,"""SEEKONK SQUARE (COMMERCE WAY - SEEKONK)""",41.795428,-71.322655,2396820,17:22:00,17:22:00,1,0,32,http://www.ripta.com/32,Weekday
72540,"""WAMPANOAG FS AMARAL""",41.794488,-71.349167,2396820,17:26:00,17:26:00,2,0,32,http://www.ripta.com/32,Weekday
12115,"""TRIPPS LN FS WAMPANOAG TRAIL""",41.795579,-71.353166,2396820,17:28:00,17:28:00,3,0,32,http://www.ripta.com/32,Weekday
12015,"""TRIPPS LN OPP CITIZENS BANK""",41.794662,-71.353405,2396820,17:29:00,17:29:00,4,0,32,http://www.ripta.com/32,Weekday
11825,"""TRIPPS LN NS ORCHARD VIEW MANOR""",41.79134,-71.354289,2396820,17:30:00,17:30:00,5,0,32,http://www.ripta.com/32,Weekday
11700,"""CITIZENS OPERATIONS CTR - E PROVIDENCE""",41.790121,-71.356338,2396820,17:32:00,17:32:00,6,0,32,http://www.ripta.com/32,Weekday
11815,"""CITIZENS WAY NS TRIPPS LN""",41.791094,-71.354429,2396820,17:34:00,17:34:00,7,0,32,http://www.ripta.com/32,Weekday
11875,"""TRIPPS LN OPP MADELINE""",41.792115,-71.353956,2396820,17:34:00,17:34:00,8,0,32,http://www.ripta.com/32,Weekday
11970,"""TRIPPS LN AT 15 TRIPPS LANE""",41.794193,-71.353347,2396820,17:34:00,17:34:00,9,0,32,http://www.ripta.com/32,Weekday
12110,"""TRIPPS LN NS WAMPANOAG TRAIL""",41.795715,-71.352944,2396820,17:35:00,17:35:00,10,0,32,http://www.ripta.com/32,Weekday
70830,"""WAMPANOAG OPP GARDEN DR""",41.796644,-71.357025,2396820,17:36:00,17:36:00,11,0,32,http://www.ripta.com/32,Weekday
70835,"""WAMPANOAG OPP BUCK THORNE""",41.797319,-71.359184,2396820,17:36:00,17:36:00,12,0,32,http://www.ripta.com/32,Weekday
12605,"""PAWTUCKET OPP VINCENT""",41.799178,-71.362926,2396820,17:37:00,17:37:00,13,0,32,http://www.ripta.com/32,Weekday
70840,"""MARTIN FS PAWTUCKET""",41.801433,-71.366587,2396820,17:38:00,17:38:00,14,0,32,http://www.ripta.com/32,Weekday
70845,"""MARTIN OPP DODGE""",41.801833,-71.368737,2396820,17:38:00,17:38:00,15,0,32,http://www.ripta.com/32,Weekday
70850,"""S BROADWAY FS MARTIN""",41.803891,-71.373629,2396820,17:40:00,17:40:00,16,0,32,http://www.ripta.com/32,Weekday
13225,"""S BROADWAY FS RIDGE""",41.804984,-71.373294,2396820,17:40:00,17:40:00,17,0,32,http://www.ripta.com/32,Weekday
13435,"""S BROADWAY OPP 1253 S BROADWAY""",41.807274,-71.372493,2396820,17:40:00,17:40:00,18,0,32,http://www.ripta.com/32,Weekday
13645,"""S BROADWAY OPP 1149 S BROADWAY""",41.808281,-71.372168,2396820,17:41:00,17:41:00,19,0,32,http://www.ripta.com/32,Weekday
70855,"""S BROADWAY NS BELMONT""",41.809701,-71.371738,2396820,17:41:00,17:41:00,20,0,32,http://www.ripta.com/32,Weekday
70860,"""S BROADWAY NS WINSOR""",41.812959,-71.370659,2396820,17:42:00,17:42:00,21,0,32,http://www.ripta.com/32,Weekday
14420,"""WARREN NS S SHARON""",41.814364,-71.372559,2396820,17:42:00,17:42:00,22,0,32,http://www.ripta.com/32,Weekday
14465,"""WARREN  NS CARPENTER""",41.814951,-71.374393,2396820,17:42:00,17:42:00,23,0,32,http://www.ripta.com/32,Weekday
14525,"""WARREN AT 184 WARREN""",41.815713,-71.376568,2396820,17:43:00,17:43:00,24,0,32,http://www.ripta.com/32,Weekday
14630,"""WARREN OPP SEVENTH""",41.816458,-71.378666,2396820,17:44:00,17:44:00,25,0,32,http://www.ripta.com/32,Weekday
15150,"""TAUNTON FS POTTER""",41.819685,-71.379222,2396820,17:45:00,17:45:00,26,0,32,http://www.ripta.com/32,Weekday
72535,"""JAMES FS TAUNTON""",41.819968,-71.375085,2396820,17:45:00,17:45:00,27,0,32,http://www.ripta.com/32,Weekday
15975,"""WATERMAN FS JAMES""",41.823275,-71.373396,2396820,17:46:00,17:46:00,28,0,32,http://www.ripta.com/32,Weekday
16395,"""WATERMAN OPP SUMMIT""",41.825202,-71.376823,2396820,17:47:00,17:47:00,29,0,32,http://www.ripta.com/32,Weekday
16870,"""MASSASOIT FS SUTTON""",41.827277,-71.375701,2396820,17:47:00,17:47:00,30,0,32,http://www.ripta.com/32,Weekday
17125,"""MASSASOIT NS HENDERSON BRIDGE [ON-RAMP]""",41.828758,-71.371558,2396820,17:48:00,17:48:00,31,0,32,http://www.ripta.com/32,Weekday
17185,"""S ANGELL AT 120 S ANGELL""",41.829247,-71.383528,2396820,17:49:00,17:49:00,32,0,32,http://www.ripta.com/32,Weekday
17215,"""S ANGELL FS BUTLER""",41.829588,-71.385298,2396820,17:49:00,17:49:00,33,0,32,http://www.ripta.com/32,Weekday
59165,"""S ANGELL NS WAYLAND""",41.829994,-71.387362,2396820,17:50:00,17:50:00,34,0,32,http://www.ripta.com/32,Weekday
17285,"""ANGELL FS WAYLAND""",41.830134,-71.388391,2396820,17:50:00,17:50:00,35,0,32,http://www.ripta.com/32,Weekday
17290,"""ANGELL FS ELMGROVE""",41.829826,-71.389833,2396820,17:50:00,17:50:00,36,0,32,http://www.ripta.com/32,Weekday
17100,"""ANGELL NS HOPE""",41.828462,-71.397302,2396820,17:53:00,17:53:00,37,0,32,http://www.ripta.com/32,Weekday
17085,"""ANGELL AT PRESCOTT LIBRARY""",41.828357,-71.398382,2396820,17:53:00,17:53:00,38,0,32,http://www.ripta.com/32,Weekday
17045,"""TUNNEL FS THAYER""",41.827682,-71.400886,2396820,17:54:00,17:54:00,39,0,32,http://www.ripta.com/32,Weekday
16890,"""TUNNEL NS S MAIN""",41.826842,-71.408585,2396820,17:56:00,17:56:00,40,0,32,http://www.ripta.com/32,Weekday
16525,"""KENNEDY PLAZA (STOP H)""",41.825212,-71.41155,2396820,17:59:00,17:59:00,41,0,32,http://www.ripta.com/32,Weekday
16525,"""KENNEDY PLAZA (STOP H)""",41.825212,-71.41155,2396828,17:00:00,17:00:00,1,1,32,http://www.ripta.com/32,Weekday
16855,"""TUNNEL FS S MAIN""",41.82678,-71.408541,2396828,17:02:00,17:02:00,2,1,32,http://www.ripta.com/32,Weekday
16905,"""TUNNEL NS THAYER""",41.827607,-71.400864,2396828,17:05:00,17:05:00,3,1,32,http://www.ripta.com/32,Weekday
16970,"""WATERMAN NS HOPE""",41.827592,-71.397452,2396828,17:06:00,17:06:00,4,1,32,http://www.ripta.com/32,Weekday
17000,"""WATERMAN FS GOVERNOR""",41.827639,-71.393764,2396828,17:07:00,17:07:00,5,1,32,http://www.ripta.com/32,Weekday
17055,"""WATERMAN FS GANO""",41.82823,-71.390443,2396828,17:08:00,17:08:00,6,1,32,http://www.ripta.com/32,Weekday
17105,"""WATERMAN FS WAYLAND""",41.828519,-71.388171,2396828,17:09:00,17:09:00,7,1,32,http://www.ripta.com/32,Weekday
17050,"""WATERMAN FS BUTLER""",41.827997,-71.385365,2396828,17:10:00,17:10:00,8,1,32,http://www.ripta.com/32,Weekday
17095,"""WATERMAN NS HENDERSON BRIDGE [ON-RAMP]""",41.827568,-71.383009,2396828,17:10:00,17:10:00,9,1,32,http://www.ripta.com/32,Weekday
16885,"""MASSASOIT OPP SUTTON""",41.82719,-71.376149,2396828,17:12:00,17:12:00,10,1,32,http://www.ripta.com/32,Weekday
16480,"""WATERMAN NS SUMMIT""",41.825279,-71.377191,2396828,17:13:00,17:13:00,11,1,32,http://www.ripta.com/32,Weekday
15955,"""WATERMAN NS JAMES""",41.8232,-71.373506,2396828,17:14:00,17:14:00,12,1,32,http://www.ripta.com/32,Weekday
15245,"""TAUNTON NS IVY""",41.819758,-71.37607,2396828,17:15:00,17:15:00,13,1,32,http://www.ripta.com/32,Weekday
15215,"""TAUNTON AVE / GROVE AVE""",41.819787,-71.377591,2396828,17:15:00,17:15:00,14,1,32,http://www.ripta.com/32,Weekday
14560,"""WARREN OPP S PHILLIPS""",41.816149,-71.378111,2396828,17:17:00,17:17:00,15,1,32,http://www.ripta.com/32,Weekday
14515,"""WARREN NS TENTH""",41.815628,-71.376591,2396828,17:17:00,17:17:00,16,1,32,http://www.ripta.com/32,Weekday
71050,"""WARREN FS LYON""",41.81524,-71.375479,2396828,17:17:00,17:17:00,17,1,32,http://www.ripta.com/32,Weekday
14460,"""WARREN NS BERKELEY""",41.814765,-71.374109,2396828,17:18:00,17:18:00,18,1,32,http://www.ripta.com/32,Weekday
14415,"""WARREN NS FRASER""",41.814053,-71.371889,2396828,17:18:00,17:18:00,19,1,32,http://www.ripta.com/32,Weekday
70810,"""S BROADWAY FS WINSOR""",41.813161,-71.370703,2396828,17:18:00,17:18:00,20,1,32,http://www.ripta.com/32,Weekday
13620,"""S BROADWAY FS FORT""",41.80855,-71.372187,2396828,17:19:00,17:19:00,21,1,32,http://www.ripta.com/32,Weekday
13460,"""S BROADWAY FS SETH""",41.807195,-71.372641,2396828,17:19:00,17:19:00,22,1,32,http://www.ripta.com/32,Weekday
13235,"""S BROADWAY OPP LEE""",41.805508,-71.37324,2396828,17:20:00,17:20:00,23,1,32,http://www.ripta.com/32,Weekday
12960,"""S BROADWAY OPP MARTIN""",41.802889,-71.3741,2396828,17:20:00,17:20:00,24,1,32,http://www.ripta.com/32,Weekday
70815,"""MARTIN OPP ANGELL""",41.801464,-71.367331,2396828,17:21:00,17:21:00,25,1,32,http://www.ripta.com/32,Weekday
12630,"""PAWTUCKET NS VINCENT""",41.799153,-71.363072,2396828,17:22:00,17:22:00,26,1,32,http://www.ripta.com/32,Weekday
70820,"""WAMPANOAG NS BUCK THORNE""",41.797289,-71.359453,2396828,17:23:00,17:23:00,27,1,32,http://www.ripta.com/32,Weekday
70825,"""WAMPANOAG FS GARDEN DR""",41.795855,-71.353412,2396828,17:24:00,17:24:00,28,1,32,http://www.ripta.com/32,Weekday
12115,"""TRIPPS LN FS WAMPANOAG TRAIL""",41.795579,-71.353166,2396828,17:24:00,17:24:00,29,1,32,http://www.ripta.com/32,Weekday
12015,"""TRIPPS LN OPP CITIZENS BANK""",41.794662,-71.353405,2396828,17:25:00,17:25:00,30,1,32,http://www.ripta.com/32,Weekday
11825,"""TRIPPS LN NS ORCHARD VIEW MANOR""",41.79134,-71.354289,2396828,17:25:00,17:25:00,31,1,32,http://www.ripta.com/32,Weekday
11700,"""CITIZENS OPERATIONS CTR - E PROVIDENCE""",41.790121,-71.356338,2396828,17:26:00,17:26:00,32,1,32,http://www.ripta.com/32,Weekday
11815,"""CITIZENS WAY NS TRIPPS LN""",41.791094,-71.354429,2396828,17:27:00,17:27:00,33,1,32,http://www.ripta.com/32,Weekday
11875,"""TRIPPS LN OPP MADELINE""",41.792115,-71.353956,2396828,17:27:00,17:27:00,34,1,32,http://www.ripta.com/32,Weekday
11970,"""TRIPPS LN AT 15 TRIPPS LANE""",41.794193,-71.353347,2396828,17:28:00,17:28:00,35,1,32,http://www.ripta.com/32,Weekday
12110,"""TRIPPS LN NS WAMPANOAG TRAIL""",41.795715,-71.352944,2396828,17:28:00,17:28:00,36,1,32,http://www.ripta.com/32,Weekday
72550,"""WAMPANOAG FS TRIPPS""",41.795641,-71.352418,2396828,17:28:00,17:28:00,37,1,32,http://www.ripta.com/32,Weekday
11715,"""WAMPANOAG OPP GATES OF HEAVEN""",41.791481,-71.344402,2396828,17:29:00,17:29:00,38,1,32,http://www.ripta.com/32,Weekday
11340,"""WAMPANOAG OPP 600 WAMPANOAG""",41.790814,-71.336598,2396828,17:30:00,17:30:00,39,1,32,http://www.ripta.com/32,Weekday
72555,"""RIVER FS MINK""",41.788883,-71.331974,2396828,17:31:00,17:31:00,40,1,32,http://www.ripta.com/32,Weekday
72530,"""SEEKONK SQUARE (COMMERCE WAY - SEEKONK)""",41.795428,-71.322655,2396828,17:34:00,17:34:00,41,1,32,http://www.ripta.com/32,Weekday
72530,"""SEEKONK SQUARE (COMMERCE WAY - SEEKONK)""",41.795428,-71.322655,2396841,16:22:00,16:22:00,1,0,32,http://www.ripta.com/32,Weekday
72540,"""WAMPANOAG FS AMARAL""",41.794488,-71.349167,2396841,16:26:00,16:26:00,2,0,32,http://www.ripta.com/32,Weekday
12115,"""TRIPPS LN FS WAMPANOAG TRAIL""",41.795579,-71.353166,2396841,16:28:00,16:28:00,3,0,32,http://www.ripta.com/32,Weekday
12015,"""TRIPPS LN OPP CITIZENS BANK""",41.794662,-71.353405,2396841,16:29:00,16:29:00,4,0,32,http://www.ripta.com/32,Weekday
11825,"""TRIPPS LN NS ORCHARD VIEW MANOR""",41.79134,-71.354289,2396841,16:30:00,16:30:00,5,0,32,http://www.ripta.com/32,Weekday
11700,"""CITIZENS OPERATIONS CTR - E PROVIDENCE""",41.790121,-71.356338,2396841,16:32:00,16:32:00,6,0,32,http://www.ripta.com/32,Weekday
11815,"""CITIZENS WAY NS TRIPPS LN""",41.791094,-71.354429,2396841,16:34:00,16:34:00,7,0,32,http://www.ripta.com/32,Weekday
11875,"""TRIPPS LN OPP MADELINE""",41.792115,-71.353956,2396841,16:34:00,16:34:00,8,0,32,http://www.ripta.com/32,Weekday
11970,"""TRIPPS LN AT 15 TRIPPS LANE""",41.794193,-71.353347,2396841,16:34:00,16:34:00,9,0,32,http://www.ripta.com/32,Weekday
12110,"""TRIPPS LN NS WAMPANOAG TRAIL""",41.795715,-71.352944,2396841,16:35:00,16:35:00,10,0,32,http://www.ripta.com/32,Weekday
70830,"""WAMPANOAG OPP GARDEN DR""",41.796644,-71.357025,2396841,16:36:00,16:36:00,11,0,32,http://www.ripta.com/32,Weekday
70835,"""WAMPANOAG OPP BUCK THORNE""",41.797319,-71.359184,2396841,16:36:00,16:36:00,12,0,32,http://www.ripta.com/32,Weekday
12605,"""PAWTUCKET OPP VINCENT""",41.799178,-71.362926,2396841,16:37:00,16:37:00,13,0,32,http://www.ripta.com/32,Weekday
70840,"""MARTIN FS PAWTUCKET""",41.801433,-71.366587,2396841,16:38:00,16:38:00,14,0,32,http://www.ripta.com/32,Weekday
70845,"""MARTIN OPP DODGE""",41.801833,-71.368737,2396841,16:38:00,16:38:00,15,0,32,http://www.ripta.com/32,Weekday
70850,"""S BROADWAY FS MARTIN""",41.803891,-71.373629,2396841,16:40:00,16:40:00,16,0,32,http://www.ripta.com/32,Weekday
13225,"""S BROADWAY FS RIDGE""",41.804984,-71.373294,2396841,16:40:00,16:40:00,17,0,32,http://www.ripta.com/32,Weekday
13435,"""S BROADWAY OPP 1253 S BROADWAY""",41.807274,-71.372493,2396841,16:40:00,16:40:00,18,0,32,http://www.ripta.com/32,Weekday
13645,"""S BROADWAY OPP 1149 S BROADWAY""",41.808281,-71.372168,2396841,16:41:00,16:41:00,19,0,32,http://www.ripta.com/32,Weekday
70855,"""S BROADWAY NS BELMONT""",41.809701,-71.371738,2396841,16:41:00,16:41:00,20,0,32,http://www.ripta.com/32,Weekday
70860,"""S BROADWAY NS WINSOR""",41.812959,-71.370659,2396841,16:42:00,16:42:00,21,0,32,http://www.ripta.com/32,Weekday
14420,"""WARREN NS S SHARON""",41.814364,-71.372559,2396841,16:42:00,16:42:00,22,0,32,http://www.ripta.com/32,Weekday
14465,"""WARREN  NS CARPENTER""",41.814951,-71.374393,2396841,16:42:00,16:42:00,23,0,32,http://www.ripta.com/32,Weekday
14525,"""WARREN AT 184 WARREN""",41.815713,-71.376568,2396841,16:43:00,16:43:00,24,0,32,http://www.ripta.com/32,Weekday
14630,"""WARREN OPP SEVENTH""",41.816458,-71.378666,2396841,16:44:00,16:44:00,25,0,32,http://www.ripta.com/32,Weekday
15150,"""TAUNTON FS POTTER""",41.819685,-71.379222,2396841,16:45:00,16:45:00,26,0,32,http://www.ripta.com/32,Weekday
72535,"""JAMES FS TAUNTON""",41.819968,-71.375085,2396841,16:45:00,16:45:00,27,0,32,http://www.ripta.com/32,Weekday
15975,"""WATERMAN FS JAMES""",41.823275,-71.373396,2396841,16:46:00,16:46:00,28,0,32,http://www.ripta.com/32,Weekday
16395,"""WATERMAN OPP SUMMIT""",41.825202,-71.376823,2396841,16:47:00,16:47:00,29,0,32,http://www.ripta.com/32,Weekday
16870,"""MASSASOIT FS SUTTON""",41.827277,-71.375701,2396841,16:47:00,16:47:00,30,0,32,http://www.ripta.com/32,Weekday
17125,"""MASSASOIT NS HENDERSON BRIDGE [ON-RAMP]""",41.828758,-71.371558,2396841,16:48:00,16:48:00,31,0,32,http://www.ripta.com/32,Weekday
17185,"""S ANGELL AT 120 S ANGELL""",41.829247,-71.383528,2396841,16:49:00,16:49:00,32,0,32,http://www.ripta.com/32,Weekday
17215,"""S ANGELL FS BUTLER""",41.829588,-71.385298,2396841,16:49:00,16:49:00,33,0,32,http://www.ripta.com/32,Weekday
59165,"""S ANGELL NS WAYLAND""",41.829994,-71.387362,2396841,16:50:00,16:50:00,34,0,32,http://www.ripta.com/32,Weekday
17285,"""ANGELL FS WAYLAND""",41.830134,-71.388391,2396841,16:50:00,16:50:00,35,0,32,http://www.ripta.com/32,Weekday
17290,"""ANGELL FS ELMGROVE""",41.829826,-71.389833,2396841,16:50:00,16:50:00,36,0,32,http://www.ripta.com/32,Weekday
17100,"""ANGELL NS HOPE""",41.828462,-71.397302,2396841,16:53:00,16:53:00,37,0,32,http://www.ripta.com/32,Weekday
17085,"""ANGELL AT PRESCOTT LIBRARY""",41.828357,-71.398382,2396841,16:53:00,16:53:00,38,0,32,http://www.ripta.com/32,Weekday
17045,"""TUNNEL FS THAYER""",41.827682,-71.400886,2396841,16:54:00,16:54:00,39,0,32,http://www.ripta.com/32,Weekday
16890,"""TUNNEL NS S MAIN""",41.826842,-71.408585,2396841,16:56:00,16:56:00,40,0,32,http://www.ripta.com/32,Weekday
16525,"""KENNEDY PLAZA (STOP H)""",41.825212,-71.41155,2396841,16:59:00,16:59:00,41,0,32,http://www.ripta.com/32,Weekday
16525,"""KENNEDY PLAZA (STOP H)""",41.825212,-71.41155,2396843,16:00:00,16:00:00,1,1,32,http://www.ripta.com/32,Weekday
16855,"""TUNNEL FS S MAIN""",41.82678,-71.408541,2396843,16:02:00,16:02:00,2,1,32,http://www.ripta.com/32,Weekday
16905,"""TUNNEL NS THAYER""",41.827607,-71.400864,2396843,16:05:00,16:05:00,3,1,32,http://www.ripta.com/32,Weekday
16970,"""WATERMAN NS HOPE""",41.827592,-71.397452,2396843,16:06:00,16:06:00,4,1,32,http://www.ripta.com/32,Weekday
17000,"""WATERMAN FS GOVERNOR""",41.827639,-71.393764,2396843,16:07:00,16:07:00,5,1,32,http://www.ripta.com/32,Weekday
17055,"""WATERMAN FS GANO""",41.82823,-71.390443,2396843,16:08:00,16:08:00,6,1,32,http://www.ripta.com/32,Weekday
17105,"""WATERMAN FS WAYLAND""",41.828519,-71.388171,2396843,16:09:00,16:09:00,7,1,32,http://www.ripta.com/32,Weekday
17050,"""WATERMAN FS BUTLER""",41.827997,-71.385365,2396843,16:10:00,16:10:00,8,1,32,http://www.ripta.com/32,Weekday
17095,"""WATERMAN NS HENDERSON BRIDGE [ON-RAMP]""",41.827568,-71.383009,2396843,16:10:00,16:10:00,9,1,32,http://www.ripta.com/32,Weekday
16885,"""MASSASOIT OPP SUTTON""",41.82719,-71.376149,2396843,16:12:00,16:12:00,10,1,32,http://www.ripta.com/32,Weekday
16480,"""WATERMAN NS SUMMIT""",41.825279,-71.377191,2396843,16:13:00,16:13:00,11,1,32,http://www.ripta.com/32,Weekday
15955,"""WATERMAN NS JAMES""",41.8232,-71.373506,2396843,16:14:00,16:14:00,12,1,32,http://www.ripta.com/32,Weekday
15245,"""TAUNTON NS IVY""",41.819758,-71.37607,2396843,16:15:00,16:15:00,13,1,32,http://www.ripta.com/32,Weekday
15215,"""TAUNTON AVE / GROVE AVE""",41.819787,-71.377591,2396843,16:15:00,16:15:00,14,1,32,http://www.ripta.com/32,Weekday
14560,"""WARREN OPP S PHILLIPS""",41.816149,-71.378111,2396843,16:17:00,16:17:00,15,1,32,http://www.ripta.com/32,Weekday
14515,"""WARREN NS TENTH""",41.815628,-71.376591,2396843,16:17:00,16:17:00,16,1,32,http://www.ripta.com/32,Weekday
71050,"""WARREN FS LYON""",41.81524,-71.375479,2396843,16:17:00,16:17:00,17,1,32,http://www.ripta.com/32,Weekday
14460,"""WARREN NS BERKELEY""",41.814765,-71.374109,2396843,16:18:00,16:18:00,18,1,32,http://www.ripta.com/32,Weekday
14415,"""WARREN NS FRASER""",41.814053,-71.371889,2396843,16:18:00,16:18:00,19,1,32,http://www.ripta.com/32,Weekday
70810,"""S BROADWAY FS WINSOR""",41.813161,-71.370703,2396843,16:18:00,16:18:00,20,1,32,http://www.ripta.com/32,Weekday
13620,"""S BROADWAY FS FORT""",41.80855,-71.372187,2396843,16:19:00,16:19:00,21,1,32,http://www.ripta.com/32,Weekday
13460,"""S BROADWAY FS SETH""",41.807195,-71.372641,2396843,16:19:00,16:19:00,22,1,32,http://www.ripta.com/32,Weekday
13235,"""S BROADWAY OPP LEE""",41.805508,-71.37324,2396843,16:20:00,16:20:00,23,1,32,http://www.ripta.com/32,Weekday
12960,"""S BROADWAY OPP MARTIN""",41.802889,-71.3741,2396843,16:20:00,16:20:00,24,1,32,http://www.ripta.com/32,Weekday
70815,"""MARTIN OPP ANGELL""",41.801464,-71.367331,2396843,16:21:00,16:21:00,25,1,32,http://www.ripta.com/32,Weekday
12630,"""PAWTUCKET NS VINCENT""",41.799153,-71.363072,2396843,16:22:00,16:22:00,26,1,32,http://www.ripta.com/32,Weekday
70820,"""WAMPANOAG NS BUCK THORNE""",41.797289,-71.359453,2396843,16:23:00,16:23:00,27,1,32,http://www.ripta.com/32,Weekday
70825,"""WAMPANOAG FS GARDEN DR""",41.795855,-71.353412,2396843,16:24:00,16:24:00,28,1,32,http://www.ripta.com/32,Weekday
12115,"""TRIPPS LN FS WAMPANOAG TRAIL""",41.795579,-71.353166,2396843,16:24:00,16:24:00,29,1,32,http://www.ripta.com/32,Weekday
12015,"""TRIPPS LN OPP CITIZENS BANK""",41.794662,-71.353405,2396843,16:25:00,16:25:00,30,1,32,http://www.ripta.com/32,Weekday
11825,"""TRIPPS LN NS ORCHARD VIEW MANOR""",41.79134,-71.354289,2396843,16:25:00,16:25:00,31,1,32,http://www.ripta.com/32,Weekday
11700,"""CITIZENS OPERATIONS CTR - E PROVIDENCE""",41.790121,-71.356338,2396843,16:26:00,16:26:00,32,1,32,http://www.ripta.com/32,Weekday
11815,"""CITIZENS WAY NS TRIPPS LN""",41.791094,-71.354429,2396843,16:27:00,16:27:00,33,1,32,http://www.ripta.com/32,Weekday
11875,"""TRIPPS LN OPP MADELINE""",41.792115,-71.353956,2396843,16:27:00,16:27:00,34,1,32,http://www.ripta.com/32,Weekday
11970,"""TRIPPS LN AT 15 TRIPPS LANE""",41.794193,-71.353347,2396843,16:28:00,16:28:00,35,1,32,http://www.ripta.com/32,Weekday
12110,"""TRIPPS LN NS WAMPANOAG TRAIL""",41.795715,-71.352944,2396843,16:28:00,16:28:00,36,1,32,http://www.ripta.com/32,Weekday
72550,"""WAMPANOAG FS TRIPPS""",41.795641,-71.352418,2396843,16:28:00,16:28:00,37,1,32,http://www.ripta.com/32,Weekday
11715,"""WAMPANOAG OPP GATES OF HEAVEN""",41.791481,-71.344402,2396843,16:29:00,16:29:00,38,1,32,http://www.ripta.com/32,Weekday
11340,"""WAMPANOAG OPP 600 WAMPANOAG""",41.790814,-71.336598,2396843,16:30:00,16:30:00,39,1,32,http://www.ripta.com/32,Weekday
72555,"""RIVER FS MINK""",41.788883,-71.331974,2396843,16:31:00,16:31:00,40,1,32,http://www.ripta.com/32,Weekday
72530,"""SEEKONK SQUARE (COMMERCE WAY - SEEKONK)""",41.795428,-71.322655,2396843,16:34:00,16:34:00,41,1,32,http://www.ripta.com/32,Weekday
72530,"""SEEKONK SQUARE (COMMERCE WAY - SEEKONK)""",41.795428,-71.322655,2396860,15:22:00,15:22:00,1,0,32,http://www.ripta.com/32,Weekday
72540,"""WAMPANOAG FS AMARAL""",41.794488,-71.349167,2396860,15:26:00,15:26:00,2,0,32,http://www.ripta.com/32,Weekday
12115,"""TRIPPS LN FS WAMPANOAG TRAIL""",41.795579,-71.353166,2396860,15:28:00,15:28:00,3,0,32,http://www.ripta.com/32,Weekday
12015,"""TRIPPS LN OPP CITIZENS BANK""",41.794662,-71.353405,2396860,15:29:00,15:29:00,4,0,32,http://www.ripta.com/32,Weekday
11825,"""TRIPPS LN NS ORCHARD VIEW MANOR""",41.79134,-71.354289,2396860,15:30:00,15:30:00,5,0,32,http://www.ripta.com/32,Weekday
11700,"""CITIZENS OPERATIONS CTR - E PROVIDENCE""",41.790121,-71.356338,2396860,15:32:00,15:32:00,6,0,32,http://www.ripta.com/32,Weekday
11815,"""CITIZENS WAY NS TRIPPS LN""",41.791094,-71.354429,2396860,15:34:00,15:34:00,7,0,32,http://www.ripta.com/32,Weekday
11875,"""TRIPPS LN OPP MADELINE""",41.792115,-71.353956,2396860,15:34:00,15:34:00,8,0,32,http://www.ripta.com/32,Weekday
11970,"""TRIPPS LN AT 15 TRIPPS LANE""",41.794193,-71.353347,2396860,15:34:00,15:34:00,9,0,32,http://www.ripta.com/32,Weekday
12110,"""TRIPPS LN NS WAMPANOAG TRAIL""",41.795715,-71.352944,2396860,15:35:00,15:35:00,10,0,32,http://www.ripta.com/32,Weekday
70830,"""WAMPANOAG OPP GARDEN DR""",41.796644,-71.357025,2396860,15:36:00,15:36:00,11,0,32,http://www.ripta.com/32,Weekday
70835,"""WAMPANOAG OPP BUCK THORNE""",41.797319,-71.359184,2396860,15:36:00,15:36:00,12,0,32,http://www.ripta.com/32,Weekday
12605,"""PAWTUCKET OPP VINCENT""",41.799178,-71.362926,2396860,15:37:00,15:37:00,13,0,32,http://www.ripta.com/32,Weekday
70840,"""MARTIN FS PAWTUCKET""",41.801433,-71.366587,2396860,15:38:00,15:38:00,14,0,32,http://www.ripta.com/32,Weekday
70845,"""MARTIN OPP DODGE""",41.801833,-71.368737,2396860,15:38:00,15:38:00,15,0,32,http://www.ripta.com/32,Weekday
70850,"""S BROADWAY FS MARTIN""",41.803891,-71.373629,2396860,15:40:00,15:40:00,16,0,32,http://www.ripta.com/32,Weekday
13225,"""S BROADWAY FS RIDGE""",41.804984,-71.373294,2396860,15:40:00,15:40:00,17,0,32,http://www.ripta.com/32,Weekday
13435,"""S BROADWAY OPP 1253 S BROADWAY""",41.807274,-71.372493,2396860,15:40:00,15:40:00,18,0,32,http://www.ripta.com/32,Weekday
13645,"""S BROADWAY OPP 1149 S BROADWAY""",41.808281,-71.372168,2396860,15:41:00,15:41:00,19,0,32,http://www.ripta.com/32,Weekday
70855,"""S BROADWAY NS BELMONT""",41.809701,-71.371738,2396860,15:41:00,15:41:00,20,0,32,http://www.ripta.com/32,Weekday
70860,"""S BROADWAY NS WINSOR""",41.812959,-71.370659,2396860,15:42:00,15:42:00,21,0,32,http://www.ripta.com/32,Weekday
14420,"""WARREN NS S SHARON""",41.814364,-71.372559,2396860,15:42:00,15:42:00,22,0,32,http://www.ripta.com/32,Weekday
14465,"""WARREN  NS CARPENTER""",41.814951,-71.374393,2396860,15:42:00,15:42:00,23,0,32,http://www.ripta.com/32,Weekday
14525,"""WARREN AT 184 WARREN""",41.815713,-71.376568,2396860,15:43:00,15:43:00,24,0,32,http://www.ripta.com/32,Weekday
14630,"""WARREN OPP SEVENTH""",41.816458,-71.378666,2396860,15:44:00,15:44:00,25,0,32,http://www.ripta.com/32,Weekday
15150,"""TAUNTON FS POTTER""",41.819685,-71.379222,2396860,15:45:00,15:45:00,26,0,32,http://www.ripta.com/32,Weekday
72535,"""JAMES FS TAUNTON""",41.819968,-71.375085,2396860,15:45:00,15:45:00,27,0,32,http://www.ripta.com/32,Weekday
15975,"""WATERMAN FS JAMES""",41.823275,-71.373396,2396860,15:46:00,15:46:00,28,0,32,http://www.ripta.com/32,Weekday
16395,"""WATERMAN OPP SUMMIT""",41.825202,-71.376823,2396860,15:47:00,15:47:00,29,0,32,http://www.ripta.com/32,Weekday
16870,"""MASSASOIT FS SUTTON""",41.827277,-71.375701,2396860,15:47:00,15:47:00,30,0,32,http://www.ripta.com/32,Weekday
17125,"""MASSASOIT NS HENDERSON BRIDGE [ON-RAMP]""",41.828758,-71.371558,2396860,15:48:00,15:48:00,31,0,32,http://www.ripta.com/32,Weekday
17185,"""S ANGELL AT 120 S ANGELL""",41.829247,-71.383528,2396860,15:49:00,15:49:00,32,0,32,http://www.ripta.com/32,Weekday
17215,"""S ANGELL FS BUTLER""",41.829588,-71.385298,2396860,15:49:00,15:49:00,33,0,32,http://www.ripta.com/32,Weekday
59165,"""S ANGELL NS WAYLAND""",41.829994,-71.387362,2396860,15:50:00,15:50:00,34,0,32,http://www.ripta.com/32,Weekday
17285,"""ANGELL FS WAYLAND""",41.830134,-71.388391,2396860,15:50:00,15:50:00,35,0,32,http://www.ripta.com/32,Weekday
17290,"""ANGELL FS ELMGROVE""",41.829826,-71.389833,2396860,15:50:00,15:50:00,36,0,32,http://www.ripta.com/32,Weekday
17100,"""ANGELL NS HOPE""",41.828462,-71.397302,2396860,15:53:00,15:53:00,37,0,32,http://www.ripta.com/32,Weekday
17085,"""ANGELL AT PRESCOTT LIBRARY""",41.828357,-71.398382,2396860,15:53:00,15:53:00,38,0,32,http://www.ripta.com/32,Weekday
17045,"""TUNNEL FS THAYER""",41.827682,-71.400886,2396860,15:54:00,15:54:00,39,0,32,http://www.ripta.com/32,Weekday
16890,"""TUNNEL NS S MAIN""",41.826842,-71.408585,2396860,15:56:00,15:56:00,40,0,32,http://www.ripta.com/32,Weekday
16525,"""KENNEDY PLAZA (STOP H)""",41.825212,-71.41155,2396860,15:59:00,15:59:00,41,0,32,http://www.ripta.com/32,Weekday
16525,"""KENNEDY PLAZA (STOP H)""",41.825212,-71.41155,2396863,15:00:00,15:00:00,1,1,32,http://www.ripta.com/32,Weekday
16855,"""TUNNEL FS S MAIN""",41.82678,-71.408541,2396863,15:02:00,15:02:00,2,1,32,http://www.ripta.com/32,Weekday
16905,"""TUNNEL NS THAYER""",41.827607,-71.400864,2396863,15:05:00,15:05:00,3,1,32,http://www.ripta.com/32,Weekday
16970,"""WATERMAN NS HOPE""",41.827592,-71.397452,2396863,15:06:00,15:06:00,4,1,32,http://www.ripta.com/32,Weekday
17000,"""WATERMAN FS GOVERNOR""",41.827639,-71.393764,2396863,15:07:00,15:07:00,5,1,32,http://www.ripta.com/32,Weekday
17055,"""WATERMAN FS GANO""",41.82823,-71.390443,2396863,15:08:00,15:08:00,6,1,32,http://www.ripta.com/32,Weekday
17105,"""WATERMAN FS WAYLAND""",41.828519,-71.388171,2396863,15:09:00,15:09:00,7,1,32,http://www.ripta.com/32,Weekday
17050,"""WATERMAN FS BUTLER""",41.827997,-71.385365,2396863,15:10:00,15:10:00,8,1,32,http://www.ripta.com/32,Weekday
17095,"""WATERMAN NS HENDERSON BRIDGE [ON-RAMP]""",41.827568,-71.383009,2396863,15:10:00,15:10:00,9,1,32,http://www.ripta.com/32,Weekday
16885,"""MASSASOIT OPP SUTTON""",41.82719,-71.376149,2396863,15:12:00,15:12:00,10,1,32,http://www.ripta.com/32,Weekday
16480,"""WATERMAN NS SUMMIT""",41.825279,-71.377191,2396863,15:13:00,15:13:00,11,1,32,http://www.ripta.com/32,Weekday
15955,"""WATERMAN NS JAMES""",41.8232,-71.373506,2396863,15:14:00,15:14:00,12,1,32,http://www.ripta.com/32,Weekday
15245,"""TAUNTON NS IVY""",41.819758,-71.37607,2396863,15:15:00,15:15:00,13,1,32,http://www.ripta.com/32,Weekday
15215,"""TAUNTON AVE / GROVE AVE""",41.819787,-71.377591,2396863,15:15:00,15:15:00,14,1,32,http://www.ripta.com/32,Weekday
14560,"""WARREN OPP S PHILLIPS""",41.816149,-71.378111,2396863,15:17:00,15:17:00,15,1,32,http://www.ripta.com/32,Weekday
14515,"""WARREN NS TENTH""",41.815628,-71.376591,2396863,15:17:00,15:17:00,16,1,32,http://www.ripta.com/32,Weekday
71050,"""WARREN FS LYON""",41.81524,-71.375479,2396863,15:17:00,15:17:00,17,1,32,http://www.ripta.com/32,Weekday
14460,"""WARREN NS BERKELEY""",41.814765,-71.374109,2396863,15:18:00,15:18:00,18,1,32,http://www.ripta.com/32,Weekday
14415,"""WARREN NS FRASER""",41.814053,-71.371889,2396863,15:18:00,15:18:00,19,1,32,http://www.ripta.com/32,Weekday
70810,"""S BROADWAY FS WINSOR""",41.813161,-71.370703,2396863,15:18:00,15:18:00,20,1,32,http://www.ripta.com/32,Weekday
13620,"""S BROADWAY FS FORT""",41.80855,-71.372187,2396863,15:19:00,15:19:00,21,1,32,http://www.ripta.com/32,Weekday
13460,"""S BROADWAY FS SETH""",41.807195,-71.372641,2396863,15:19:00,15:19:00,22,1,32,http://www.ripta.com/32,Weekday
13235,"""S BROADWAY OPP LEE""",41.805508,-71.37324,2396863,15:20:00,15:20:00,23,1,32,http://www.ripta.com/32,Weekday
12960,"""S BROADWAY OPP MARTIN""",41.802889,-71.3741,2396863,15:20:00,15:20:00,24,1,32,http://www.ripta.com/32,Weekday
70815,"""MARTIN OPP ANGELL""",41.801464,-71.367331,2396863,15:21:00,15:21:00,25,1,32,http://www.ripta.com/32,Weekday
12630,"""PAWTUCKET NS VINCENT""",41.799153,-71.363072,2396863,15:22:00,15:22:00,26,1,32,http://www.ripta.com/32,Weekday
70820,"""WAMPANOAG NS BUCK THORNE""",41.797289,-71.359453,2396863,15:23:00,15:23:00,27,1,32,http://www.ripta.com/32,Weekday
70825,"""WAMPANOAG FS GARDEN DR""",41.795855,-71.353412,2396863,15:24:00,15:24:00,28,1,32,http://www.ripta.com/32,Weekday
12115,"""TRIPPS LN FS WAMPANOAG TRAIL""",41.795579,-71.353166,2396863,15:24:00,15:24:00,29,1,32,http://www.ripta.com/32,Weekday
12015,"""TRIPPS LN OPP CITIZENS BANK""",41.794662,-71.353405,2396863,15:25:00,15:25:00,30,1,32,http://www.ripta.com/32,Weekday
11825,"""TRIPPS LN NS ORCHARD VIEW MANOR""",41.79134,-71.354289,2396863,15:25:00,15:25:00,31,1,32,http://www.ripta.com/32,Weekday
11700,"""CITIZENS OPERATIONS CTR - E PROVIDENCE""",41.790121,-71.356338,2396863,15:26:00,15:26:00,32,1,32,http://www.ripta.com/32,Weekday
11815,"""CITIZENS WAY NS TRIPPS LN""",41.791094,-71.354429,2396863,15:27:00,15:27:00,33,1,32,http://www.ripta.com/32,Weekday
11875,"""TRIPPS LN OPP MADELINE""",41.792115,-71.353956,2396863,15:27:00,15:27:00,34,1,32,http://www.ripta.com/32,Weekday
11970,"""TRIPPS LN AT 15 TRIPPS LANE""",41.794193,-71.353347,2396863,15:28:00,15:28:00,35,1,32,http://www.ripta.com/32,Weekday
12110,"""TRIPPS LN NS WAMPANOAG TRAIL""",41.795715,-71.352944,2396863,15:28:00,15:28:00,36,1,32,http://www.ripta.com/32,Weekday
72550,"""WAMPANOAG FS TRIPPS""",41.795641,-71.352418,2396863,15:28:00,15:28:00,37,1,32,http://www.ripta.com/32,Weekday
11715,"""WAMPANOAG OPP GATES OF HEAVEN""",41.791481,-71.344402,2396863,15:29:00,15:29:00,38,1,32,http://www.ripta.com/32,Weekday
11340,"""WAMPANOAG OPP 600 WAMPANOAG""",41.790814,-71.336598,2396863,15:30:00,15:30:00,39,1,32,http://www.ripta.com/32,Weekday
72555,"""RIVER FS MINK""",41.788883,-71.331974,2396863,15:31:00,15:31:00,40,1,32,http://www.ripta.com/32,Weekday
72530,"""SEEKONK SQUARE (COMMERCE WAY - SEEKONK)""",41.795428,-71.322655,2396863,15:34:00,15:34:00,41,1,32,http://www.ripta.com/32,Weekday
72530,"""SEEKONK SQUARE (COMMERCE WAY - SEEKONK)""",41.795428,-71.322655,2396876,14:22:00,14:22:00,1,0,32,http://www.ripta.com/32,Weekday
72540,"""WAMPANOAG FS AMARAL""",41.794488,-71.349167,2396876,14:26:00,14:26:00,2,0,32,http://www.ripta.com/32,Weekday
12115,"""TRIPPS LN FS WAMPANOAG TRAIL""",41.795579,-71.353166,2396876,14:28:00,14:28:00,3,0,32,http://www.ripta.com/32,Weekday
12015,"""TRIPPS LN OPP CITIZENS BANK""",41.794662,-71.353405,2396876,14:29:00,14:29:00,4,0,32,http://www.ripta.com/32,Weekday
11825,"""TRIPPS LN NS ORCHARD VIEW MANOR""",41.79134,-71.354289,2396876,14:30:00,14:30:00,5,0,32,http://www.ripta.com/32,Weekday
11700,"""CITIZENS OPERATIONS CTR - E PROVIDENCE""",41.790121,-71.356338,2396876,14:32:00,14:32:00,6,0,32,http://www.ripta.com/32,Weekday
11815,"""CITIZENS WAY NS TRIPPS LN""",41.791094,-71.354429,2396876,14:34:00,14:34:00,7,0,32,http://www.ripta.com/32,Weekday
11875,"""TRIPPS LN OPP MADELINE""",41.792115,-71.353956,2396876,14:34:00,14:34:00,8,0,32,http://www.ripta.com/32,Weekday
11970,"""TRIPPS LN AT 15 TRIPPS LANE""",41.794193,-71.353347,2396876,14:34:00,14:34:00,9,0,32,http://www.ripta.com/32,Weekday
12110,"""TRIPPS LN NS WAMPANOAG TRAIL""",41.795715,-71.352944,2396876,14:35:00,14:35:00,10,0,32,http://www.ripta.com/32,Weekday
70830,"""WAMPANOAG OPP GARDEN DR""",41.796644,-71.357025,2396876,14:36:00,14:36:00,11,0,32,http://www.ripta.com/32,Weekday
70835,"""WAMPANOAG OPP BUCK THORNE""",41.797319,-71.359184,2396876,14:36:00,14:36:00,12,0,32,http://www.ripta.com/32,Weekday
12605,"""PAWTUCKET OPP VINCENT""",41.799178,-71.362926,2396876,14:37:00,14:37:00,13,0,32,http://www.ripta.com/32,Weekday
70840,"""MARTIN FS PAWTUCKET""",41.801433,-71.366587,2396876,14:38:00,14:38:00,14,0,32,http://www.ripta.com/32,Weekday
70845,"""MARTIN OPP DODGE""",41.801833,-71.368737,2396876,14:38:00,14:38:00,15,0,32,http://www.ripta.com/32,Weekday
70850,"""S BROADWAY FS MARTIN""",41.803891,-71.373629,2396876,14:40:00,14:40:00,16,0,32,http://www.ripta.com/32,Weekday
13225,"""S BROADWAY FS RIDGE""",41.804984,-71.373294,2396876,14:40:00,14:40:00,17,0,32,http://www.ripta.com/32,Weekday
13435,"""S BROADWAY OPP 1253 S BROADWAY""",41.807274,-71.372493,2396876,14:40:00,14:40:00,18,0,32,http://www.ripta.com/32,Weekday
13645,"""S BROADWAY OPP 1149 S BROADWAY""",41.808281,-71.372168,2396876,14:41:00,14:41:00,19,0,32,http://www.ripta.com/32,Weekday
70855,"""S BROADWAY NS BELMONT""",41.809701,-71.371738,2396876,14:41:00,14:41:00,20,0,32,http://www.ripta.com/32,Weekday
70860,"""S BROADWAY NS WINSOR""",41.812959,-71.370659,2396876,14:42:00,14:42:00,21,0,32,http://www.ripta.com/32,Weekday
14420,"""WARREN NS S SHARON""",41.814364,-71.372559,2396876,14:42:00,14:42:00,22,0,32,http://www.ripta.com/32,Weekday
14465,"""WARREN  NS CARPENTER""",41.814951,-71.374393,2396876,14:42:00,14:42:00,23,0,32,http://www.ripta.com/32,Weekday
14525,"""WARREN AT 184 WARREN""",41.815713,-71.376568,2396876,14:43:00,14:43:00,24,0,32,http://www.ripta.com/32,Weekday
14630,"""WARREN OPP SEVENTH""",41.816458,-71.378666,2396876,14:44:00,14:44:00,25,0,32,http://www.ripta.com/32,Weekday
15150,"""TAUNTON FS POTTER""",41.819685,-71.379222,2396876,14:45:00,14:45:00,26,0,32,http://www.ripta.com/32,Weekday
72535,"""JAMES FS TAUNTON""",41.819968,-71.375085,2396876,14:45:00,14:45:00,27,0,32,http://www.ripta.com/32,Weekday
15975,"""WATERMAN FS JAMES""",41.823275,-71.373396,2396876,14:46:00,14:46:00,28,0,32,http://www.ripta.com/32,Weekday
16395,"""WATERMAN OPP SUMMIT""",41.825202,-71.376823,2396876,14:47:00,14:47:00,29,0,32,http://www.ripta.com/32,Weekday
16870,"""MASSASOIT FS SUTTON""",41.827277,-71.375701,2396876,14:47:00,14:47:00,30,0,32,http://www.ripta.com/32,Weekday
17125,"""MASSASOIT NS HENDERSON BRIDGE [ON-RAMP]""",41.828758,-71.371558,2396876,14:48:00,14:48:00,31,0,32,http://www.ripta.com/32,Weekday
17185,"""S ANGELL AT 120 S ANGELL""",41.829247,-71.383528,2396876,14:49:00,14:49:00,32,0,32,http://www.ripta.com/32,Weekday
17215,"""S ANGELL FS BUTLER""",41.829588,-71.385298,2396876,14:49:00,14:49:00,33,0,32,http://www.ripta.com/32,Weekday
59165,"""S ANGELL NS WAYLAND""",41.829994,-71.387362,2396876,14:50:00,14:50:00,34,0,32,http://www.ripta.com/32,Weekday
17285,"""ANGELL FS WAYLAND""",41.830134,-71.388391,2396876,14:50:00,14:50:00,35,0,32,http://www.ripta.com/32,Weekday
17290,"""ANGELL FS ELMGROVE""",41.829826,-71.389833,2396876,14:50:00,14:50:00,36,0,32,http://www.ripta.com/32,Weekday
17100,"""ANGELL NS HOPE""",41.828462,-71.397302,2396876,14:53:00,14:53:00,37,0,32,http://www.ripta.com/32,Weekday
17085,"""ANGELL AT PRESCOTT LIBRARY""",41.828357,-71.398382,2396876,14:53:00,14:53:00,38,0,32,http://www.ripta.com/32,Weekday
17045,"""TUNNEL FS THAYER""",41.827682,-71.400886,2396876,14:54:00,14:54:00,39,0,32,http://www.ripta.com/32,Weekday
16890,"""TUNNEL NS S MAIN""",41.826842,-71.408585,2396876,14:56:00,14:56:00,40,0,32,http://www.ripta.com/32,Weekday
16525,"""KENNEDY PLAZA (STOP H)""",41.825212,-71.41155,2396876,14:59:00,14:59:00,41,0,32,http://www.ripta.com/32,Weekday
16525,"""KENNEDY PLAZA (STOP H)""",41.825212,-71.41155,2396886,14:00:00,14:00:00,1,1,32,http://www.ripta.com/32,Weekday
16855,"""TUNNEL FS S MAIN""",41.82678,-71.408541,2396886,14:02:00,14:02:00,2,1,32,http://www.ripta.com/32,Weekday
16905,"""TUNNEL NS THAYER""",41.827607,-71.400864,2396886,14:05:00,14:05:00,3,1,32,http://www.ripta.com/32,Weekday
16970,"""WATERMAN NS HOPE""",41.827592,-71.397452,2396886,14:06:00,14:06:00,4,1,32,http://www.ripta.com/32,Weekday
17000,"""WATERMAN FS GOVERNOR""",41.827639,-71.393764,2396886,14:07:00,14:07:00,5,1,32,http://www.ripta.com/32,Weekday
17055,"""WATERMAN FS GANO""",41.82823,-71.390443,2396886,14:08:00,14:08:00,6,1,32,http://www.ripta.com/32,Weekday
17105,"""WATERMAN FS WAYLAND""",41.828519,-71.388171,2396886,14:09:00,14:09:00,7,1,32,http://www.ripta.com/32,Weekday
17050,"""WATERMAN FS BUTLER""",41.827997,-71.385365,2396886,14:10:00,14:10:00,8,1,32,http://www.ripta.com/32,Weekday
17095,"""WATERMAN NS HENDERSON BRIDGE [ON-RAMP]""",41.827568,-71.383009,2396886,14:10:00,14:10:00,9,1,32,http://www.ripta.com/32,Weekday
16885,"""MASSASOIT OPP SUTTON""",41.82719,-71.376149,2396886,14:12:00,14:12:00,10,1,32,http://www.ripta.com/32,Weekday
16480,"""WATERMAN NS SUMMIT""",41.825279,-71.377191,2396886,14:13:00,14:13:00,11,1,32,http://www.ripta.com/32,Weekday
15955,"""WATERMAN NS JAMES""",41.8232,-71.373506,2396886,14:14:00,14:14:00,12,1,32,http://www.ripta.com/32,Weekday
15245,"""TAUNTON NS IVY""",41.819758,-71.37607,2396886,14:15:00,14:15:00,13,1,32,http://www.ripta.com/32,Weekday
15215,"""TAUNTON AVE / GROVE AVE""",41.819787,-71.377591,2396886,14:15:00,14:15:00,14,1,32,http://www.ripta.com/32,Weekday
14560,"""WARREN OPP S PHILLIPS""",41.816149,-71.378111,2396886,14:17:00,14:17:00,15,1,32,http://www.ripta.com/32,Weekday
14515,"""WARREN NS TENTH""",41.815628,-71.376591,2396886,14:17:00,14:17:00,16,1,32,http://www.ripta.com/32,Weekday
71050,"""WARREN FS LYON""",41.81524,-71.375479,2396886,14:17:00,14:17:00,17,1,32,http://www.ripta.com/32,Weekday
14460,"""WARREN NS BERKELEY""",41.814765,-71.374109,2396886,14:18:00,14:18:00,18,1,32,http://www.ripta.com/32,Weekday
14415,"""WARREN NS FRASER""",41.814053,-71.371889,2396886,14:18:00,14:18:00,19,1,32,http://www.ripta.com/32,Weekday
70810,"""S BROADWAY FS WINSOR""",41.813161,-71.370703,2396886,14:18:00,14:18:00,20,1,32,http://www.ripta.com/32,Weekday
13620,"""S BROADWAY FS FORT""",41.80855,-71.372187,2396886,14:19:00,14:19:00,21,1,32,http://www.ripta.com/32,Weekday
13460,"""S BROADWAY FS SETH""",41.807195,-71.372641,2396886,14:19:00,14:19:00,22,1,32,http://www.ripta.com/32,Weekday
13235,"""S BROADWAY OPP LEE""",41.805508,-71.37324,2396886,14:20:00,14:20:00,23,1,32,http://www.ripta.com/32,Weekday
12960,"""S BROADWAY OPP MARTIN""",41.802889,-71.3741,2396886,14:20:00,14:20:00,24,1,32,http://www.ripta.com/32,Weekday
70815,"""MARTIN OPP ANGELL""",41.801464,-71.367331,2396886,14:21:00,14:21:00,25,1,32,http://www.ripta.com/32,Weekday
12630,"""PAWTUCKET NS VINCENT""",41.799153,-71.363072,2396886,14:22:00,14:22:00,26,1,32,http://www.ripta.com/32,Weekday
70820,"""WAMPANOAG NS BUCK THORNE""",41.797289,-71.359453,2396886,14:23:00,14:23:00,27,1,32,http://www.ripta.com/32,Weekday
70825,"""WAMPANOAG FS GARDEN DR""",41.795855,-71.353412,2396886,14:24:00,14:24:00,28,1,32,http://www.ripta.com/32,Weekday
12115,"""TRIPPS LN FS WAMPANOAG TRAIL""",41.795579,-71.353166,2396886,14:24:00,14:24:00,29,1,32,http://www.ripta.com/32,Weekday
12015,"""TRIPPS LN OPP CITIZENS BANK""",41.794662,-71.353405,2396886,14:25:00,14:25:00,30,1,32,http://www.ripta.com/32,Weekday
11825,"""TRIPPS LN NS ORCHARD VIEW MANOR""",41.79134,-71.354289,2396886,14:25:00,14:25:00,31,1,32,http://www.ripta.com/32,Weekday
11700,"""CITIZENS OPERATIONS CTR - E PROVIDENCE""",41.790121,-71.356338,2396886,14:26:00,14:26:00,32,1,32,http://www.ripta.com/32,Weekday
11815,"""CITIZENS WAY NS TRIPPS LN""",41.791094,-71.354429,2396886,14:27:00,14:27:00,33,1,32,http://www.ripta.com/32,Weekday
11875,"""TRIPPS LN OPP MADELINE""",41.792115,-71.353956,2396886,14:27:00,14:27:00,34,1,32,http://www.ripta.com/32,Weekday
11970,"""TRIPPS LN AT 15 TRIPPS LANE""",41.794193,-71.353347,2396886,14:28:00,14:28:00,35,1,32,http://www.ripta.com/32,Weekday
12110,"""TRIPPS LN NS WAMPANOAG TRAIL""",41.795715,-71.352944,2396886,14:28:00,14:28:00,36,1,32,http://www.ripta.com/32,Weekday
72550,"""WAMPANOAG FS TRIPPS""",41.795641,-71.352418,2396886,14:28:00,14:28:00,37,1,32,http://www.ripta.com/32,Weekday
11715,"""WAMPANOAG OPP GATES OF HEAVEN""",41.791481,-71.344402,2396886,14:29:00,14:29:00,38,1,32,http://www.ripta.com/32,Weekday
11340,"""WAMPANOAG OPP 600 WAMPANOAG""",41.790814,-71.336598,2396886,14:30:00,14:30:00,39,1,32,http://www.ripta.com/32,Weekday
72555,"""RIVER FS MINK""",41.788883,-71.331974,2396886,14:31:00,14:31:00,40,1,32,http://www.ripta.com/32,Weekday
72530,"""SEEKONK SQUARE (COMMERCE WAY - SEEKONK)""",41.795428,-71.322655,2396886,14:34:00,14:34:00,41,1,32,http://www.ripta.com/32,Weekday
72530,"""SEEKONK SQUARE (COMMERCE WAY - SEEKONK)""",41.795428,-71.322655,2396899,13:22:00,13:22:00,1,0,32,http://www.ripta.com/32,Weekday
72540,"""WAMPANOAG FS AMARAL""",41.794488,-71.349167,2396899,13:26:00,13:26:00,2,0,32,http://www.ripta.com/32,Weekday
12115,"""TRIPPS LN FS WAMPANOAG TRAIL""",41.795579,-71.353166,2396899,13:28:00,13:28:00,3,0,32,http://www.ripta.com/32,Weekday
12015,"""TRIPPS LN OPP CITIZENS BANK""",41.794662,-71.353405,2396899,13:29:00,13:29:00,4,0,32,http://www.ripta.com/32,Weekday
11825,"""TRIPPS LN NS ORCHARD VIEW MANOR""",41.79134,-71.354289,2396899,13:30:00,13:30:00,5,0,32,http://www.ripta.com/32,Weekday
11700,"""CITIZENS OPERATIONS CTR - E PROVIDENCE""",41.790121,-71.356338,2396899,13:32:00,13:32:00,6,0,32,http://www.ripta.com/32,Weekday
11815,"""CITIZENS WAY NS TRIPPS LN""",41.791094,-71.354429,2396899,13:34:00,13:34:00,7,0,32,http://www.ripta.com/32,Weekday
11875,"""TRIPPS LN OPP MADELINE""",41.792115,-71.353956,2396899,13:34:00,13:34:00,8,0,32,http://www.ripta.com/32,Weekday
11970,"""TRIPPS LN AT 15 TRIPPS LANE""",41.794193,-71.353347,2396899,13:34:00,13:34:00,9,0,32,http://www.ripta.com/32,Weekday
12110,"""TRIPPS LN NS WAMPANOAG TRAIL""",41.795715,-71.352944,2396899,13:35:00,13:35:00,10,0,32,http://www.ripta.com/32,Weekday
70830,"""WAMPANOAG OPP GARDEN DR""",41.796644,-71.357025,2396899,13:36:00,13:36:00,11,0,32,http://www.ripta.com/32,Weekday
70835,"""WAMPANOAG OPP BUCK THORNE""",41.797319,-71.359184,2396899,13:36:00,13:36:00,12,0,32,http://www.ripta.com/32,Weekday
12605,"""PAWTUCKET OPP VINCENT""",41.799178,-71.362926,2396899,13:37:00,13:37:00,13,0,32,http://www.ripta.com/32,Weekday
70840,"""MARTIN FS PAWTUCKET""",41.801433,-71.366587,2396899,13:38:00,13:38:00,14,0,32,http://www.ripta.com/32,Weekday
70845,"""MARTIN OPP DODGE""",41.801833,-71.368737,2396899,13:38:00,13:38:00,15,0,32,http://www.ripta.com/32,Weekday
70850,"""S BROADWAY FS MARTIN""",41.803891,-71.373629,2396899,13:40:00,13:40:00,16,0,32,http://www.ripta.com/32,Weekday
13225,"""S BROADWAY FS RIDGE""",41.804984,-71.373294,2396899,13:40:00,13:40:00,17,0,32,http://www.ripta.com/32,Weekday
13435,"""S BROADWAY OPP 1253 S BROADWAY""",41.807274,-71.372493,2396899,13:40:00,13:40:00,18,0,32,http://www.ripta.com/32,Weekday
13645,"""S BROADWAY OPP 1149 S BROADWAY""",41.808281,-71.372168,2396899,13:41:00,13:41:00,19,0,32,http://www.ripta.com/32,Weekday
70855,"""S BROADWAY NS BELMONT""",41.809701,-71.371738,2396899,13:41:00,13:41:00,20,0,32,http://www.ripta.com/32,Weekday
70860,"""S BROADWAY NS WINSOR""",41.812959,-71.370659,2396899,13:42:00,13:42:00,21,0,32,http://www.ripta.com/32,Weekday
14420,"""WARREN NS S SHARON""",41.814364,-71.372559,2396899,13:42:00,13:42:00,22,0,32,http://www.ripta.com/32,Weekday
14465,"""WARREN  NS CARPENTER""",41.814951,-71.374393,2396899,13:42:00,13:42:00,23,0,32,http://www.ripta.com/32,Weekday
14525,"""WARREN AT 184 WARREN""",41.815713,-71.376568,2396899,13:43:00,13:43:00,24,0,32,http://www.ripta.com/32,Weekday
14630,"""WARREN OPP SEVENTH""",41.816458,-71.378666,2396899,13:44:00,13:44:00,25,0,32,http://www.ripta.com/32,Weekday
15150,"""TAUNTON FS POTTER""",41.819685,-71.379222,2396899,13:45:00,13:45:00,26,0,32,http://www.ripta.com/32,Weekday
72535,"""JAMES FS TAUNTON""",41.819968,-71.375085,2396899,13:45:00,13:45:00,27,0,32,http://www.ripta.com/32,Weekday
15975,"""WATERMAN FS JAMES""",41.823275,-71.373396,2396899,13:46:00,13:46:00,28,0,32,http://www.ripta.com/32,Weekday
16395,"""WATERMAN OPP SUMMIT""",41.825202,-71.376823,2396899,13:47:00,13:47:00,29,0,32,http://www.ripta.com/32,Weekday
16870,"""MASSASOIT FS SUTTON""",41.827277,-71.375701,2396899,13:47:00,13:47:00,30,0,32,http://www.ripta.com/32,Weekday
17125,"""MASSASOIT NS HENDERSON BRIDGE [ON-RAMP]""",41.828758,-71.371558,2396899,13:48:00,13:48:00,31,0,32,http://www.ripta.com/32,Weekday
17185,"""S ANGELL AT 120 S ANGELL""",41.829247,-71.383528,2396899,13:49:00,13:49:00,32,0,32,http://www.ripta.com/32,Weekday
17215,"""S ANGELL FS BUTLER""",41.829588,-71.385298,2396899,13:49:00,13:49:00,33,0,32,http://www.ripta.com/32,Weekday
59165,"""S ANGELL NS WAYLAND""",41.829994,-71.387362,2396899,13:50:00,13:50:00,34,0,32,http://www.ripta.com/32,Weekday
17285,"""ANGELL FS WAYLAND""",41.830134,-71.388391,2396899,13:50:00,13:50:00,35,0,32,http://www.ripta.com/32,Weekday
17290,"""ANGELL FS ELMGROVE""",41.829826,-71.389833,2396899,13:50:00,13:50:00,36,0,32,http://www.ripta.com/32,Weekday
17100,"""ANGELL NS HOPE""",41.828462,-71.397302,2396899,13:53:00,13:53:00,37,0,32,http://www.ripta.com/32,Weekday
17085,"""ANGELL AT PRESCOTT LIBRARY""",41.828357,-71.398382,2396899,13:53:00,13:53:00,38,0,32,http://www.ripta.com/32,Weekday
17045,"""TUNNEL FS THAYER""",41.827682,-71.400886,2396899,13:54:00,13:54:00,39,0,32,http://www.ripta.com/32,Weekday
16890,"""TUNNEL NS S MAIN""",41.826842,-71.408585,2396899,13:56:00,13:56:00,40,0,32,http://www.ripta.com/32,Weekday
16525,"""KENNEDY PLAZA (STOP H)""",41.825212,-71.41155,2396899,13:59:00,13:59:00,41,0,32,http://www.ripta.com/32,Weekday
16525,"""KENNEDY PLAZA (STOP H)""",41.825212,-71.41155,2396901,13:00:00,13:00:00,1,1,32,http://www.ripta.com/32,Weekday
16855,"""TUNNEL FS S MAIN""",41.82678,-71.408541,2396901,13:02:00,13:02:00,2,1,32,http://www.ripta.com/32,Weekday
16905,"""TUNNEL NS THAYER""",41.827607,-71.400864,2396901,13:05:00,13:05:00,3,1,32,http://www.ripta.com/32,Weekday
16970,"""WATERMAN NS HOPE""",41.827592,-71.397452,2396901,13:06:00,13:06:00,4,1,32,http://www.ripta.com/32,Weekday
17000,"""WATERMAN FS GOVERNOR""",41.827639,-71.393764,2396901,13:07:00,13:07:00,5,1,32,http://www.ripta.com/32,Weekday
17055,"""WATERMAN FS GANO""",41.82823,-71.390443,2396901,13:08:00,13:08:00,6,1,32,http://www.ripta.com/32,Weekday
17105,"""WATERMAN FS WAYLAND""",41.828519,-71.388171,2396901,13:09:00,13:09:00,7,1,32,http://www.ripta.com/32,Weekday
17050,"""WATERMAN FS BUTLER""",41.827997,-71.385365,2396901,13:10:00,13:10:00,8,1,32,http://www.ripta.com/32,Weekday
17095,"""WATERMAN NS HENDERSON BRIDGE [ON-RAMP]""",41.827568,-71.383009,2396901,13:10:00,13:10:00,9,1,32,http://www.ripta.com/32,Weekday
16885,"""MASSASOIT OPP SUTTON""",41.82719,-71.376149,2396901,13:12:00,13:12:00,10,1,32,http://www.ripta.com/32,Weekday
16480,"""WATERMAN NS SUMMIT""",41.825279,-71.377191,2396901,13:13:00,13:13:00,11,1,32,http://www.ripta.com/32,Weekday
15955,"""WATERMAN NS JAMES""",41.8232,-71.373506,2396901,13:14:00,13:14:00,12,1,32,http://www.ripta.com/32,Weekday
15245,"""TAUNTON NS IVY""",41.819758,-71.37607,2396901,13:15:00,13:15:00,13,1,32,http://www.ripta.com/32,Weekday
15215,"""TAUNTON AVE / GROVE AVE""",41.819787,-71.377591,2396901,13:15:00,13:15:00,14,1,32,http://www.ripta.com/32,Weekday
14560,"""WARREN OPP S PHILLIPS""",41.816149,-71.378111,2396901,13:17:00,13:17:00,15,1,32,http://www.ripta.com/32,Weekday
14515,"""WARREN NS TENTH""",41.815628,-71.376591,2396901,13:17:00,13:17:00,16,1,32,http://www.ripta.com/32,Weekday
71050,"""WARREN FS LYON""",41.81524,-71.375479,2396901,13:17:00,13:17:00,17,1,32,http://www.ripta.com/32,Weekday
14460,"""WARREN NS BERKELEY""",41.814765,-71.374109,2396901,13:18:00,13:18:00,18,1,32,http://www.ripta.com/32,Weekday
14415,"""WARREN NS FRASER""",41.814053,-71.371889,2396901,13:18:00,13:18:00,19,1,32,http://www.ripta.com/32,Weekday
70810,"""S BROADWAY FS WINSOR""",41.813161,-71.370703,2396901,13:18:00,13:18:00,20,1,32,http://www.ripta.com/32,Weekday
13620,"""S BROADWAY FS FORT""",41.80855,-71.372187,2396901,13:19:00,13:19:00,21,1,32,http://www.ripta.com/32,Weekday
13460,"""S BROADWAY FS SETH""",41.807195,-71.372641,2396901,13:19:00,13:19:00,22,1,32,http://www.ripta.com/32,Weekday
13235,"""S BROADWAY OPP LEE""",41.805508,-71.37324,2396901,13:20:00,13:20:00,23,1,32,http://www.ripta.com/32,Weekday
12960,"""S BROADWAY OPP MARTIN""",41.802889,-71.3741,2396901,13:20:00,13:20:00,24,1,32,http://www.ripta.com/32,Weekday
70815,"""MARTIN OPP ANGELL""",41.801464,-71.367331,2396901,13:21:00,13:21:00,25,1,32,http://www.ripta.com/32,Weekday
12630,"""PAWTUCKET NS VINCENT""",41.799153,-71.363072,2396901,13:22:00,13:22:00,26,1,32,http://www.ripta.com/32,Weekday
70820,"""WAMPANOAG NS BUCK THORNE""",41.797289,-71.359453,2396901,13:23:00,13:23:00,27,1,32,http://www.ripta.com/32,Weekday
70825,"""WAMPANOAG FS GARDEN DR""",41.795855,-71.353412,2396901,13:24:00,13:24:00,28,1,32,http://www.ripta.com/32,Weekday
12115,"""TRIPPS LN FS WAMPANOAG TRAIL""",41.795579,-71.353166,2396901,13:24:00,13:24:00,29,1,32,http://www.ripta.com/32,Weekday
12015,"""TRIPPS LN OPP CITIZENS BANK""",41.794662,-71.353405,2396901,13:25:00,13:25:00,30,1,32,http://www.ripta.com/32,Weekday
11825,"""TRIPPS LN NS ORCHARD VIEW MANOR""",41.79134,-71.354289,2396901,13:25:00,13:25:00,31,1,32,http://www.ripta.com/32,Weekday
11700,"""CITIZENS OPERATIONS CTR - E PROVIDENCE""",41.790121,-71.356338,2396901,13:26:00,13:26:00,32,1,32,http://www.ripta.com/32,Weekday
11815,"""CITIZENS WAY NS TRIPPS LN""",41.791094,-71.354429,2396901,13:27:00,13:27:00,33,1,32,http://www.ripta.com/32,Weekday
11875,"""TRIPPS LN OPP MADELINE""",41.792115,-71.353956,2396901,13:27:00,13:27:00,34,1,32,http://www.ripta.com/32,Weekday
11970,"""TRIPPS LN AT 15 TRIPPS LANE""",41.794193,-71.353347,2396901,13:28:00,13:28:00,35,1,32,http://www.ripta.com/32,Weekday
12110,"""TRIPPS LN NS WAMPANOAG TRAIL""",41.795715,-71.352944,2396901,13:28:00,13:28:00,36,1,32,http://www.ripta.com/32,Weekday
72550,"""WAMPANOAG FS TRIPPS""",41.795641,-71.352418,2396901,13:28:00,13:28:00,37,1,32,http://www.ripta.com/32,Weekday
11715,"""WAMPANOAG OPP GATES OF HEAVEN""",41.791481,-71.344402,2396901,13:29:00,13:29:00,38,1,32,http://www.ripta.com/32,Weekday
11340,"""WAMPANOAG OPP 600 WAMPANOAG""",41.790814,-71.336598,2396901,13:30:00,13:30:00,39,1,32,http://www.ripta.com/32,Weekday
72555,"""RIVER FS MINK""",41.788883,-71.331974,2396901,13:31:00,13:31:00,40,1,32,http://www.ripta.com/32,Weekday
72530,"""SEEKONK SQUARE (COMMERCE WAY - SEEKONK)""",41.795428,-71.322655,2396901,13:34:00,13:34:00,41,1,32,http://www.ripta.com/32,Weekday
72530,"""SEEKONK SQUARE (COMMERCE WAY - SEEKONK)""",41.795428,-71.322655,2396914,12:22:00,12:22:00,1,0,32,http://www.ripta.com/32,Weekday
72540,"""WAMPANOAG FS AMARAL""",41.794488,-71.349167,2396914,12:26:00,12:26:00,2,0,32,http://www.ripta.com/32,Weekday
12115,"""TRIPPS LN FS WAMPANOAG TRAIL""",41.795579,-71.353166,2396914,12:28:00,12:28:00,3,0,32,http://www.ripta.com/32,Weekday
12015,"""TRIPPS LN OPP CITIZENS BANK""",41.794662,-71.353405,2396914,12:29:00,12:29:00,4,0,32,http://www.ripta.com/32,Weekday
11825,"""TRIPPS LN NS ORCHARD VIEW MANOR""",41.79134,-71.354289,2396914,12:30:00,12:30:00,5,0,32,http://www.ripta.com/32,Weekday
11700,"""CITIZENS OPERATIONS CTR - E PROVIDENCE""",41.790121,-71.356338,2396914,12:32:00,12:32:00,6,0,32,http://www.ripta.com/32,Weekday
11815,"""CITIZENS WAY NS TRIPPS LN""",41.791094,-71.354429,2396914,12:34:00,12:34:00,7,0,32,http://www.ripta.com/32,Weekday
11875,"""TRIPPS LN OPP MADELINE""",41.792115,-71.353956,2396914,12:34:00,12:34:00,8,0,32,http://www.ripta.com/32,Weekday
11970,"""TRIPPS LN AT 15 TRIPPS LANE""",41.794193,-71.353347,2396914,12:34:00,12:34:00,9,0,32,http://www.ripta.com/32,Weekday
12110,"""TRIPPS LN NS WAMPANOAG TRAIL""",41.795715,-71.352944,2396914,12:35:00,12:35:00,10,0,32,http://www.ripta.com/32,Weekday
70830,"""WAMPANOAG OPP GARDEN DR""",41.796644,-71.357025,2396914,12:36:00,12:36:00,11,0,32,http://www.ripta.com/32,Weekday
70835,"""WAMPANOAG OPP BUCK THORNE""",41.797319,-71.359184,2396914,12:36:00,12:36:00,12,0,32,http://www.ripta.com/32,Weekday
12605,"""PAWTUCKET OPP VINCENT""",41.799178,-71.362926,2396914,12:37:00,12:37:00,13,0,32,http://www.ripta.com/32,Weekday
70840,"""MARTIN FS PAWTUCKET""",41.801433,-71.366587,2396914,12:38:00,12:38:00,14,0,32,http://www.ripta.com/32,Weekday
70845,"""MARTIN OPP DODGE""",41.801833,-71.368737,2396914,12:38:00,12:38:00,15,0,32,http://www.ripta.com/32,Weekday
70850,"""S BROADWAY FS MARTIN""",41.803891,-71.373629,2396914,12:40:00,12:40:00,16,0,32,http://www.ripta.com/32,Weekday
13225,"""S BROADWAY FS RIDGE""",41.804984,-71.373294,2396914,12:40:00,12:40:00,17,0,32,http://www.ripta.com/32,Weekday
13435,"""S BROADWAY OPP 1253 S BROADWAY""",41.807274,-71.372493,2396914,12:40:00,12:40:00,18,0,32,http://www.ripta.com/32,Weekday
13645,"""S BROADWAY OPP 1149 S BROADWAY""",41.808281,-71.372168,2396914,12:41:00,12:41:00,19,0,32,http://www.ripta.com/32,Weekday
70855,"""S BROADWAY NS BELMONT""",41.809701,-71.371738,2396914,12:41:00,12:41:00,20,0,32,http://www.ripta.com/32,Weekday
70860,"""S BROADWAY NS WINSOR""",41.812959,-71.370659,2396914,12:42:00,12:42:00,21,0,32,http://www.ripta.com/32,Weekday
14420,"""WARREN NS S SHARON""",41.814364,-71.372559,2396914,12:42:00,12:42:00,22,0,32,http://www.ripta.com/32,Weekday
14465,"""WARREN  NS CARPENTER""",41.814951,-71.374393,2396914,12:42:00,12:42:00,23,0,32,http://www.ripta.com/32,Weekday
14525,"""WARREN AT 184 WARREN""",41.815713,-71.376568,2396914,12:43:00,12:43:00,24,0,32,http://www.ripta.com/32,Weekday
14630,"""WARREN OPP SEVENTH""",41.816458,-71.378666,2396914,12:44:00,12:44:00,25,0,32,http://www.ripta.com/32,Weekday
15150,"""TAUNTON FS POTTER""",41.819685,-71.379222,2396914,12:45:00,12:45:00,26,0,32,http://www.ripta.com/32,Weekday
72535,"""JAMES FS TAUNTON""",41.819968,-71.375085,2396914,12:45:00,12:45:00,27,0,32,http://www.ripta.com/32,Weekday
15975,"""WATERMAN FS JAMES""",41.823275,-71.373396,2396914,12:46:00,12:46:00,28,0,32,http://www.ripta.com/32,Weekday
16395,"""WATERMAN OPP SUMMIT""",41.825202,-71.376823,2396914,12:47:00,12:47:00,29,0,32,http://www.ripta.com/32,Weekday
16870,"""MASSASOIT FS SUTTON""",41.827277,-71.375701,2396914,12:47:00,12:47:00,30,0,32,http://www.ripta.com/32,Weekday
17125,"""MASSASOIT NS HENDERSON BRIDGE [ON-RAMP]""",41.828758,-71.371558,2396914,12:48:00,12:48:00,31,0,32,http://www.ripta.com/32,Weekday
17185,"""S ANGELL AT 120 S ANGELL""",41.829247,-71.383528,2396914,12:49:00,12:49:00,32,0,32,http://www.ripta.com/32,Weekday
17215,"""S ANGELL FS BUTLER""",41.829588,-71.385298,2396914,12:49:00,12:49:00,33,0,32,http://www.ripta.com/32,Weekday
59165,"""S ANGELL NS WAYLAND""",41.829994,-71.387362,2396914,12:50:00,12:50:00,34,0,32,http://www.ripta.com/32,Weekday
17285,"""ANGELL FS WAYLAND""",41.830134,-71.388391,2396914,12:50:00,12:50:00,35,0,32,http://www.ripta.com/32,Weekday
17290,"""ANGELL FS ELMGROVE""",41.829826,-71.389833,2396914,12:50:00,12:50:00,36,0,32,http://www.ripta.com/32,Weekday
17100,"""ANGELL NS HOPE""",41.828462,-71.397302,2396914,12:53:00,12:53:00,37,0,32,http://www.ripta.com/32,Weekday
17085,"""ANGELL AT PRESCOTT LIBRARY""",41.828357,-71.398382,2396914,12:53:00,12:53:00,38,0,32,http://www.ripta.com/32,Weekday
17045,"""TUNNEL FS THAYER""",41.827682,-71.400886,2396914,12:54:00,12:54:00,39,0,32,http://www.ripta.com/32,Weekday
16890,"""TUNNEL NS S MAIN""",41.826842,-71.408585,2396914,12:56:00,12:56:00,40,0,32,http://www.ripta.com/32,Weekday
16525,"""KENNEDY PLAZA (STOP H)""",41.825212,-71.41155,2396914,12:59:00,12:59:00,41,0,32,http://www.ripta.com/32,Weekday
16525,"""KENNEDY PLAZA (STOP H)""",41.825212,-71.41155,2396923,12:00:00,12:00:00,1,1,32,http://www.ripta.com/32,Weekday
16855,"""TUNNEL FS S MAIN""",41.82678,-71.408541,2396923,12:02:00,12:02:00,2,1,32,http://www.ripta.com/32,Weekday
16905,"""TUNNEL NS THAYER""",41.827607,-71.400864,2396923,12:05:00,12:05:00,3,1,32,http://www.ripta.com/32,Weekday
16970,"""WATERMAN NS HOPE""",41.827592,-71.397452,2396923,12:06:00,12:06:00,4,1,32,http://www.ripta.com/32,Weekday
17000,"""WATERMAN FS GOVERNOR""",41.827639,-71.393764,2396923,12:07:00,12:07:00,5,1,32,http://www.ripta.com/32,Weekday
17055,"""WATERMAN FS GANO""",41.82823,-71.390443,2396923,12:08:00,12:08:00,6,1,32,http://www.ripta.com/32,Weekday
17105,"""WATERMAN FS WAYLAND""",41.828519,-71.388171,2396923,12:09:00,12:09:00,7,1,32,http://www.ripta.com/32,Weekday
17050,"""WATERMAN FS BUTLER""",41.827997,-71.385365,2396923,12:10:00,12:10:00,8,1,32,http://www.ripta.com/32,Weekday
17095,"""WATERMAN NS HENDERSON BRIDGE [ON-RAMP]""",41.827568,-71.383009,2396923,12:10:00,12:10:00,9,1,32,http://www.ripta.com/32,Weekday
16885,"""MASSASOIT OPP SUTTON""",41.82719,-71.376149,2396923,12:12:00,12:12:00,10,1,32,http://www.ripta.com/32,Weekday
16480,"""WATERMAN NS SUMMIT""",41.825279,-71.377191,2396923,12:13:00,12:13:00,11,1,32,http://www.ripta.com/32,Weekday
15955,"""WATERMAN NS JAMES""",41.8232,-71.373506,2396923,12:14:00,12:14:00,12,1,32,http://www.ripta.com/32,Weekday
15245,"""TAUNTON NS IVY""",41.819758,-71.37607,2396923,12:15:00,12:15:00,13,1,32,http://www.ripta.com/32,Weekday
15215,"""TAUNTON AVE / GROVE AVE""",41.819787,-71.377591,2396923,12:15:00,12:15:00,14,1,32,http://www.ripta.com/32,Weekday
14560,"""WARREN OPP S PHILLIPS""",41.816149,-71.378111,2396923,12:17:00,12:17:00,15,1,32,http://www.ripta.com/32,Weekday
14515,"""WARREN NS TENTH""",41.815628,-71.376591,2396923,12:17:00,12:17:00,16,1,32,http://www.ripta.com/32,Weekday
71050,"""WARREN FS LYON""",41.81524,-71.375479,2396923,12:17:00,12:17:00,17,1,32,http://www.ripta.com/32,Weekday
14460,"""WARREN NS BERKELEY""",41.814765,-71.374109,2396923,12:18:00,12:18:00,18,1,32,http://www.ripta.com/32,Weekday
14415,"""WARREN NS FRASER""",41.814053,-71.371889,2396923,12:18:00,12:18:00,19,1,32,http://www.ripta.com/32,Weekday
70810,"""S BROADWAY FS WINSOR""",41.813161,-71.370703,2396923,12:18:00,12:18:00,20,1,32,http://www.ripta.com/32,Weekday
13620,"""S BROADWAY FS FORT""",41.80855,-71.372187,2396923,12:19:00,12:19:00,21,1,32,http://www.ripta.com/32,Weekday
13460,"""S BROADWAY FS SETH""",41.807195,-71.372641,2396923,12:19:00,12:19:00,22,1,32,http://www.ripta.com/32,Weekday
13235,"""S BROADWAY OPP LEE""",41.805508,-71.37324,2396923,12:20:00,12:20:00,23,1,32,http://www.ripta.com/32,Weekday
12960,"""S BROADWAY OPP MARTIN""",41.802889,-71.3741,2396923,12:20:00,12:20:00,24,1,32,http://www.ripta.com/32,Weekday
70815,"""MARTIN OPP ANGELL""",41.801464,-71.367331,2396923,12:21:00,12:21:00,25,1,32,http://www.ripta.com/32,Weekday
12630,"""PAWTUCKET NS VINCENT""",41.799153,-71.363072,2396923,12:22:00,12:22:00,26,1,32,http://www.ripta.com/32,Weekday
70820,"""WAMPANOAG NS BUCK THORNE""",41.797289,-71.359453,2396923,12:23:00,12:23:00,27,1,32,http://www.ripta.com/32,Weekday
70825,"""WAMPANOAG FS GARDEN DR""",41.795855,-71.353412,2396923,12:24:00,12:24:00,28,1,32,http://www.ripta.com/32,Weekday
12115,"""TRIPPS LN FS WAMPANOAG TRAIL""",41.795579,-71.353166,2396923,12:24:00,12:24:00,29,1,32,http://www.ripta.com/32,Weekday
12015,"""TRIPPS LN OPP CITIZENS BANK""",41.794662,-71.353405,2396923,12:25:00,12:25:00,30,1,32,http://www.ripta.com/32,Weekday
11825,"""TRIPPS LN NS ORCHARD VIEW MANOR""",41.79134,-71.354289,2396923,12:25:00,12:25:00,31,1,32,http://www.ripta.com/32,Weekday
11700,"""CITIZENS OPERATIONS CTR - E PROVIDENCE""",41.790121,-71.356338,2396923,12:26:00,12:26:00,32,1,32,http://www.ripta.com/32,Weekday
11815,"""CITIZENS WAY NS TRIPPS LN""",41.791094,-71.354429,2396923,12:27:00,12:27:00,33,1,32,http://www.ripta.com/32,Weekday
11875,"""TRIPPS LN OPP MADELINE""",41.792115,-71.353956,2396923,12:27:00,12:27:00,34,1,32,http://www.ripta.com/32,Weekday
11970,"""TRIPPS LN AT 15 TRIPPS LANE""",41.794193,-71.353347,2396923,12:28:00,12:28:00,35,1,32,http://www.ripta.com/32,Weekday
12110,"""TRIPPS LN NS WAMPANOAG TRAIL""",41.795715,-71.352944,2396923,12:28:00,12:28:00,36,1,32,http://www.ripta.com/32,Weekday
72550,"""WAMPANOAG FS TRIPPS""",41.795641,-71.352418,2396923,12:28:00,12:28:00,37,1,32,http://www.ripta.com/32,Weekday
11715,"""WAMPANOAG OPP GATES OF HEAVEN""",41.791481,-71.344402,2396923,12:29:00,12:29:00,38,1,32,http://www.ripta.com/32,Weekday
11340,"""WAMPANOAG OPP 600 WAMPANOAG""",41.790814,-71.336598,2396923,12:30:00,12:30:00,39,1,32,http://www.ripta.com/32,Weekday
72555,"""RIVER FS MINK""",41.788883,-71.331974,2396923,12:31:00,12:31:00,40,1,32,http://www.ripta.com/32,Weekday
72530,"""SEEKONK SQUARE (COMMERCE WAY - SEEKONK)""",41.795428,-71.322655,2396923,12:34:00,12:34:00,41,1,32,http://www.ripta.com/32,Weekday
72530,"""SEEKONK SQUARE (COMMERCE WAY - SEEKONK)""",41.795428,-71.322655,2396934,11:22:00,11:22:00,1,0,32,http://www.ripta.com/32,Weekday
72540,"""WAMPANOAG FS AMARAL""",41.794488,-71.349167,2396934,11:26:00,11:26:00,2,0,32,http://www.ripta.com/32,Weekday
12115,"""TRIPPS LN FS WAMPANOAG TRAIL""",41.795579,-71.353166,2396934,11:28:00,11:28:00,3,0,32,http://www.ripta.com/32,Weekday
12015,"""TRIPPS LN OPP CITIZENS BANK""",41.794662,-71.353405,2396934,11:29:00,11:29:00,4,0,32,http://www.ripta.com/32,Weekday
11825,"""TRIPPS LN NS ORCHARD VIEW MANOR""",41.79134,-71.354289,2396934,11:30:00,11:30:00,5,0,32,http://www.ripta.com/32,Weekday
11700,"""CITIZENS OPERATIONS CTR - E PROVIDENCE""",41.790121,-71.356338,2396934,11:32:00,11:32:00,6,0,32,http://www.ripta.com/32,Weekday
11815,"""CITIZENS WAY NS TRIPPS LN""",41.791094,-71.354429,2396934,11:34:00,11:34:00,7,0,32,http://www.ripta.com/32,Weekday
11875,"""TRIPPS LN OPP MADELINE""",41.792115,-71.353956,2396934,11:34:00,11:34:00,8,0,32,http://www.ripta.com/32,Weekday
11970,"""TRIPPS LN AT 15 TRIPPS LANE""",41.794193,-71.353347,2396934,11:34:00,11:34:00,9,0,32,http://www.ripta.com/32,Weekday
12110,"""TRIPPS LN NS WAMPANOAG TRAIL""",41.795715,-71.352944,2396934,11:35:00,11:35:00,10,0,32,http://www.ripta.com/32,Weekday
70830,"""WAMPANOAG OPP GARDEN DR""",41.796644,-71.357025,2396934,11:36:00,11:36:00,11,0,32,http://www.ripta.com/32,Weekday
70835,"""WAMPANOAG OPP BUCK THORNE""",41.797319,-71.359184,2396934,11:36:00,11:36:00,12,0,32,http://www.ripta.com/32,Weekday
12605,"""PAWTUCKET OPP VINCENT""",41.799178,-71.362926,2396934,11:37:00,11:37:00,13,0,32,http://www.ripta.com/32,Weekday
70840,"""MARTIN FS PAWTUCKET""",41.801433,-71.366587,2396934,11:38:00,11:38:00,14,0,32,http://www.ripta.com/32,Weekday
70845,"""MARTIN OPP DODGE""",41.801833,-71.368737,2396934,11:38:00,11:38:00,15,0,32,http://www.ripta.com/32,Weekday
70850,"""S BROADWAY FS MARTIN""",41.803891,-71.373629,2396934,11:40:00,11:40:00,16,0,32,http://www.ripta.com/32,Weekday
13225,"""S BROADWAY FS RIDGE""",41.804984,-71.373294,2396934,11:40:00,11:40:00,17,0,32,http://www.ripta.com/32,Weekday
13435,"""S BROADWAY OPP 1253 S BROADWAY""",41.807274,-71.372493,2396934,11:40:00,11:40:00,18,0,32,http://www.ripta.com/32,Weekday
13645,"""S BROADWAY OPP 1149 S BROADWAY""",41.808281,-71.372168,2396934,11:41:00,11:41:00,19,0,32,http://www.ripta.com/32,Weekday
70855,"""S BROADWAY NS BELMONT""",41.809701,-71.371738,2396934,11:41:00,11:41:00,20,0,32,http://www.ripta.com/32,Weekday
70860,"""S BROADWAY NS WINSOR""",41.812959,-71.370659,2396934,11:42:00,11:42:00,21,0,32,http://www.ripta.com/32,Weekday
14420,"""WARREN NS S SHARON""",41.814364,-71.372559,2396934,11:42:00,11:42:00,22,0,32,http://www.ripta.com/32,Weekday
14465,"""WARREN  NS CARPENTER""",41.814951,-71.374393,2396934,11:42:00,11:42:00,23,0,32,http://www.ripta.com/32,Weekday
14525,"""WARREN AT 184 WARREN""",41.815713,-71.376568,2396934,11:43:00,11:43:00,24,0,32,http://www.ripta.com/32,Weekday
14630,"""WARREN OPP SEVENTH""",41.816458,-71.378666,2396934,11:44:00,11:44:00,25,0,32,http://www.ripta.com/32,Weekday
15150,"""TAUNTON FS POTTER""",41.819685,-71.379222,2396934,11:45:00,11:45:00,26,0,32,http://www.ripta.com/32,Weekday
72535,"""JAMES FS TAUNTON""",41.819968,-71.375085,2396934,11:45:00,11:45:00,27,0,32,http://www.ripta.com/32,Weekday
15975,"""WATERMAN FS JAMES""",41.823275,-71.373396,2396934,11:46:00,11:46:00,28,0,32,http://www.ripta.com/32,Weekday
16395,"""WATERMAN OPP SUMMIT""",41.825202,-71.376823,2396934,11:47:00,11:47:00,29,0,32,http://www.ripta.com/32,Weekday
16870,"""MASSASOIT FS SUTTON""",41.827277,-71.375701,2396934,11:47:00,11:47:00,30,0,32,http://www.ripta.com/32,Weekday
17125,"""MASSASOIT NS HENDERSON BRIDGE [ON-RAMP]""",41.828758,-71.371558,2396934,11:48:00,11:48:00,31,0,32,http://www.ripta.com/32,Weekday
17185,"""S ANGELL AT 120 S ANGELL""",41.829247,-71.383528,2396934,11:49:00,11:49:00,32,0,32,http://www.ripta.com/32,Weekday
17215,"""S ANGELL FS BUTLER""",41.829588,-71.385298,2396934,11:49:00,11:49:00,33,0,32,http://www.ripta.com/32,Weekday
59165,"""S ANGELL NS WAYLAND""",41.829994,-71.387362,2396934,11:50:00,11:50:00,34,0,32,http://www.ripta.com/32,Weekday
17285,"""ANGELL FS WAYLAND""",41.830134,-71.388391,2396934,11:50:00,11:50:00,35,0,32,http://www.ripta.com/32,Weekday
17290,"""ANGELL FS ELMGROVE""",41.829826,-71.389833,2396934,11:50:00,11:50:00,36,0,32,http://www.ripta.com/32,Weekday
17100,"""ANGELL NS HOPE""",41.828462,-71.397302,2396934,11:53:00,11:53:00,37,0,32,http://www.ripta.com/32,Weekday
17085,"""ANGELL AT PRESCOTT LIBRARY""",41.828357,-71.398382,2396934,11:53:00,11:53:00,38,0,32,http://www.ripta.com/32,Weekday
17045,"""TUNNEL FS THAYER""",41.827682,-71.400886,2396934,11:54:00,11:54:00,39,0,32,http://www.ripta.com/32,Weekday
16890,"""TUNNEL NS S MAIN""",41.826842,-71.408585,2396934,11:56:00,11:56:00,40,0,32,http://www.ripta.com/32,Weekday
16525,"""KENNEDY PLAZA (STOP H)""",41.825212,-71.41155,2396934,11:59:00,11:59:00,41,0,32,http://www.ripta.com/32,Weekday
16525,"""KENNEDY PLAZA (STOP H)""",41.825212,-71.41155,2396938,11:00:00,11:00:00,1,1,32,http://www.ripta.com/32,Weekday
16855,"""TUNNEL FS S MAIN""",41.82678,-71.408541,2396938,11:02:00,11:02:00,2,1,32,http://www.ripta.com/32,Weekday
16905,"""TUNNEL NS THAYER""",41.827607,-71.400864,2396938,11:05:00,11:05:00,3,1,32,http://www.ripta.com/32,Weekday
16970,"""WATERMAN NS HOPE""",41.827592,-71.397452,2396938,11:06:00,11:06:00,4,1,32,http://www.ripta.com/32,Weekday
17000,"""WATERMAN FS GOVERNOR""",41.827639,-71.393764,2396938,11:07:00,11:07:00,5,1,32,http://www.ripta.com/32,Weekday
17055,"""WATERMAN FS GANO""",41.82823,-71.390443,2396938,11:08:00,11:08:00,6,1,32,http://www.ripta.com/32,Weekday
17105,"""WATERMAN FS WAYLAND""",41.828519,-71.388171,2396938,11:09:00,11:09:00,7,1,32,http://www.ripta.com/32,Weekday
17050,"""WATERMAN FS BUTLER""",41.827997,-71.385365,2396938,11:10:00,11:10:00,8,1,32,http://www.ripta.com/32,Weekday
17095,"""WATERMAN NS HENDERSON BRIDGE [ON-RAMP]""",41.827568,-71.383009,2396938,11:10:00,11:10:00,9,1,32,http://www.ripta.com/32,Weekday
16885,"""MASSASOIT OPP SUTTON""",41.82719,-71.376149,2396938,11:12:00,11:12:00,10,1,32,http://www.ripta.com/32,Weekday
16480,"""WATERMAN NS SUMMIT""",41.825279,-71.377191,2396938,11:13:00,11:13:00,11,1,32,http://www.ripta.com/32,Weekday
15955,"""WATERMAN NS JAMES""",41.8232,-71.373506,2396938,11:14:00,11:14:00,12,1,32,http://www.ripta.com/32,Weekday
15245,"""TAUNTON NS IVY""",41.819758,-71.37607,2396938,11:15:00,11:15:00,13,1,32,http://www.ripta.com/32,Weekday
15215,"""TAUNTON AVE / GROVE AVE""",41.819787,-71.377591,2396938,11:15:00,11:15:00,14,1,32,http://www.ripta.com/32,Weekday
14560,"""WARREN OPP S PHILLIPS""",41.816149,-71.378111,2396938,11:17:00,11:17:00,15,1,32,http://www.ripta.com/32,Weekday
14515,"""WARREN NS TENTH""",41.815628,-71.376591,2396938,11:17:00,11:17:00,16,1,32,http://www.ripta.com/32,Weekday
71050,"""WARREN FS LYON""",41.81524,-71.375479,2396938,11:17:00,11:17:00,17,1,32,http://www.ripta.com/32,Weekday
14460,"""WARREN NS BERKELEY""",41.814765,-71.374109,2396938,11:18:00,11:18:00,18,1,32,http://www.ripta.com/32,Weekday
14415,"""WARREN NS FRASER""",41.814053,-71.371889,2396938,11:18:00,11:18:00,19,1,32,http://www.ripta.com/32,Weekday
70810,"""S BROADWAY FS WINSOR""",41.813161,-71.370703,2396938,11:18:00,11:18:00,20,1,32,http://www.ripta.com/32,Weekday
13620,"""S BROADWAY FS FORT""",41.80855,-71.372187,2396938,11:19:00,11:19:00,21,1,32,http://www.ripta.com/32,Weekday
13460,"""S BROADWAY FS SETH""",41.807195,-71.372641,2396938,11:19:00,11:19:00,22,1,32,http://www.ripta.com/32,Weekday
13235,"""S BROADWAY OPP LEE""",41.805508,-71.37324,2396938,11:20:00,11:20:00,23,1,32,http://www.ripta.com/32,Weekday
12960,"""S BROADWAY OPP MARTIN""",41.802889,-71.3741,2396938,11:20:00,11:20:00,24,1,32,http://www.ripta.com/32,Weekday
70815,"""MARTIN OPP ANGELL""",41.801464,-71.367331,2396938,11:21:00,11:21:00,25,1,32,http://www.ripta.com/32,Weekday
12630,"""PAWTUCKET NS VINCENT""",41.799153,-71.363072,2396938,11:22:00,11:22:00,26,1,32,http://www.ripta.com/32,Weekday
70820,"""WAMPANOAG NS BUCK THORNE""",41.797289,-71.359453,2396938,11:23:00,11:23:00,27,1,32,http://www.ripta.com/32,Weekday
70825,"""WAMPANOAG FS GARDEN DR""",41.795855,-71.353412,2396938,11:24:00,11:24:00,28,1,32,http://www.ripta.com/32,Weekday
12115,"""TRIPPS LN FS WAMPANOAG TRAIL""",41.795579,-71.353166,2396938,11:24:00,11:24:00,29,1,32,http://www.ripta.com/32,Weekday
12015,"""TRIPPS LN OPP CITIZENS BANK""",41.794662,-71.353405,2396938,11:25:00,11:25:00,30,1,32,http://www.ripta.com/32,Weekday
11825,"""TRIPPS LN NS ORCHARD VIEW MANOR""",41.79134,-71.354289,2396938,11:25:00,11:25:00,31,1,32,http://www.ripta.com/32,Weekday
11700,"""CITIZENS OPERATIONS CTR - E PROVIDENCE""",41.790121,-71.356338,2396938,11:26:00,11:26:00,32,1,32,http://www.ripta.com/32,Weekday
11815,"""CITIZENS WAY NS TRIPPS LN""",41.791094,-71.354429,2396938,11:27:00,11:27:00,33,1,32,http://www.ripta.com/32,Weekday
11875,"""TRIPPS LN OPP MADELINE""",41.792115,-71.353956,2396938,11:27:00,11:27:00,34,1,32,http://www.ripta.com/32,Weekday
11970,"""TRIPPS LN AT 15 TRIPPS LANE""",41.794193,-71.353347,2396938,11:28:00,11:28:00,35,1,32,http://www.ripta.com/32,Weekday
12110,"""TRIPPS LN NS WAMPANOAG TRAIL""",41.795715,-71.352944,2396938,11:28:00,11:28:00,36,1,32,http://www.ripta.com/32,Weekday
72550,"""WAMPANOAG FS TRIPPS""",41.795641,-71.352418,2396938,11:28:00,11:28:00,37,1,32,http://www.ripta.com/32,Weekday
11715,"""WAMPANOAG OPP GATES OF HEAVEN""",41.791481,-71.344402,2396938,11:29:00,11:29:00,38,1,32,http://www.ripta.com/32,Weekday
11340,"""WAMPANOAG OPP 600 WAMPANOAG""",41.790814,-71.336598,2396938,11:30:00,11:30:00,39,1,32,http://www.ripta.com/32,Weekday
72555,"""RIVER FS MINK""",41.788883,-71.331974,2396938,11:31:00,11:31:00,40,1,32,http://www.ripta.com/32,Weekday
72530,"""SEEKONK SQUARE (COMMERCE WAY - SEEKONK)""",41.795428,-71.322655,2396938,11:34:00,11:34:00,41,1,32,http://www.ripta.com/32,Weekday
72530,"""SEEKONK SQUARE (COMMERCE WAY - SEEKONK)""",41.795428,-71.322655,2396952,10:22:00,10:22:00,1,0,32,http://www.ripta.com/32,Weekday
72540,"""WAMPANOAG FS AMARAL""",41.794488,-71.349167,2396952,10:26:00,10:26:00,2,0,32,http://www.ripta.com/32,Weekday
12115,"""TRIPPS LN FS WAMPANOAG TRAIL""",41.795579,-71.353166,2396952,10:28:00,10:28:00,3,0,32,http://www.ripta.com/32,Weekday
12015,"""TRIPPS LN OPP CITIZENS BANK""",41.794662,-71.353405,2396952,10:29:00,10:29:00,4,0,32,http://www.ripta.com/32,Weekday
11825,"""TRIPPS LN NS ORCHARD VIEW MANOR""",41.79134,-71.354289,2396952,10:30:00,10:30:00,5,0,32,http://www.ripta.com/32,Weekday
11700,"""CITIZENS OPERATIONS CTR - E PROVIDENCE""",41.790121,-71.356338,2396952,10:32:00,10:32:00,6,0,32,http://www.ripta.com/32,Weekday
11815,"""CITIZENS WAY NS TRIPPS LN""",41.791094,-71.354429,2396952,10:34:00,10:34:00,7,0,32,http://www.ripta.com/32,Weekday
11875,"""TRIPPS LN OPP MADELINE""",41.792115,-71.353956,2396952,10:34:00,10:34:00,8,0,32,http://www.ripta.com/32,Weekday
11970,"""TRIPPS LN AT 15 TRIPPS LANE""",41.794193,-71.353347,2396952,10:34:00,10:34:00,9,0,32,http://www.ripta.com/32,Weekday
12110,"""TRIPPS LN NS WAMPANOAG TRAIL""",41.795715,-71.352944,2396952,10:35:00,10:35:00,10,0,32,http://www.ripta.com/32,Weekday
70830,"""WAMPANOAG OPP GARDEN DR""",41.796644,-71.357025,2396952,10:36:00,10:36:00,11,0,32,http://www.ripta.com/32,Weekday
70835,"""WAMPANOAG OPP BUCK THORNE""",41.797319,-71.359184,2396952,10:36:00,10:36:00,12,0,32,http://www.ripta.com/32,Weekday
12605,"""PAWTUCKET OPP VINCENT""",41.799178,-71.362926,2396952,10:37:00,10:37:00,13,0,32,http://www.ripta.com/32,Weekday
70840,"""MARTIN FS PAWTUCKET""",41.801433,-71.366587,2396952,10:38:00,10:38:00,14,0,32,http://www.ripta.com/32,Weekday
70845,"""MARTIN OPP DODGE""",41.801833,-71.368737,2396952,10:38:00,10:38:00,15,0,32,http://www.ripta.com/32,Weekday
70850,"""S BROADWAY FS MARTIN""",41.803891,-71.373629,2396952,10:40:00,10:40:00,16,0,32,http://www.ripta.com/32,Weekday
13225,"""S BROADWAY FS RIDGE""",41.804984,-71.373294,2396952,10:40:00,10:40:00,17,0,32,http://www.ripta.com/32,Weekday
13435,"""S BROADWAY OPP 1253 S BROADWAY""",41.807274,-71.372493,2396952,10:40:00,10:40:00,18,0,32,http://www.ripta.com/32,Weekday
13645,"""S BROADWAY OPP 1149 S BROADWAY""",41.808281,-71.372168,2396952,10:41:00,10:41:00,19,0,32,http://www.ripta.com/32,Weekday
70855,"""S BROADWAY NS BELMONT""",41.809701,-71.371738,2396952,10:41:00,10:41:00,20,0,32,http://www.ripta.com/32,Weekday
70860,"""S BROADWAY NS WINSOR""",41.812959,-71.370659,2396952,10:42:00,10:42:00,21,0,32,http://www.ripta.com/32,Weekday
14420,"""WARREN NS S SHARON""",41.814364,-71.372559,2396952,10:42:00,10:42:00,22,0,32,http://www.ripta.com/32,Weekday
14465,"""WARREN  NS CARPENTER""",41.814951,-71.374393,2396952,10:42:00,10:42:00,23,0,32,http://www.ripta.com/32,Weekday
14525,"""WARREN AT 184 WARREN""",41.815713,-71.376568,2396952,10:43:00,10:43:00,24,0,32,http://www.ripta.com/32,Weekday
14630,"""WARREN OPP SEVENTH""",41.816458,-71.378666,2396952,10:44:00,10:44:00,25,0,32,http://www.ripta.com/32,Weekday
15150,"""TAUNTON FS POTTER""",41.819685,-71.379222,2396952,10:45:00,10:45:00,26,0,32,http://www.ripta.com/32,Weekday
72535,"""JAMES FS TAUNTON""",41.819968,-71.375085,2396952,10:45:00,10:45:00,27,0,32,http://www.ripta.com/32,Weekday
15975,"""WATERMAN FS JAMES""",41.823275,-71.373396,2396952,10:46:00,10:46:00,28,0,32,http://www.ripta.com/32,Weekday
16395,"""WATERMAN OPP SUMMIT""",41.825202,-71.376823,2396952,10:47:00,10:47:00,29,0,32,http://www.ripta.com/32,Weekday
16870,"""MASSASOIT FS SUTTON""",41.827277,-71.375701,2396952,10:47:00,10:47:00,30,0,32,http://www.ripta.com/32,Weekday
17125,"""MASSASOIT NS HENDERSON BRIDGE [ON-RAMP]""",41.828758,-71.371558,2396952,10:48:00,10:48:00,31,0,32,http://www.ripta.com/32,Weekday
17185,"""S ANGELL AT 120 S ANGELL""",41.829247,-71.383528,2396952,10:49:00,10:49:00,32,0,32,http://www.ripta.com/32,Weekday
17215,"""S ANGELL FS BUTLER""",41.829588,-71.385298,2396952,10:49:00,10:49:00,33,0,32,http://www.ripta.com/32,Weekday
59165,"""S ANGELL NS WAYLAND""",41.829994,-71.387362,2396952,10:50:00,10:50:00,34,0,32,http://www.ripta.com/32,Weekday
17285,"""ANGELL FS WAYLAND""",41.830134,-71.388391,2396952,10:50:00,10:50:00,35,0,32,http://www.ripta.com/32,Weekday
17290,"""ANGELL FS ELMGROVE""",41.829826,-71.389833,2396952,10:50:00,10:50:00,36,0,32,http://www.ripta.com/32,Weekday
17100,"""ANGELL NS HOPE""",41.828462,-71.397302,2396952,10:53:00,10:53:00,37,0,32,http://www.ripta.com/32,Weekday
17085,"""ANGELL AT PRESCOTT LIBRARY""",41.828357,-71.398382,2396952,10:53:00,10:53:00,38,0,32,http://www.ripta.com/32,Weekday
17045,"""TUNNEL FS THAYER""",41.827682,-71.400886,2396952,10:54:00,10:54:00,39,0,32,http://www.ripta.com/32,Weekday
16890,"""TUNNEL NS S MAIN""",41.826842,-71.408585,2396952,10:56:00,10:56:00,40,0,32,http://www.ripta.com/32,Weekday
16525,"""KENNEDY PLAZA (STOP H)""",41.825212,-71.41155,2396952,10:59:00,10:59:00,41,0,32,http://www.ripta.com/32,Weekday
16525,"""KENNEDY PLAZA (STOP H)""",41.825212,-71.41155,2396962,10:00:00,10:00:00,1,1,32,http://www.ripta.com/32,Weekday
16855,"""TUNNEL FS S MAIN""",41.82678,-71.408541,2396962,10:02:00,10:02:00,2,1,32,http://www.ripta.com/32,Weekday
16905,"""TUNNEL NS THAYER""",41.827607,-71.400864,2396962,10:05:00,10:05:00,3,1,32,http://www.ripta.com/32,Weekday
16970,"""WATERMAN NS HOPE""",41.827592,-71.397452,2396962,10:06:00,10:06:00,4,1,32,http://www.ripta.com/32,Weekday
17000,"""WATERMAN FS GOVERNOR""",41.827639,-71.393764,2396962,10:07:00,10:07:00,5,1,32,http://www.ripta.com/32,Weekday
17055,"""WATERMAN FS GANO""",41.82823,-71.390443,2396962,10:08:00,10:08:00,6,1,32,http://www.ripta.com/32,Weekday
17105,"""WATERMAN FS WAYLAND""",41.828519,-71.388171,2396962,10:09:00,10:09:00,7,1,32,http://www.ripta.com/32,Weekday
17050,"""WATERMAN FS BUTLER""",41.827997,-71.385365,2396962,10:10:00,10:10:00,8,1,32,http://www.ripta.com/32,Weekday
17095,"""WATERMAN NS HENDERSON BRIDGE [ON-RAMP]""",41.827568,-71.383009,2396962,10:10:00,10:10:00,9,1,32,http://www.ripta.com/32,Weekday
16885,"""MASSASOIT OPP SUTTON""",41.82719,-71.376149,2396962,10:12:00,10:12:00,10,1,32,http://www.ripta.com/32,Weekday
16480,"""WATERMAN NS SUMMIT""",41.825279,-71.377191,2396962,10:13:00,10:13:00,11,1,32,http://www.ripta.com/32,Weekday
15955,"""WATERMAN NS JAMES""",41.8232,-71.373506,2396962,10:14:00,10:14:00,12,1,32,http://www.ripta.com/32,Weekday
15245,"""TAUNTON NS IVY""",41.819758,-71.37607,2396962,10:15:00,10:15:00,13,1,32,http://www.ripta.com/32,Weekday
15215,"""TAUNTON AVE / GROVE AVE""",41.819787,-71.377591,2396962,10:15:00,10:15:00,14,1,32,http://www.ripta.com/32,Weekday
14560,"""WARREN OPP S PHILLIPS""",41.816149,-71.378111,2396962,10:17:00,10:17:00,15,1,32,http://www.ripta.com/32,Weekday
14515,"""WARREN NS TENTH""",41.815628,-71.376591,2396962,10:17:00,10:17:00,16,1,32,http://www.ripta.com/32,Weekday
71050,"""WARREN FS LYON""",41.81524,-71.375479,2396962,10:17:00,10:17:00,17,1,32,http://www.ripta.com/32,Weekday
14460,"""WARREN NS BERKELEY""",41.814765,-71.374109,2396962,10:18:00,10:18:00,18,1,32,http://www.ripta.com/32,Weekday
14415,"""WARREN NS FRASER""",41.814053,-71.371889,2396962,10:18:00,10:18:00,19,1,32,http://www.ripta.com/32,Weekday
70810,"""S BROADWAY FS WINSOR""",41.813161,-71.370703,2396962,10:18:00,10:18:00,20,1,32,http://www.ripta.com/32,Weekday
13620,"""S BROADWAY FS FORT""",41.80855,-71.372187,2396962,10:19:00,10:19:00,21,1,32,http://www.ripta.com/32,Weekday
13460,"""S BROADWAY FS SETH""",41.807195,-71.372641,2396962,10:19:00,10:19:00,22,1,32,http://www.ripta.com/32,Weekday
13235,"""S BROADWAY OPP LEE""",41.805508,-71.37324,2396962,10:20:00,10:20:00,23,1,32,http://www.ripta.com/32,Weekday
12960,"""S BROADWAY OPP MARTIN""",41.802889,-71.3741,2396962,10:20:00,10:20:00,24,1,32,http://www.ripta.com/32,Weekday
70815,"""MARTIN OPP ANGELL""",41.801464,-71.367331,2396962,10:21:00,10:21:00,25,1,32,http://www.ripta.com/32,Weekday
12630,"""PAWTUCKET NS VINCENT""",41.799153,-71.363072,2396962,10:22:00,10:22:00,26,1,32,http://www.ripta.com/32,Weekday
70820,"""WAMPANOAG NS BUCK THORNE""",41.797289,-71.359453,2396962,10:23:00,10:23:00,27,1,32,http://www.ripta.com/32,Weekday
70825,"""WAMPANOAG FS GARDEN DR""",41.795855,-71.353412,2396962,10:24:00,10:24:00,28,1,32,http://www.ripta.com/32,Weekday
12115,"""TRIPPS LN FS WAMPANOAG TRAIL""",41.795579,-71.353166,2396962,10:24:00,10:24:00,29,1,32,http://www.ripta.com/32,Weekday
12015,"""TRIPPS LN OPP CITIZENS BANK""",41.794662,-71.353405,2396962,10:25:00,10:25:00,30,1,32,http://www.ripta.com/32,Weekday
11825,"""TRIPPS LN NS ORCHARD VIEW MANOR""",41.79134,-71.354289,2396962,10:25:00,10:25:00,31,1,32,http://www.ripta.com/32,Weekday
11700,"""CITIZENS OPERATIONS CTR - E PROVIDENCE""",41.790121,-71.356338,2396962,10:26:00,10:26:00,32,1,32,http://www.ripta.com/32,Weekday
11815,"""CITIZENS WAY NS TRIPPS LN""",41.791094,-71.354429,2396962,10:27:00,10:27:00,33,1,32,http://www.ripta.com/32,Weekday
11875,"""TRIPPS LN OPP MADELINE""",41.792115,-71.353956,2396962,10:27:00,10:27:00,34,1,32,http://www.ripta.com/32,Weekday
11970,"""TRIPPS LN AT 15 TRIPPS LANE""",41.794193,-71.353347,2396962,10:28:00,10:28:00,35,1,32,http://www.ripta.com/32,Weekday
12110,"""TRIPPS LN NS WAMPANOAG TRAIL""",41.795715,-71.352944,2396962,10:28:00,10:28:00,36,1,32,http://www.ripta.com/32,Weekday
72550,"""WAMPANOAG FS TRIPPS""",41.795641,-71.352418,2396962,10:28:00,10:28:00,37,1,32,http://www.ripta.com/32,Weekday
11715,"""WAMPANOAG OPP GATES OF HEAVEN""",41.791481,-71.344402,2396962,10:29:00,10:29:00,38,1,32,http://www.ripta.com/32,Weekday
11340,"""WAMPANOAG OPP 600 WAMPANOAG""",41.790814,-71.336598,2396962,10:30:00,10:30:00,39,1,32,http://www.ripta.com/32,Weekday
72555,"""RIVER FS MINK""",41.788883,-71.331974,2396962,10:31:00,10:31:00,40,1,32,http://www.ripta.com/32,Weekday
72530,"""SEEKONK SQUARE (COMMERCE WAY - SEEKONK)""",41.795428,-71.322655,2396962,10:34:00,10:34:00,41,1,32,http://www.ripta.com/32,Weekday
72530,"""SEEKONK SQUARE (COMMERCE WAY - SEEKONK)""",41.795428,-71.322655,2396990,09:22:00,09:22:00,1,0,32,http://www.ripta.com/32,Weekday
72540,"""WAMPANOAG FS AMARAL""",41.794488,-71.349167,2396990,09:26:00,09:26:00,2,0,32,http://www.ripta.com/32,Weekday
12115,"""TRIPPS LN FS WAMPANOAG TRAIL""",41.795579,-71.353166,2396990,09:28:00,09:28:00,3,0,32,http://www.ripta.com/32,Weekday
12015,"""TRIPPS LN OPP CITIZENS BANK""",41.794662,-71.353405,2396990,09:29:00,09:29:00,4,0,32,http://www.ripta.com/32,Weekday
11825,"""TRIPPS LN NS ORCHARD VIEW MANOR""",41.79134,-71.354289,2396990,09:30:00,09:30:00,5,0,32,http://www.ripta.com/32,Weekday
11700,"""CITIZENS OPERATIONS CTR - E PROVIDENCE""",41.790121,-71.356338,2396990,09:32:00,09:32:00,6,0,32,http://www.ripta.com/32,Weekday
11815,"""CITIZENS WAY NS TRIPPS LN""",41.791094,-71.354429,2396990,09:34:00,09:34:00,7,0,32,http://www.ripta.com/32,Weekday
11875,"""TRIPPS LN OPP MADELINE""",41.792115,-71.353956,2396990,09:34:00,09:34:00,8,0,32,http://www.ripta.com/32,Weekday
11970,"""TRIPPS LN AT 15 TRIPPS LANE""",41.794193,-71.353347,2396990,09:34:00,09:34:00,9,0,32,http://www.ripta.com/32,Weekday
12110,"""TRIPPS LN NS WAMPANOAG TRAIL""",41.795715,-71.352944,2396990,09:35:00,09:35:00,10,0,32,http://www.ripta.com/32,Weekday
70830,"""WAMPANOAG OPP GARDEN DR""",41.796644,-71.357025,2396990,09:36:00,09:36:00,11,0,32,http://www.ripta.com/32,Weekday
70835,"""WAMPANOAG OPP BUCK THORNE""",41.797319,-71.359184,2396990,09:36:00,09:36:00,12,0,32,http://www.ripta.com/32,Weekday
12605,"""PAWTUCKET OPP VINCENT""",41.799178,-71.362926,2396990,09:37:00,09:37:00,13,0,32,http://www.ripta.com/32,Weekday
70840,"""MARTIN FS PAWTUCKET""",41.801433,-71.366587,2396990,09:38:00,09:38:00,14,0,32,http://www.ripta.com/32,Weekday
70845,"""MARTIN OPP DODGE""",41.801833,-71.368737,2396990,09:38:00,09:38:00,15,0,32,http://www.ripta.com/32,Weekday
70850,"""S BROADWAY FS MARTIN""",41.803891,-71.373629,2396990,09:40:00,09:40:00,16,0,32,http://www.ripta.com/32,Weekday
13225,"""S BROADWAY FS RIDGE""",41.804984,-71.373294,2396990,09:40:00,09:40:00,17,0,32,http://www.ripta.com/32,Weekday
13435,"""S BROADWAY OPP 1253 S BROADWAY""",41.807274,-71.372493,2396990,09:40:00,09:40:00,18,0,32,http://www.ripta.com/32,Weekday
13645,"""S BROADWAY OPP 1149 S BROADWAY""",41.808281,-71.372168,2396990,09:41:00,09:41:00,19,0,32,http://www.ripta.com/32,Weekday
70855,"""S BROADWAY NS BELMONT""",41.809701,-71.371738,2396990,09:41:00,09:41:00,20,0,32,http://www.ripta.com/32,Weekday
70860,"""S BROADWAY NS WINSOR""",41.812959,-71.370659,2396990,09:42:00,09:42:00,21,0,32,http://www.ripta.com/32,Weekday
14420,"""WARREN NS S SHARON""",41.814364,-71.372559,2396990,09:42:00,09:42:00,22,0,32,http://www.ripta.com/32,Weekday
14465,"""WARREN  NS CARPENTER""",41.814951,-71.374393,2396990,09:42:00,09:42:00,23,0,32,http://www.ripta.com/32,Weekday
14525,"""WARREN AT 184 WARREN""",41.815713,-71.376568,2396990,09:43:00,09:43:00,24,0,32,http://www.ripta.com/32,Weekday
14630,"""WARREN OPP SEVENTH""",41.816458,-71.378666,2396990,09:44:00,09:44:00,25,0,32,http://www.ripta.com/32,Weekday
15150,"""TAUNTON FS POTTER""",41.819685,-71.379222,2396990,09:45:00,09:45:00,26,0,32,http://www.ripta.com/32,Weekday
72535,"""JAMES FS TAUNTON""",41.819968,-71.375085,2396990,09:45:00,09:45:00,27,0,32,http://www.ripta.com/32,Weekday
15975,"""WATERMAN FS JAMES""",41.823275,-71.373396,2396990,09:46:00,09:46:00,28,0,32,http://www.ripta.com/32,Weekday
16395,"""WATERMAN OPP SUMMIT""",41.825202,-71.376823,2396990,09:47:00,09:47:00,29,0,32,http://www.ripta.com/32,Weekday
16870,"""MASSASOIT FS SUTTON""",41.827277,-71.375701,2396990,09:47:00,09:47:00,30,0,32,http://www.ripta.com/32,Weekday
17125,"""MASSASOIT NS HENDERSON BRIDGE [ON-RAMP]""",41.828758,-71.371558,2396990,09:48:00,09:48:00,31,0,32,http://www.ripta.com/32,Weekday
17185,"""S ANGELL AT 120 S ANGELL""",41.829247,-71.383528,2396990,09:49:00,09:49:00,32,0,32,http://www.ripta.com/32,Weekday
17215,"""S ANGELL FS BUTLER""",41.829588,-71.385298,2396990,09:49:00,09:49:00,33,0,32,http://www.ripta.com/32,Weekday
59165,"""S ANGELL NS WAYLAND""",41.829994,-71.387362,2396990,09:50:00,09:50:00,34,0,32,http://www.ripta.com/32,Weekday
17285,"""ANGELL FS WAYLAND""",41.830134,-71.388391,2396990,09:50:00,09:50:00,35,0,32,http://www.ripta.com/32,Weekday
17290,"""ANGELL FS ELMGROVE""",41.829826,-71.389833,2396990,09:50:00,09:50:00,36,0,32,http://www.ripta.com/32,Weekday
17100,"""ANGELL NS HOPE""",41.828462,-71.397302,2396990,09:53:00,09:53:00,37,0,32,http://www.ripta.com/32,Weekday
17085,"""ANGELL AT PRESCOTT LIBRARY""",41.828357,-71.398382,2396990,09:53:00,09:53:00,38,0,32,http://www.ripta.com/32,Weekday
17045,"""TUNNEL FS THAYER""",41.827682,-71.400886,2396990,09:54:00,09:54:00,39,0,32,http://www.ripta.com/32,Weekday
16890,"""TUNNEL NS S MAIN""",41.826842,-71.408585,2396990,09:56:00,09:56:00,40,0,32,http://www.ripta.com/32,Weekday
16525,"""KENNEDY PLAZA (STOP H)""",41.825212,-71.41155,2396990,09:59:00,09:59:00,41,0,32,http://www.ripta.com/32,Weekday
16525,"""KENNEDY PLAZA (STOP H)""",41.825212,-71.41155,2396997,09:00:00,09:00:00,1,1,32,http://www.ripta.com/32,Weekday
16855,"""TUNNEL FS S MAIN""",41.82678,-71.408541,2396997,09:02:00,09:02:00,2,1,32,http://www.ripta.com/32,Weekday
16905,"""TUNNEL NS THAYER""",41.827607,-71.400864,2396997,09:05:00,09:05:00,3,1,32,http://www.ripta.com/32,Weekday
16970,"""WATERMAN NS HOPE""",41.827592,-71.397452,2396997,09:06:00,09:06:00,4,1,32,http://www.ripta.com/32,Weekday
17000,"""WATERMAN FS GOVERNOR""",41.827639,-71.393764,2396997,09:07:00,09:07:00,5,1,32,http://www.ripta.com/32,Weekday
17055,"""WATERMAN FS GANO""",41.82823,-71.390443,2396997,09:08:00,09:08:00,6,1,32,http://www.ripta.com/32,Weekday
17105,"""WATERMAN FS WAYLAND""",41.828519,-71.388171,2396997,09:09:00,09:09:00,7,1,32,http://www.ripta.com/32,Weekday
17050,"""WATERMAN FS BUTLER""",41.827997,-71.385365,2396997,09:10:00,09:10:00,8,1,32,http://www.ripta.com/32,Weekday
17095,"""WATERMAN NS HENDERSON BRIDGE [ON-RAMP]""",41.827568,-71.383009,2396997,09:10:00,09:10:00,9,1,32,http://www.ripta.com/32,Weekday
16885,"""MASSASOIT OPP SUTTON""",41.82719,-71.376149,2396997,09:12:00,09:12:00,10,1,32,http://www.ripta.com/32,Weekday
16480,"""WATERMAN NS SUMMIT""",41.825279,-71.377191,2396997,09:13:00,09:13:00,11,1,32,http://www.ripta.com/32,Weekday
15955,"""WATERMAN NS JAMES""",41.8232,-71.373506,2396997,09:14:00,09:14:00,12,1,32,http://www.ripta.com/32,Weekday
15245,"""TAUNTON NS IVY""",41.819758,-71.37607,2396997,09:15:00,09:15:00,13,1,32,http://www.ripta.com/32,Weekday
15215,"""TAUNTON AVE / GROVE AVE""",41.819787,-71.377591,2396997,09:15:00,09:15:00,14,1,32,http://www.ripta.com/32,Weekday
14560,"""WARREN OPP S PHILLIPS""",41.816149,-71.378111,2396997,09:17:00,09:17:00,15,1,32,http://www.ripta.com/32,Weekday
14515,"""WARREN NS TENTH""",41.815628,-71.376591,2396997,09:17:00,09:17:00,16,1,32,http://www.ripta.com/32,Weekday
71050,"""WARREN FS LYON""",41.81524,-71.375479,2396997,09:17:00,09:17:00,17,1,32,http://www.ripta.com/32,Weekday
14460,"""WARREN NS BERKELEY""",41.814765,-71.374109,2396997,09:18:00,09:18:00,18,1,32,http://www.ripta.com/32,Weekday
14415,"""WARREN NS FRASER""",41.814053,-71.371889,2396997,09:18:00,09:18:00,19,1,32,http://www.ripta.com/32,Weekday
70810,"""S BROADWAY FS WINSOR""",41.813161,-71.370703,2396997,09:18:00,09:18:00,20,1,32,http://www.ripta.com/32,Weekday
13620,"""S BROADWAY FS FORT""",41.80855,-71.372187,2396997,09:19:00,09:19:00,21,1,32,http://www.ripta.com/32,Weekday
13460,"""S BROADWAY FS SETH""",41.807195,-71.372641,2396997,09:19:00,09:19:00,22,1,32,http://www.ripta.com/32,Weekday
13235,"""S BROADWAY OPP LEE""",41.805508,-71.37324,2396997,09:20:00,09:20:00,23,1,32,http://www.ripta.com/32,Weekday
12960,"""S BROADWAY OPP MARTIN""",41.802889,-71.3741,2396997,09:20:00,09:20:00,24,1,32,http://www.ripta.com/32,Weekday
70815,"""MARTIN OPP ANGELL""",41.801464,-71.367331,2396997,09:21:00,09:21:00,25,1,32,http://www.ripta.com/32,Weekday
12630,"""PAWTUCKET NS VINCENT""",41.799153,-71.363072,2396997,09:22:00,09:22:00,26,1,32,http://www.ripta.com/32,Weekday
70820,"""WAMPANOAG NS BUCK THORNE""",41.797289,-71.359453,2396997,09:23:00,09:23:00,27,1,32,http://www.ripta.com/32,Weekday
70825,"""WAMPANOAG FS GARDEN DR""",41.795855,-71.353412,2396997,09:24:00,09:24:00,28,1,32,http://www.ripta.com/32,Weekday
12115,"""TRIPPS LN FS WAMPANOAG TRAIL""",41.795579,-71.353166,2396997,09:24:00,09:24:00,29,1,32,http://www.ripta.com/32,Weekday
12015,"""TRIPPS LN OPP CITIZENS BANK""",41.794662,-71.353405,2396997,09:25:00,09:25:00,30,1,32,http://www.ripta.com/32,Weekday
11825,"""TRIPPS LN NS ORCHARD VIEW MANOR""",41.79134,-71.354289,2396997,09:25:00,09:25:00,31,1,32,http://www.ripta.com/32,Weekday
11700,"""CITIZENS OPERATIONS CTR - E PROVIDENCE""",41.790121,-71.356338,2396997,09:26:00,09:26:00,32,1,32,http://www.ripta.com/32,Weekday
11815,"""CITIZENS WAY NS TRIPPS LN""",41.791094,-71.354429,2396997,09:27:00,09:27:00,33,1,32,http://www.ripta.com/32,Weekday
11875,"""TRIPPS LN OPP MADELINE""",41.792115,-71.353956,2396997,09:27:00,09:27:00,34,1,32,http://www.ripta.com/32,Weekday
11970,"""TRIPPS LN AT 15 TRIPPS LANE""",41.794193,-71.353347,2396997,09:28:00,09:28:00,35,1,32,http://www.ripta.com/32,Weekday
12110,"""TRIPPS LN NS WAMPANOAG TRAIL""",41.795715,-71.352944,2396997,09:28:00,09:28:00,36,1,32,http://www.ripta.com/32,Weekday
72550,"""WAMPANOAG FS TRIPPS""",41.795641,-71.352418,2396997,09:28:00,09:28:00,37,1,32,http://www.ripta.com/32,Weekday
11715,"""WAMPANOAG OPP GATES OF HEAVEN""",41.791481,-71.344402,2396997,09:29:00,09:29:00,38,1,32,http://www.ripta.com/32,Weekday
11340,"""WAMPANOAG OPP 600 WAMPANOAG""",41.790814,-71.336598,2396997,09:30:00,09:30:00,39,1,32,http://www.ripta.com/32,Weekday
72555,"""RIVER FS MINK""",41.788883,-71.331974,2396997,09:31:00,09:31:00,40,1,32,http://www.ripta.com/32,Weekday
72530,"""SEEKONK SQUARE (COMMERCE WAY - SEEKONK)""",41.795428,-71.322655,2396997,09:34:00,09:34:00,41,1,32,http://www.ripta.com/32,Weekday
72530,"""SEEKONK SQUARE (COMMERCE WAY - SEEKONK)""",41.795428,-71.322655,2397010,08:22:00,08:22:00,1,0,32,http://www.ripta.com/32,Weekday
72540,"""WAMPANOAG FS AMARAL""",41.794488,-71.349167,2397010,08:26:00,08:26:00,2,0,32,http://www.ripta.com/32,Weekday
12115,"""TRIPPS LN FS WAMPANOAG TRAIL""",41.795579,-71.353166,2397010,08:28:00,08:28:00,3,0,32,http://www.ripta.com/32,Weekday
12015,"""TRIPPS LN OPP CITIZENS BANK""",41.794662,-71.353405,2397010,08:29:00,08:29:00,4,0,32,http://www.ripta.com/32,Weekday
11825,"""TRIPPS LN NS ORCHARD VIEW MANOR""",41.79134,-71.354289,2397010,08:30:00,08:30:00,5,0,32,http://www.ripta.com/32,Weekday
11700,"""CITIZENS OPERATIONS CTR - E PROVIDENCE""",41.790121,-71.356338,2397010,08:32:00,08:32:00,6,0,32,http://www.ripta.com/32,Weekday
11815,"""CITIZENS WAY NS TRIPPS LN""",41.791094,-71.354429,2397010,08:34:00,08:34:00,7,0,32,http://www.ripta.com/32,Weekday
11875,"""TRIPPS LN OPP MADELINE""",41.792115,-71.353956,2397010,08:34:00,08:34:00,8,0,32,http://www.ripta.com/32,Weekday
11970,"""TRIPPS LN AT 15 TRIPPS LANE""",41.794193,-71.353347,2397010,08:34:00,08:34:00,9,0,32,http://www.ripta.com/32,Weekday
12110,"""TRIPPS LN NS WAMPANOAG TRAIL""",41.795715,-71.352944,2397010,08:35:00,08:35:00,10,0,32,http://www.ripta.com/32,Weekday
70830,"""WAMPANOAG OPP GARDEN DR""",41.796644,-71.357025,2397010,08:36:00,08:36:00,11,0,32,http://www.ripta.com/32,Weekday
70835,"""WAMPANOAG OPP BUCK THORNE""",41.797319,-71.359184,2397010,08:36:00,08:36:00,12,0,32,http://www.ripta.com/32,Weekday
12605,"""PAWTUCKET OPP VINCENT""",41.799178,-71.362926,2397010,08:37:00,08:37:00,13,0,32,http://www.ripta.com/32,Weekday
70840,"""MARTIN FS PAWTUCKET""",41.801433,-71.366587,2397010,08:38:00,08:38:00,14,0,32,http://www.ripta.com/32,Weekday
70845,"""MARTIN OPP DODGE""",41.801833,-71.368737,2397010,08:38:00,08:38:00,15,0,32,http://www.ripta.com/32,Weekday
70850,"""S BROADWAY FS MARTIN""",41.803891,-71.373629,2397010,08:40:00,08:40:00,16,0,32,http://www.ripta.com/32,Weekday
13225,"""S BROADWAY FS RIDGE""",41.804984,-71.373294,2397010,08:40:00,08:40:00,17,0,32,http://www.ripta.com/32,Weekday
13435,"""S BROADWAY OPP 1253 S BROADWAY""",41.807274,-71.372493,2397010,08:40:00,08:40:00,18,0,32,http://www.ripta.com/32,Weekday
13645,"""S BROADWAY OPP 1149 S BROADWAY""",41.808281,-71.372168,2397010,08:41:00,08:41:00,19,0,32,http://www.ripta.com/32,Weekday
70855,"""S BROADWAY NS BELMONT""",41.809701,-71.371738,2397010,08:41:00,08:41:00,20,0,32,http://www.ripta.com/32,Weekday
70860,"""S BROADWAY NS WINSOR""",41.812959,-71.370659,2397010,08:42:00,08:42:00,21,0,32,http://www.ripta.com/32,Weekday
14420,"""WARREN NS S SHARON""",41.814364,-71.372559,2397010,08:42:00,08:42:00,22,0,32,http://www.ripta.com/32,Weekday
14465,"""WARREN  NS CARPENTER""",41.814951,-71.374393,2397010,08:42:00,08:42:00,23,0,32,http://www.ripta.com/32,Weekday
14525,"""WARREN AT 184 WARREN""",41.815713,-71.376568,2397010,08:43:00,08:43:00,24,0,32,http://www.ripta.com/32,Weekday
14630,"""WARREN OPP SEVENTH""",41.816458,-71.378666,2397010,08:44:00,08:44:00,25,0,32,http://www.ripta.com/32,Weekday
15150,"""TAUNTON FS POTTER""",41.819685,-71.379222,2397010,08:45:00,08:45:00,26,0,32,http://www.ripta.com/32,Weekday
72535,"""JAMES FS TAUNTON""",41.819968,-71.375085,2397010,08:45:00,08:45:00,27,0,32,http://www.ripta.com/32,Weekday
15975,"""WATERMAN FS JAMES""",41.823275,-71.373396,2397010,08:46:00,08:46:00,28,0,32,http://www.ripta.com/32,Weekday
16395,"""WATERMAN OPP SUMMIT""",41.825202,-71.376823,2397010,08:47:00,08:47:00,29,0,32,http://www.ripta.com/32,Weekday
16870,"""MASSASOIT FS SUTTON""",41.827277,-71.375701,2397010,08:47:00,08:47:00,30,0,32,http://www.ripta.com/32,Weekday
17125,"""MASSASOIT NS HENDERSON BRIDGE [ON-RAMP]""",41.828758,-71.371558,2397010,08:48:00,08:48:00,31,0,32,http://www.ripta.com/32,Weekday
17185,"""S ANGELL AT 120 S ANGELL""",41.829247,-71.383528,2397010,08:49:00,08:49:00,32,0,32,http://www.ripta.com/32,Weekday
17215,"""S ANGELL FS BUTLER""",41.829588,-71.385298,2397010,08:49:00,08:49:00,33,0,32,http://www.ripta.com/32,Weekday
59165,"""S ANGELL NS WAYLAND""",41.829994,-71.387362,2397010,08:50:00,08:50:00,34,0,32,http://www.ripta.com/32,Weekday
17285,"""ANGELL FS WAYLAND""",41.830134,-71.388391,2397010,08:50:00,08:50:00,35,0,32,http://www.ripta.com/32,Weekday
17290,"""ANGELL FS ELMGROVE""",41.829826,-71.389833,2397010,08:50:00,08:50:00,36,0,32,http://www.ripta.com/32,Weekday
17100,"""ANGELL NS HOPE""",41.828462,-71.397302,2397010,08:53:00,08:53:00,37,0,32,http://www.ripta.com/32,Weekday
17085,"""ANGELL AT PRESCOTT LIBRARY""",41.828357,-71.398382,2397010,08:53:00,08:53:00,38,0,32,http://www.ripta.com/32,Weekday
17045,"""TUNNEL FS THAYER""",41.827682,-71.400886,2397010,08:54:00,08:54:00,39,0,32,http://www.ripta.com/32,Weekday
16890,"""TUNNEL NS S MAIN""",41.826842,-71.408585,2397010,08:56:00,08:56:00,40,0,32,http://www.ripta.com/32,Weekday
16525,"""KENNEDY PLAZA (STOP H)""",41.825212,-71.41155,2397010,08:59:00,08:59:00,41,0,32,http://www.ripta.com/32,Weekday
16525,"""KENNEDY PLAZA (STOP H)""",41.825212,-71.41155,2397018,08:00:00,08:00:00,1,1,32,http://www.ripta.com/32,Weekday
16855,"""TUNNEL FS S MAIN""",41.82678,-71.408541,2397018,08:02:00,08:02:00,2,1,32,http://www.ripta.com/32,Weekday
16905,"""TUNNEL NS THAYER""",41.827607,-71.400864,2397018,08:05:00,08:05:00,3,1,32,http://www.ripta.com/32,Weekday
16970,"""WATERMAN NS HOPE""",41.827592,-71.397452,2397018,08:06:00,08:06:00,4,1,32,http://www.ripta.com/32,Weekday
17000,"""WATERMAN FS GOVERNOR""",41.827639,-71.393764,2397018,08:07:00,08:07:00,5,1,32,http://www.ripta.com/32,Weekday
17055,"""WATERMAN FS GANO""",41.82823,-71.390443,2397018,08:08:00,08:08:00,6,1,32,http://www.ripta.com/32,Weekday
17105,"""WATERMAN FS WAYLAND""",41.828519,-71.388171,2397018,08:09:00,08:09:00,7,1,32,http://www.ripta.com/32,Weekday
17050,"""WATERMAN FS BUTLER""",41.827997,-71.385365,2397018,08:10:00,08:10:00,8,1,32,http://www.ripta.com/32,Weekday
17095,"""WATERMAN NS HENDERSON BRIDGE [ON-RAMP]""",41.827568,-71.383009,2397018,08:10:00,08:10:00,9,1,32,http://www.ripta.com/32,Weekday
16885,"""MASSASOIT OPP SUTTON""",41.82719,-71.376149,2397018,08:12:00,08:12:00,10,1,32,http://www.ripta.com/32,Weekday
16480,"""WATERMAN NS SUMMIT""",41.825279,-71.377191,2397018,08:13:00,08:13:00,11,1,32,http://www.ripta.com/32,Weekday
15955,"""WATERMAN NS JAMES""",41.8232,-71.373506,2397018,08:14:00,08:14:00,12,1,32,http://www.ripta.com/32,Weekday
15245,"""TAUNTON NS IVY""",41.819758,-71.37607,2397018,08:15:00,08:15:00,13,1,32,http://www.ripta.com/32,Weekday
15215,"""TAUNTON AVE / GROVE AVE""",41.819787,-71.377591,2397018,08:15:00,08:15:00,14,1,32,http://www.ripta.com/32,Weekday
14560,"""WARREN OPP S PHILLIPS""",41.816149,-71.378111,2397018,08:17:00,08:17:00,15,1,32,http://www.ripta.com/32,Weekday
14515,"""WARREN NS TENTH""",41.815628,-71.376591,2397018,08:17:00,08:17:00,16,1,32,http://www.ripta.com/32,Weekday
71050,"""WARREN FS LYON""",41.81524,-71.375479,2397018,08:17:00,08:17:00,17,1,32,http://www.ripta.com/32,Weekday
14460,"""WARREN NS BERKELEY""",41.814765,-71.374109,2397018,08:18:00,08:18:00,18,1,32,http://www.ripta.com/32,Weekday
14415,"""WARREN NS FRASER""",41.814053,-71.371889,2397018,08:18:00,08:18:00,19,1,32,http://www.ripta.com/32,Weekday
70810,"""S BROADWAY FS WINSOR""",41.813161,-71.370703,2397018,08:18:00,08:18:00,20,1,32,http://www.ripta.com/32,Weekday
13620,"""S BROADWAY FS FORT""",41.80855,-71.372187,2397018,08:19:00,08:19:00,21,1,32,http://www.ripta.com/32,Weekday
13460,"""S BROADWAY FS SETH""",41.807195,-71.372641,2397018,08:19:00,08:19:00,22,1,32,http://www.ripta.com/32,Weekday
13235,"""S BROADWAY OPP LEE""",41.805508,-71.37324,2397018,08:20:00,08:20:00,23,1,32,http://www.ripta.com/32,Weekday
12960,"""S BROADWAY OPP MARTIN""",41.802889,-71.3741,2397018,08:20:00,08:20:00,24,1,32,http://www.ripta.com/32,Weekday
70815,"""MARTIN OPP ANGELL""",41.801464,-71.367331,2397018,08:21:00,08:21:00,25,1,32,http://www.ripta.com/32,Weekday
12630,"""PAWTUCKET NS VINCENT""",41.799153,-71.363072,2397018,08:22:00,08:22:00,26,1,32,http://www.ripta.com/32,Weekday
70820,"""WAMPANOAG NS BUCK THORNE""",41.797289,-71.359453,2397018,08:23:00,08:23:00,27,1,32,http://www.ripta.com/32,Weekday
70825,"""WAMPANOAG FS GARDEN DR""",41.795855,-71.353412,2397018,08:24:00,08:24:00,28,1,32,http://www.ripta.com/32,Weekday
12115,"""TRIPPS LN FS WAMPANOAG TRAIL""",41.795579,-71.353166,2397018,08:24:00,08:24:00,29,1,32,http://www.ripta.com/32,Weekday
12015,"""TRIPPS LN OPP CITIZENS BANK""",41.794662,-71.353405,2397018,08:25:00,08:25:00,30,1,32,http://www.ripta.com/32,Weekday
11825,"""TRIPPS LN NS ORCHARD VIEW MANOR""",41.79134,-71.354289,2397018,08:25:00,08:25:00,31,1,32,http://www.ripta.com/32,Weekday
11700,"""CITIZENS OPERATIONS CTR - E PROVIDENCE""",41.790121,-71.356338,2397018,08:26:00,08:26:00,32,1,32,http://www.ripta.com/32,Weekday
11815,"""CITIZENS WAY NS TRIPPS LN""",41.791094,-71.354429,2397018,08:27:00,08:27:00,33,1,32,http://www.ripta.com/32,Weekday
11875,"""TRIPPS LN OPP MADELINE""",41.792115,-71.353956,2397018,08:27:00,08:27:00,34,1,32,http://www.ripta.com/32,Weekday
11970,"""TRIPPS LN AT 15 TRIPPS LANE""",41.794193,-71.353347,2397018,08:28:00,08:28:00,35,1,32,http://www.ripta.com/32,Weekday
12110,"""TRIPPS LN NS WAMPANOAG TRAIL""",41.795715,-71.352944,2397018,08:28:00,08:28:00,36,1,32,http://www.ripta.com/32,Weekday
72550,"""WAMPANOAG FS TRIPPS""",41.795641,-71.352418,2397018,08:28:00,08:28:00,37,1,32,http://www.ripta.com/32,Weekday
11715,"""WAMPANOAG OPP GATES OF HEAVEN""",41.791481,-71.344402,2397018,08:29:00,08:29:00,38,1,32,http://www.ripta.com/32,Weekday
11340,"""WAMPANOAG OPP 600 WAMPANOAG""",41.790814,-71.336598,2397018,08:30:00,08:30:00,39,1,32,http://www.ripta.com/32,Weekday
72555,"""RIVER FS MINK""",41.788883,-71.331974,2397018,08:31:00,08:31:00,40,1,32,http://www.ripta.com/32,Weekday
72530,"""SEEKONK SQUARE (COMMERCE WAY - SEEKONK)""",41.795428,-71.322655,2397018,08:34:00,08:34:00,41,1,32,http://www.ripta.com/32,Weekday
72530,"""SEEKONK SQUARE (COMMERCE WAY - SEEKONK)""",41.795428,-71.322655,2397033,07:22:00,07:22:00,1,0,32,http://www.ripta.com/32,Weekday
72540,"""WAMPANOAG FS AMARAL""",41.794488,-71.349167,2397033,07:26:00,07:26:00,2,0,32,http://www.ripta.com/32,Weekday
12115,"""TRIPPS LN FS WAMPANOAG TRAIL""",41.795579,-71.353166,2397033,07:28:00,07:28:00,3,0,32,http://www.ripta.com/32,Weekday
12015,"""TRIPPS LN OPP CITIZENS BANK""",41.794662,-71.353405,2397033,07:29:00,07:29:00,4,0,32,http://www.ripta.com/32,Weekday
11825,"""TRIPPS LN NS ORCHARD VIEW MANOR""",41.79134,-71.354289,2397033,07:30:00,07:30:00,5,0,32,http://www.ripta.com/32,Weekday
11700,"""CITIZENS OPERATIONS CTR - E PROVIDENCE""",41.790121,-71.356338,2397033,07:32:00,07:32:00,6,0,32,http://www.ripta.com/32,Weekday
11815,"""CITIZENS WAY NS TRIPPS LN""",41.791094,-71.354429,2397033,07:34:00,07:34:00,7,0,32,http://www.ripta.com/32,Weekday
11875,"""TRIPPS LN OPP MADELINE""",41.792115,-71.353956,2397033,07:34:00,07:34:00,8,0,32,http://www.ripta.com/32,Weekday
11970,"""TRIPPS LN AT 15 TRIPPS LANE""",41.794193,-71.353347,2397033,07:34:00,07:34:00,9,0,32,http://www.ripta.com/32,Weekday
12110,"""TRIPPS LN NS WAMPANOAG TRAIL""",41.795715,-71.352944,2397033,07:35:00,07:35:00,10,0,32,http://www.ripta.com/32,Weekday
70830,"""WAMPANOAG OPP GARDEN DR""",41.796644,-71.357025,2397033,07:36:00,07:36:00,11,0,32,http://www.ripta.com/32,Weekday
70835,"""WAMPANOAG OPP BUCK THORNE""",41.797319,-71.359184,2397033,07:36:00,07:36:00,12,0,32,http://www.ripta.com/32,Weekday
12605,"""PAWTUCKET OPP VINCENT""",41.799178,-71.362926,2397033,07:37:00,07:37:00,13,0,32,http://www.ripta.com/32,Weekday
70840,"""MARTIN FS PAWTUCKET""",41.801433,-71.366587,2397033,07:38:00,07:38:00,14,0,32,http://www.ripta.com/32,Weekday
70845,"""MARTIN OPP DODGE""",41.801833,-71.368737,2397033,07:38:00,07:38:00,15,0,32,http://www.ripta.com/32,Weekday
70850,"""S BROADWAY FS MARTIN""",41.803891,-71.373629,2397033,07:40:00,07:40:00,16,0,32,http://www.ripta.com/32,Weekday
13225,"""S BROADWAY FS RIDGE""",41.804984,-71.373294,2397033,07:40:00,07:40:00,17,0,32,http://www.ripta.com/32,Weekday
13435,"""S BROADWAY OPP 1253 S BROADWAY""",41.807274,-71.372493,2397033,07:40:00,07:40:00,18,0,32,http://www.ripta.com/32,Weekday
13645,"""S BROADWAY OPP 1149 S BROADWAY""",41.808281,-71.372168,2397033,07:41:00,07:41:00,19,0,32,http://www.ripta.com/32,Weekday
70855,"""S BROADWAY NS BELMONT""",41.809701,-71.371738,2397033,07:41:00,07:41:00,20,0,32,http://www.ripta.com/32,Weekday
70860,"""S BROADWAY NS WINSOR""",41.812959,-71.370659,2397033,07:42:00,07:42:00,21,0,32,http://www.ripta.com/32,Weekday
14420,"""WARREN NS S SHARON""",41.814364,-71.372559,2397033,07:42:00,07:42:00,22,0,32,http://www.ripta.com/32,Weekday
14465,"""WARREN  NS CARPENTER""",41.814951,-71.374393,2397033,07:42:00,07:42:00,23,0,32,http://www.ripta.com/32,Weekday
14525,"""WARREN AT 184 WARREN""",41.815713,-71.376568,2397033,07:43:00,07:43:00,24,0,32,http://www.ripta.com/32,Weekday
14630,"""WARREN OPP SEVENTH""",41.816458,-71.378666,2397033,07:44:00,07:44:00,25,0,32,http://www.ripta.com/32,Weekday
15150,"""TAUNTON FS POTTER""",41.819685,-71.379222,2397033,07:45:00,07:45:00,26,0,32,http://www.ripta.com/32,Weekday
72535,"""JAMES FS TAUNTON""",41.819968,-71.375085,2397033,07:45:00,07:45:00,27,0,32,http://www.ripta.com/32,Weekday
15975,"""WATERMAN FS JAMES""",41.823275,-71.373396,2397033,07:46:00,07:46:00,28,0,32,http://www.ripta.com/32,Weekday
16395,"""WATERMAN OPP SUMMIT""",41.825202,-71.376823,2397033,07:47:00,07:47:00,29,0,32,http://www.ripta.com/32,Weekday
16870,"""MASSASOIT FS SUTTON""",41.827277,-71.375701,2397033,07:47:00,07:47:00,30,0,32,http://www.ripta.com/32,Weekday
17125,"""MASSASOIT NS HENDERSON BRIDGE [ON-RAMP]""",41.828758,-71.371558,2397033,07:48:00,07:48:00,31,0,32,http://www.ripta.com/32,Weekday
17185,"""S ANGELL AT 120 S ANGELL""",41.829247,-71.383528,2397033,07:49:00,07:49:00,32,0,32,http://www.ripta.com/32,Weekday
17215,"""S ANGELL FS BUTLER""",41.829588,-71.385298,2397033,07:49:00,07:49:00,33,0,32,http://www.ripta.com/32,Weekday
59165,"""S ANGELL NS WAYLAND""",41.829994,-71.387362,2397033,07:50:00,07:50:00,34,0,32,http://www.ripta.com/32,Weekday
17285,"""ANGELL FS WAYLAND""",41.830134,-71.388391,2397033,07:50:00,07:50:00,35,0,32,http://www.ripta.com/32,Weekday
17290,"""ANGELL FS ELMGROVE""",41.829826,-71.389833,2397033,07:50:00,07:50:00,36,0,32,http://www.ripta.com/32,Weekday
17100,"""ANGELL NS HOPE""",41.828462,-71.397302,2397033,07:53:00,07:53:00,37,0,32,http://www.ripta.com/32,Weekday
17085,"""ANGELL AT PRESCOTT LIBRARY""",41.828357,-71.398382,2397033,07:53:00,07:53:00,38,0,32,http://www.ripta.com/32,Weekday
17045,"""TUNNEL FS THAYER""",41.827682,-71.400886,2397033,07:54:00,07:54:00,39,0,32,http://www.ripta.com/32,Weekday
16890,"""TUNNEL NS S MAIN""",41.826842,-71.408585,2397033,07:56:00,07:56:00,40,0,32,http://www.ripta.com/32,Weekday
16525,"""KENNEDY PLAZA (STOP H)""",41.825212,-71.41155,2397033,07:59:00,07:59:00,41,0,32,http://www.ripta.com/32,Weekday
16525,"""KENNEDY PLAZA (STOP H)""",41.825212,-71.41155,2397039,07:00:00,07:00:00,1,1,32,http://www.ripta.com/32,Weekday
16855,"""TUNNEL FS S MAIN""",41.82678,-71.408541,2397039,07:02:00,07:02:00,2,1,32,http://www.ripta.com/32,Weekday
16905,"""TUNNEL NS THAYER""",41.827607,-71.400864,2397039,07:05:00,07:05:00,3,1,32,http://www.ripta.com/32,Weekday
16970,"""WATERMAN NS HOPE""",41.827592,-71.397452,2397039,07:06:00,07:06:00,4,1,32,http://www.ripta.com/32,Weekday
17000,"""WATERMAN FS GOVERNOR""",41.827639,-71.393764,2397039,07:07:00,07:07:00,5,1,32,http://www.ripta.com/32,Weekday
17055,"""WATERMAN FS GANO""",41.82823,-71.390443,2397039,07:08:00,07:08:00,6,1,32,http://www.ripta.com/32,Weekday
17105,"""WATERMAN FS WAYLAND""",41.828519,-71.388171,2397039,07:09:00,07:09:00,7,1,32,http://www.ripta.com/32,Weekday
17050,"""WATERMAN FS BUTLER""",41.827997,-71.385365,2397039,07:10:00,07:10:00,8,1,32,http://www.ripta.com/32,Weekday
17095,"""WATERMAN NS HENDERSON BRIDGE [ON-RAMP]""",41.827568,-71.383009,2397039,07:10:00,07:10:00,9,1,32,http://www.ripta.com/32,Weekday
16885,"""MASSASOIT OPP SUTTON""",41.82719,-71.376149,2397039,07:12:00,07:12:00,10,1,32,http://www.ripta.com/32,Weekday
16480,"""WATERMAN NS SUMMIT""",41.825279,-71.377191,2397039,07:13:00,07:13:00,11,1,32,http://www.ripta.com/32,Weekday
15955,"""WATERMAN NS JAMES""",41.8232,-71.373506,2397039,07:14:00,07:14:00,12,1,32,http://www.ripta.com/32,Weekday
15245,"""TAUNTON NS IVY""",41.819758,-71.37607,2397039,07:15:00,07:15:00,13,1,32,http://www.ripta.com/32,Weekday
15215,"""TAUNTON AVE / GROVE AVE""",41.819787,-71.377591,2397039,07:15:00,07:15:00,14,1,32,http://www.ripta.com/32,Weekday
14560,"""WARREN OPP S PHILLIPS""",41.816149,-71.378111,2397039,07:17:00,07:17:00,15,1,32,http://www.ripta.com/32,Weekday
14515,"""WARREN NS TENTH""",41.815628,-71.376591,2397039,07:17:00,07:17:00,16,1,32,http://www.ripta.com/32,Weekday
71050,"""WARREN FS LYON""",41.81524,-71.375479,2397039,07:17:00,07:17:00,17,1,32,http://www.ripta.com/32,Weekday
14460,"""WARREN NS BERKELEY""",41.814765,-71.374109,2397039,07:18:00,07:18:00,18,1,32,http://www.ripta.com/32,Weekday
14415,"""WARREN NS FRASER""",41.814053,-71.371889,2397039,07:18:00,07:18:00,19,1,32,http://www.ripta.com/32,Weekday
70810,"""S BROADWAY FS WINSOR""",41.813161,-71.370703,2397039,07:18:00,07:18:00,20,1,32,http://www.ripta.com/32,Weekday
13620,"""S BROADWAY FS FORT""",41.80855,-71.372187,2397039,07:19:00,07:19:00,21,1,32,http://www.ripta.com/32,Weekday
13460,"""S BROADWAY FS SETH""",41.807195,-71.372641,2397039,07:19:00,07:19:00,22,1,32,http://www.ripta.com/32,Weekday
13235,"""S BROADWAY OPP LEE""",41.805508,-71.37324,2397039,07:20:00,07:20:00,23,1,32,http://www.ripta.com/32,Weekday
12960,"""S BROADWAY OPP MARTIN""",41.802889,-71.3741,2397039,07:20:00,07:20:00,24,1,32,http://www.ripta.com/32,Weekday
70815,"""MARTIN OPP ANGELL""",41.801464,-71.367331,2397039,07:21:00,07:21:00,25,1,32,http://www.ripta.com/32,Weekday
12630,"""PAWTUCKET NS VINCENT""",41.799153,-71.363072,2397039,07:22:00,07:22:00,26,1,32,http://www.ripta.com/32,Weekday
70820,"""WAMPANOAG NS BUCK THORNE""",41.797289,-71.359453,2397039,07:23:00,07:23:00,27,1,32,http://www.ripta.com/32,Weekday
70825,"""WAMPANOAG FS GARDEN DR""",41.795855,-71.353412,2397039,07:24:00,07:24:00,28,1,32,http://www.ripta.com/32,Weekday
12115,"""TRIPPS LN FS WAMPANOAG TRAIL""",41.795579,-71.353166,2397039,07:24:00,07:24:00,29,1,32,http://www.ripta.com/32,Weekday
12015,"""TRIPPS LN OPP CITIZENS BANK""",41.794662,-71.353405,2397039,07:25:00,07:25:00,30,1,32,http://www.ripta.com/32,Weekday
11825,"""TRIPPS LN NS ORCHARD VIEW MANOR""",41.79134,-71.354289,2397039,07:25:00,07:25:00,31,1,32,http://www.ripta.com/32,Weekday
11700,"""CITIZENS OPERATIONS CTR - E PROVIDENCE""",41.790121,-71.356338,2397039,07:26:00,07:26:00,32,1,32,http://www.ripta.com/32,Weekday
11815,"""CITIZENS WAY NS TRIPPS LN""",41.791094,-71.354429,2397039,07:27:00,07:27:00,33,1,32,http://www.ripta.com/32,Weekday
11875,"""TRIPPS LN OPP MADELINE""",41.792115,-71.353956,2397039,07:27:00,07:27:00,34,1,32,http://www.ripta.com/32,Weekday
11970,"""TRIPPS LN AT 15 TRIPPS LANE""",41.794193,-71.353347,2397039,07:28:00,07:28:00,35,1,32,http://www.ripta.com/32,Weekday
12110,"""TRIPPS LN NS WAMPANOAG TRAIL""",41.795715,-71.352944,2397039,07:28:00,07:28:00,36,1,32,http://www.ripta.com/32,Weekday
72550,"""WAMPANOAG FS TRIPPS""",41.795641,-71.352418,2397039,07:28:00,07:28:00,37,1,32,http://www.ripta.com/32,Weekday
11715,"""WAMPANOAG OPP GATES OF HEAVEN""",41.791481,-71.344402,2397039,07:29:00,07:29:00,38,1,32,http://www.ripta.com/32,Weekday
11340,"""WAMPANOAG OPP 600 WAMPANOAG""",41.790814,-71.336598,2397039,07:30:00,07:30:00,39,1,32,http://www.ripta.com/32,Weekday
72555,"""RIVER FS MINK""",41.788883,-71.331974,2397039,07:31:00,07:31:00,40,1,32,http://www.ripta.com/32,Weekday
72530,"""SEEKONK SQUARE (COMMERCE WAY - SEEKONK)""",41.795428,-71.322655,2397039,07:34:00,07:34:00,41,1,32,http://www.ripta.com/32,Weekday
72530,"""SEEKONK SQUARE (COMMERCE WAY - SEEKONK)""",41.795428,-71.322655,2397048,06:25:00,06:25:00,1,0,32,http://www.ripta.com/32,Weekday
72540,"""WAMPANOAG FS AMARAL""",41.794488,-71.349167,2397048,06:29:00,06:29:00,2,0,32,http://www.ripta.com/32,Weekday
12115,"""TRIPPS LN FS WAMPANOAG TRAIL""",41.795579,-71.353166,2397048,06:31:00,06:31:00,3,0,32,http://www.ripta.com/32,Weekday
12015,"""TRIPPS LN OPP CITIZENS BANK""",41.794662,-71.353405,2397048,06:32:00,06:32:00,4,0,32,http://www.ripta.com/32,Weekday
11825,"""TRIPPS LN NS ORCHARD VIEW MANOR""",41.79134,-71.354289,2397048,06:33:00,06:33:00,5,0,32,http://www.ripta.com/32,Weekday
11700,"""CITIZENS OPERATIONS CTR - E PROVIDENCE""",41.790121,-71.356338,2397048,06:35:00,06:35:00,6,0,32,http://www.ripta.com/32,Weekday
11815,"""CITIZENS WAY NS TRIPPS LN""",41.791094,-71.354429,2397048,06:36:00,06:36:00,7,0,32,http://www.ripta.com/32,Weekday
11875,"""TRIPPS LN OPP MADELINE""",41.792115,-71.353956,2397048,06:37:00,06:37:00,8,0,32,http://www.ripta.com/32,Weekday
11970,"""TRIPPS LN AT 15 TRIPPS LANE""",41.794193,-71.353347,2397048,06:37:00,06:37:00,9,0,32,http://www.ripta.com/32,Weekday
12110,"""TRIPPS LN NS WAMPANOAG TRAIL""",41.795715,-71.352944,2397048,06:37:00,06:37:00,10,0,32,http://www.ripta.com/32,Weekday
70830,"""WAMPANOAG OPP GARDEN DR""",41.796644,-71.357025,2397048,06:38:00,06:38:00,11,0,32,http://www.ripta.com/32,Weekday
70835,"""WAMPANOAG OPP BUCK THORNE""",41.797319,-71.359184,2397048,06:38:00,06:38:00,12,0,32,http://www.ripta.com/32,Weekday
12605,"""PAWTUCKET OPP VINCENT""",41.799178,-71.362926,2397048,06:39:00,06:39:00,13,0,32,http://www.ripta.com/32,Weekday
70840,"""MARTIN FS PAWTUCKET""",41.801433,-71.366587,2397048,06:40:00,06:40:00,14,0,32,http://www.ripta.com/32,Weekday
70845,"""MARTIN OPP DODGE""",41.801833,-71.368737,2397048,06:41:00,06:41:00,15,0,32,http://www.ripta.com/32,Weekday
70850,"""S BROADWAY FS MARTIN""",41.803891,-71.373629,2397048,06:42:00,06:42:00,16,0,32,http://www.ripta.com/32,Weekday
13225,"""S BROADWAY FS RIDGE""",41.804984,-71.373294,2397048,06:42:00,06:42:00,17,0,32,http://www.ripta.com/32,Weekday
13435,"""S BROADWAY OPP 1253 S BROADWAY""",41.807274,-71.372493,2397048,06:42:00,06:42:00,18,0,32,http://www.ripta.com/32,Weekday
13645,"""S BROADWAY OPP 1149 S BROADWAY""",41.808281,-71.372168,2397048,06:43:00,06:43:00,19,0,32,http://www.ripta.com/32,Weekday
70855,"""S BROADWAY NS BELMONT""",41.809701,-71.371738,2397048,06:43:00,06:43:00,20,0,32,http://www.ripta.com/32,Weekday
70860,"""S BROADWAY NS WINSOR""",41.812959,-71.370659,2397048,06:44:00,06:44:00,21,0,32,http://www.ripta.com/32,Weekday
14420,"""WARREN NS S SHARON""",41.814364,-71.372559,2397048,06:44:00,06:44:00,22,0,32,http://www.ripta.com/32,Weekday
14465,"""WARREN  NS CARPENTER""",41.814951,-71.374393,2397048,06:44:00,06:44:00,23,0,32,http://www.ripta.com/32,Weekday
14525,"""WARREN AT 184 WARREN""",41.815713,-71.376568,2397048,06:45:00,06:45:00,24,0,32,http://www.ripta.com/32,Weekday
14630,"""WARREN OPP SEVENTH""",41.816458,-71.378666,2397048,06:46:00,06:46:00,25,0,32,http://www.ripta.com/32,Weekday
15150,"""TAUNTON FS POTTER""",41.819685,-71.379222,2397048,06:47:00,06:47:00,26,0,32,http://www.ripta.com/32,Weekday
72535,"""JAMES FS TAUNTON""",41.819968,-71.375085,2397048,06:47:00,06:47:00,27,0,32,http://www.ripta.com/32,Weekday
15975,"""WATERMAN FS JAMES""",41.823275,-71.373396,2397048,06:48:00,06:48:00,28,0,32,http://www.ripta.com/32,Weekday
16395,"""WATERMAN OPP SUMMIT""",41.825202,-71.376823,2397048,06:49:00,06:49:00,29,0,32,http://www.ripta.com/32,Weekday
16870,"""MASSASOIT FS SUTTON""",41.827277,-71.375701,2397048,06:49:00,06:49:00,30,0,32,http://www.ripta.com/32,Weekday
17125,"""MASSASOIT NS HENDERSON BRIDGE [ON-RAMP]""",41.828758,-71.371558,2397048,06:50:00,06:50:00,31,0,32,http://www.ripta.com/32,Weekday
17185,"""S ANGELL AT 120 S ANGELL""",41.829247,-71.383528,2397048,06:51:00,06:51:00,32,0,32,http://www.ripta.com/32,Weekday
17215,"""S ANGELL FS BUTLER""",41.829588,-71.385298,2397048,06:51:00,06:51:00,33,0,32,http://www.ripta.com/32,Weekday
59165,"""S ANGELL NS WAYLAND""",41.829994,-71.387362,2397048,06:52:00,06:52:00,34,0,32,http://www.ripta.com/32,Weekday
17285,"""ANGELL FS WAYLAND""",41.830134,-71.388391,2397048,06:52:00,06:52:00,35,0,32,http://www.ripta.com/32,Weekday
17290,"""ANGELL FS ELMGROVE""",41.829826,-71.389833,2397048,06:52:00,06:52:00,36,0,32,http://www.ripta.com/32,Weekday
17100,"""ANGELL NS HOPE""",41.828462,-71.397302,2397048,06:54:00,06:54:00,37,0,32,http://www.ripta.com/32,Weekday
17085,"""ANGELL AT PRESCOTT LIBRARY""",41.828357,-71.398382,2397048,06:54:00,06:54:00,38,0,32,http://www.ripta.com/32,Weekday
17045,"""TUNNEL FS THAYER""",41.827682,-71.400886,2397048,06:55:00,06:55:00,39,0,32,http://www.ripta.com/32,Weekday
16890,"""TUNNEL NS S MAIN""",41.826842,-71.408585,2397048,06:57:00,06:57:00,40,0,32,http://www.ripta.com/32,Weekday
16525,"""KENNEDY PLAZA (STOP H)""",41.825212,-71.41155,2397048,06:59:00,06:59:00,41,0,32,http://www.ripta.com/32,Weekday
16525,"""KENNEDY PLAZA (STOP H)""",41.825212,-71.41155,2397052,06:00:00,06:00:00,1,1,32,http://www.ripta.com/32,Weekday
16855,"""TUNNEL FS S MAIN""",41.82678,-71.408541,2397052,06:01:00,06:01:00,2,1,32,http://www.ripta.com/32,Weekday
16905,"""TUNNEL NS THAYER""",41.827607,-71.400864,2397052,06:04:00,06:04:00,3,1,32,http://www.ripta.com/32,Weekday
16970,"""WATERMAN NS HOPE""",41.827592,-71.397452,2397052,06:05:00,06:05:00,4,1,32,http://www.ripta.com/32,Weekday
17000,"""WATERMAN FS GOVERNOR""",41.827639,-71.393764,2397052,06:06:00,06:06:00,5,1,32,http://www.ripta.com/32,Weekday
17055,"""WATERMAN FS GANO""",41.82823,-71.390443,2397052,06:07:00,06:07:00,6,1,32,http://www.ripta.com/32,Weekday
17105,"""WATERMAN FS WAYLAND""",41.828519,-71.388171,2397052,06:07:00,06:07:00,7,1,32,http://www.ripta.com/32,Weekday
17050,"""WATERMAN FS BUTLER""",41.827997,-71.385365,2397052,06:08:00,06:08:00,8,1,32,http://www.ripta.com/32,Weekday
17095,"""WATERMAN NS HENDERSON BRIDGE [ON-RAMP]""",41.827568,-71.383009,2397052,06:08:00,06:08:00,9,1,32,http://www.ripta.com/32,Weekday
16885,"""MASSASOIT OPP SUTTON""",41.82719,-71.376149,2397052,06:10:00,06:10:00,10,1,32,http://www.ripta.com/32,Weekday
16480,"""WATERMAN NS SUMMIT""",41.825279,-71.377191,2397052,06:11:00,06:11:00,11,1,32,http://www.ripta.com/32,Weekday
15955,"""WATERMAN NS JAMES""",41.8232,-71.373506,2397052,06:12:00,06:12:00,12,1,32,http://www.ripta.com/32,Weekday
15245,"""TAUNTON NS IVY""",41.819758,-71.37607,2397052,06:13:00,06:13:00,13,1,32,http://www.ripta.com/32,Weekday
15215,"""TAUNTON AVE / GROVE AVE""",41.819787,-71.377591,2397052,06:13:00,06:13:00,14,1,32,http://www.ripta.com/32,Weekday
14560,"""WARREN OPP S PHILLIPS""",41.816149,-71.378111,2397052,06:15:00,06:15:00,15,1,32,http://www.ripta.com/32,Weekday
14515,"""WARREN NS TENTH""",41.815628,-71.376591,2397052,06:15:00,06:15:00,16,1,32,http://www.ripta.com/32,Weekday
71050,"""WARREN FS LYON""",41.81524,-71.375479,2397052,06:15:00,06:15:00,17,1,32,http://www.ripta.com/32,Weekday
14460,"""WARREN NS BERKELEY""",41.814765,-71.374109,2397052,06:16:00,06:16:00,18,1,32,http://www.ripta.com/32,Weekday
14415,"""WARREN NS FRASER""",41.814053,-71.371889,2397052,06:16:00,06:16:00,19,1,32,http://www.ripta.com/32,Weekday
70810,"""S BROADWAY FS WINSOR""",41.813161,-71.370703,2397052,06:16:00,06:16:00,20,1,32,http://www.ripta.com/32,Weekday
13620,"""S BROADWAY FS FORT""",41.80855,-71.372187,2397052,06:17:00,06:17:00,21,1,32,http://www.ripta.com/32,Weekday
13460,"""S BROADWAY FS SETH""",41.807195,-71.372641,2397052,06:17:00,06:17:00,22,1,32,http://www.ripta.com/32,Weekday
13235,"""S BROADWAY OPP LEE""",41.805508,-71.37324,2397052,06:18:00,06:18:00,23,1,32,http://www.ripta.com/32,Weekday
12960,"""S BROADWAY OPP MARTIN""",41.802889,-71.3741,2397052,06:18:00,06:18:00,24,1,32,http://www.ripta.com/32,Weekday
70815,"""MARTIN OPP ANGELL""",41.801464,-71.367331,2397052,06:19:00,06:19:00,25,1,32,http://www.ripta.com/32,Weekday
12630,"""PAWTUCKET NS VINCENT""",41.799153,-71.363072,2397052,06:20:00,06:20:00,26,1,32,http://www.ripta.com/32,Weekday
70820,"""WAMPANOAG NS BUCK THORNE""",41.797289,-71.359453,2397052,06:21:00,06:21:00,27,1,32,http://www.ripta.com/32,Weekday
70825,"""WAMPANOAG FS GARDEN DR""",41.795855,-71.353412,2397052,06:22:00,06:22:00,28,1,32,http://www.ripta.com/32,Weekday
12115,"""TRIPPS LN FS WAMPANOAG TRAIL""",41.795579,-71.353166,2397052,06:22:00,06:22:00,29,1,32,http://www.ripta.com/32,Weekday
12015,"""TRIPPS LN OPP CITIZENS BANK""",41.794662,-71.353405,2397052,06:23:00,06:23:00,30,1,32,http://www.ripta.com/32,Weekday
11825,"""TRIPPS LN NS ORCHARD VIEW MANOR""",41.79134,-71.354289,2397052,06:23:00,06:23:00,31,1,32,http://www.ripta.com/32,Weekday
11700,"""CITIZENS OPERATIONS CTR - E PROVIDENCE""",41.790121,-71.356338,2397052,06:24:00,06:24:00,32,1,32,http://www.ripta.com/32,Weekday
11815,"""CITIZENS WAY NS TRIPPS LN""",41.791094,-71.354429,2397052,06:25:00,06:25:00,33,1,32,http://www.ripta.com/32,Weekday
11875,"""TRIPPS LN OPP MADELINE""",41.792115,-71.353956,2397052,06:25:00,06:25:00,34,1,32,http://www.ripta.com/32,Weekday
11970,"""TRIPPS LN AT 15 TRIPPS LANE""",41.794193,-71.353347,2397052,06:26:00,06:26:00,35,1,32,http://www.ripta.com/32,Weekday
12110,"""TRIPPS LN NS WAMPANOAG TRAIL""",41.795715,-71.352944,2397052,06:26:00,06:26:00,36,1,32,http://www.ripta.com/32,Weekday
72550,"""WAMPANOAG FS TRIPPS""",41.795641,-71.352418,2397052,06:26:00,06:26:00,37,1,32,http://www.ripta.com/32,Weekday
11715,"""WAMPANOAG OPP GATES OF HEAVEN""",41.791481,-71.344402,2397052,06:27:00,06:27:00,38,1,32,http://www.ripta.com/32,Weekday
11340,"""WAMPANOAG OPP 600 WAMPANOAG""",41.790814,-71.336598,2397052,06:28:00,06:28:00,39,1,32,http://www.ripta.com/32,Weekday
72555,"""RIVER FS MINK""",41.788883,-71.331974,2397052,06:29:00,06:29:00,40,1,32,http://www.ripta.com/32,Weekday
72530,"""SEEKONK SQUARE (COMMERCE WAY - SEEKONK)""",41.795428,-71.322655,2397052,06:32:00,06:32:00,41,1,32,http://www.ripta.com/32,Weekday
72530,"""SEEKONK SQUARE (COMMERCE WAY - SEEKONK)""",41.795428,-71.322655,2397066,05:25:00,05:25:00,1,0,32,http://www.ripta.com/32,Weekday
72540,"""WAMPANOAG FS AMARAL""",41.794488,-71.349167,2397066,05:29:00,05:29:00,2,0,32,http://www.ripta.com/32,Weekday
12115,"""TRIPPS LN FS WAMPANOAG TRAIL""",41.795579,-71.353166,2397066,05:31:00,05:31:00,3,0,32,http://www.ripta.com/32,Weekday
12015,"""TRIPPS LN OPP CITIZENS BANK""",41.794662,-71.353405,2397066,05:32:00,05:32:00,4,0,32,http://www.ripta.com/32,Weekday
11825,"""TRIPPS LN NS ORCHARD VIEW MANOR""",41.79134,-71.354289,2397066,05:33:00,05:33:00,5,0,32,http://www.ripta.com/32,Weekday
11700,"""CITIZENS OPERATIONS CTR - E PROVIDENCE""",41.790121,-71.356338,2397066,05:35:00,05:35:00,6,0,32,http://www.ripta.com/32,Weekday
11815,"""CITIZENS WAY NS TRIPPS LN""",41.791094,-71.354429,2397066,05:36:00,05:36:00,7,0,32,http://www.ripta.com/32,Weekday
11875,"""TRIPPS LN OPP MADELINE""",41.792115,-71.353956,2397066,05:37:00,05:37:00,8,0,32,http://www.ripta.com/32,Weekday
11970,"""TRIPPS LN AT 15 TRIPPS LANE""",41.794193,-71.353347,2397066,05:37:00,05:37:00,9,0,32,http://www.ripta.com/32,Weekday
12110,"""TRIPPS LN NS WAMPANOAG TRAIL""",41.795715,-71.352944,2397066,05:37:00,05:37:00,10,0,32,http://www.ripta.com/32,Weekday
70830,"""WAMPANOAG OPP GARDEN DR""",41.796644,-71.357025,2397066,05:38:00,05:38:00,11,0,32,http://www.ripta.com/32,Weekday
70835,"""WAMPANOAG OPP BUCK THORNE""",41.797319,-71.359184,2397066,05:38:00,05:38:00,12,0,32,http://www.ripta.com/32,Weekday
12605,"""PAWTUCKET OPP VINCENT""",41.799178,-71.362926,2397066,05:39:00,05:39:00,13,0,32,http://www.ripta.com/32,Weekday
70840,"""MARTIN FS PAWTUCKET""",41.801433,-71.366587,2397066,05:40:00,05:40:00,14,0,32,http://www.ripta.com/32,Weekday
70845,"""MARTIN OPP DODGE""",41.801833,-71.368737,2397066,05:41:00,05:41:00,15,0,32,http://www.ripta.com/32,Weekday
70850,"""S BROADWAY FS MARTIN""",41.803891,-71.373629,2397066,05:42:00,05:42:00,16,0,32,http://www.ripta.com/32,Weekday
13225,"""S BROADWAY FS RIDGE""",41.804984,-71.373294,2397066,05:42:00,05:42:00,17,0,32,http://www.ripta.com/32,Weekday
13435,"""S BROADWAY OPP 1253 S BROADWAY""",41.807274,-71.372493,2397066,05:42:00,05:42:00,18,0,32,http://www.ripta.com/32,Weekday
13645,"""S BROADWAY OPP 1149 S BROADWAY""",41.808281,-71.372168,2397066,05:43:00,05:43:00,19,0,32,http://www.ripta.com/32,Weekday
70855,"""S BROADWAY NS BELMONT""",41.809701,-71.371738,2397066,05:43:00,05:43:00,20,0,32,http://www.ripta.com/32,Weekday
70860,"""S BROADWAY NS WINSOR""",41.812959,-71.370659,2397066,05:44:00,05:44:00,21,0,32,http://www.ripta.com/32,Weekday
14420,"""WARREN NS S SHARON""",41.814364,-71.372559,2397066,05:44:00,05:44:00,22,0,32,http://www.ripta.com/32,Weekday
14465,"""WARREN  NS CARPENTER""",41.814951,-71.374393,2397066,05:44:00,05:44:00,23,0,32,http://www.ripta.com/32,Weekday
14525,"""WARREN AT 184 WARREN""",41.815713,-71.376568,2397066,05:45:00,05:45:00,24,0,32,http://www.ripta.com/32,Weekday
14630,"""WARREN OPP SEVENTH""",41.816458,-71.378666,2397066,05:46:00,05:46:00,25,0,32,http://www.ripta.com/32,Weekday
15150,"""TAUNTON FS POTTER""",41.819685,-71.379222,2397066,05:47:00,05:47:00,26,0,32,http://www.ripta.com/32,Weekday
72535,"""JAMES FS TAUNTON""",41.819968,-71.375085,2397066,05:47:00,05:47:00,27,0,32,http://www.ripta.com/32,Weekday
15975,"""WATERMAN FS JAMES""",41.823275,-71.373396,2397066,05:48:00,05:48:00,28,0,32,http://www.ripta.com/32,Weekday
16395,"""WATERMAN OPP SUMMIT""",41.825202,-71.376823,2397066,05:49:00,05:49:00,29,0,32,http://www.ripta.com/32,Weekday
16870,"""MASSASOIT FS SUTTON""",41.827277,-71.375701,2397066,05:49:00,05:49:00,30,0,32,http://www.ripta.com/32,Weekday
17125,"""MASSASOIT NS HENDERSON BRIDGE [ON-RAMP]""",41.828758,-71.371558,2397066,05:50:00,05:50:00,31,0,32,http://www.ripta.com/32,Weekday
17185,"""S ANGELL AT 120 S ANGELL""",41.829247,-71.383528,2397066,05:51:00,05:51:00,32,0,32,http://www.ripta.com/32,Weekday
17215,"""S ANGELL FS BUTLER""",41.829588,-71.385298,2397066,05:51:00,05:51:00,33,0,32,http://www.ripta.com/32,Weekday
59165,"""S ANGELL NS WAYLAND""",41.829994,-71.387362,2397066,05:52:00,05:52:00,34,0,32,http://www.ripta.com/32,Weekday
17285,"""ANGELL FS WAYLAND""",41.830134,-71.388391,2397066,05:52:00,05:52:00,35,0,32,http://www.ripta.com/32,Weekday
17290,"""ANGELL FS ELMGROVE""",41.829826,-71.389833,2397066,05:52:00,05:52:00,36,0,32,http://www.ripta.com/32,Weekday
17100,"""ANGELL NS HOPE""",41.828462,-71.397302,2397066,05:54:00,05:54:00,37,0,32,http://www.ripta.com/32,Weekday
17085,"""ANGELL AT PRESCOTT LIBRARY""",41.828357,-71.398382,2397066,05:54:00,05:54:00,38,0,32,http://www.ripta.com/32,Weekday
17045,"""TUNNEL FS THAYER""",41.827682,-71.400886,2397066,05:55:00,05:55:00,39,0,32,http://www.ripta.com/32,Weekday
16890,"""TUNNEL NS S MAIN""",41.826842,-71.408585,2397066,05:57:00,05:57:00,40,0,32,http://www.ripta.com/32,Weekday
16525,"""KENNEDY PLAZA (STOP H)""",41.825212,-71.41155,2397066,05:59:00,05:59:00,41,0,32,http://www.ripta.com/32,Weekday
